Name,Latitude,Longitude,MatchStatus,PlaceID,OsmID,Dist_m,Rating,UserRatingsTotal,URL,OpeningHours
Starbucks,18.7880202,98.9936602,osm_only,NA,336237972,NA,NA,NA,https://www.starbucks.com/,NA
NA,18.824278,99.0099154,osm_only,NA,773473207,NA,NA,NA,https://geodata.ucdavis.edu/gadm/gadm4.1/shp/gadm41_THA_shp.zip,NA
NA,18.8241548,99.00992,osm_only,NA,773473208,NA,NA,NA,https://geodata.ucdavis.edu/gadm/gadm4.1/shp/gadm41_THA_shp.zip,NA
NA,18.8241577,99.0100067,osm_only,NA,773473209,NA,NA,NA,https://geodata.ucdavis.edu/gadm/gadm4.1/shp/gadm41_THA_shp.zip,NA
NA,18.8242809,99.0100021,osm_only,NA,773473210,NA,NA,NA,https://geodata.ucdavis.edu/gadm/gadm4.1/shp/gadm41_THA_shp.zip,NA
Starbucks,18.8244136,99.0117513,osm_only,NA,773476915,NA,NA,NA,https://geodata.ucdavis.edu/gadm/gadm4.1/shp/gadm41_THA_shp.zip,NA
Pordee,18.7843601,98.9964682,osm_only,NA,822570109,NA,NA,NA,https://geodata.ucdavis.edu/gadm/gadm4.1/shp/gadm41_THA_shp.zip,Mo-Su 09:00-23:00
Swensen's,18.743048,98.9622163,osm_only,NA,907784572,NA,NA,NA,https://www.swensens1112.com/,NA
Black Canyon Coffee,18.7431008,98.9618965,osm_only,NA,907784576,NA,NA,NA,https://geodata.ucdavis.edu/gadm/gadm4.1/shp/gadm41_THA_shp.zip,NA
Hungry Crust,18.7837388,99.0162992,osm_only,NA,955952427,NA,NA,NA,https://geodata.ucdavis.edu/gadm/gadm4.1/shp/gadm41_THA_shp.zip,NA
Cafe de Thaan Aoan,18.785469,98.988476,osm_only,NA,1006843145,NA,NA,NA,https://geodata.ucdavis.edu/gadm/gadm4.1/shp/gadm41_THA_shp.zip,Mo-Su 07:00-20:00
NA,18.9236457,98.9236397,osm_only,NA,1013055445,NA,NA,NA,https://geodata.ucdavis.edu/gadm/gadm4.1/shp/gadm41_THA_shp.zip,NA
Friendly Coffee,18.80727,98.9708977,osm_only,NA,1014351915,NA,NA,NA,https://geodata.ucdavis.edu/gadm/gadm4.1/shp/gadm41_THA_shp.zip,NA
Ember,18.7983603,98.9666709,osm_only,NA,1074594027,NA,NA,NA,https://geodata.ucdavis.edu/gadm/gadm4.1/shp/gadm41_THA_shp.zip,NA
Mont Blanc,18.7981989,98.9668754,osm_only,NA,1074595752,NA,NA,NA,https://geodata.ucdavis.edu/gadm/gadm4.1/shp/gadm41_THA_shp.zip,Mo-Su 08:30-21:30
Dolcetto' Cafe,18.797998,98.96681,osm_only,NA,1074595753,NA,NA,NA,https://geodata.ucdavis.edu/gadm/gadm4.1/shp/gadm41_THA_shp.zip,NA
Coffee Bull,18.785574,98.987602,osm_only,NA,1107234875,NA,NA,NA,https://geodata.ucdavis.edu/gadm/gadm4.1/shp/gadm41_THA_shp.zip,Mo-Sa 09:00-18:00
Cofésta,18.799596,98.967651,osm_only,NA,1127592858,NA,NA,NA,https://geodata.ucdavis.edu/gadm/gadm4.1/shp/gadm41_THA_shp.zip,NA
Doi Tung,18.8000098,98.9672331,osm_only,NA,1127593603,NA,NA,NA,https://geodata.ucdavis.edu/gadm/gadm4.1/shp/gadm41_THA_shp.zip,NA
Our House Coffee Shop,18.7945459,98.9934104,osm_only,NA,1129280654,NA,NA,NA,https://geodata.ucdavis.edu/gadm/gadm4.1/shp/gadm41_THA_shp.zip,NA
Coffee Bar,18.790996,98.991466,osm_only,NA,1133608908,NA,NA,NA,https://geodata.ucdavis.edu/gadm/gadm4.1/shp/gadm41_THA_shp.zip,NA
Lucky Coffee,18.7918715,98.9915237,osm_only,NA,1133610755,NA,NA,NA,https://geodata.ucdavis.edu/gadm/gadm4.1/shp/gadm41_THA_shp.zip,NA
K-Coffee,18.8016645,99.0171738,osm_only,NA,1166342189,NA,NA,NA,https://geodata.ucdavis.edu/gadm/gadm4.1/shp/gadm41_THA_shp.zip,NA
NA,18.7681205,99.0058919,osm_only,NA,1173899407,NA,NA,NA,https://geodata.ucdavis.edu/gadm/gadm4.1/shp/gadm41_THA_shp.zip,NA
NA,18.7682862,99.0057001,osm_only,NA,1173899412,NA,NA,NA,https://geodata.ucdavis.edu/gadm/gadm4.1/shp/gadm41_THA_shp.zip,NA
NA,18.7685465,99.0062747,osm_only,NA,1173899486,NA,NA,NA,https://geodata.ucdavis.edu/gadm/gadm4.1/shp/gadm41_THA_shp.zip,NA
NA,18.7738239,99.0415945,osm_only,NA,1314781606,NA,NA,NA,https://geodata.ucdavis.edu/gadm/gadm4.1/shp/gadm41_THA_shp.zip,NA
Twin Cafe,18.7668657,99.0050204,osm_only,NA,1361121238,NA,NA,NA,https://geodata.ucdavis.edu/gadm/gadm4.1/shp/gadm41_THA_shp.zip,NA
NA,18.8785845,99.2177374,osm_only,NA,1362733898,NA,NA,NA,https://geodata.ucdavis.edu/gadm/gadm4.1/shp/gadm41_THA_shp.zip,NA
กาแฟปางขอน,18.7734848,98.9990002,osm_only,NA,1368674790,NA,NA,NA,https://geodata.ucdavis.edu/gadm/gadm4.1/shp/gadm41_THA_shp.zip,NA
NA,18.7585973,99.0084868,osm_only,NA,1402454420,NA,NA,NA,https://geodata.ucdavis.edu/gadm/gadm4.1/shp/gadm41_THA_shp.zip,NA
มิราเคิลกาแฟ,18.779823,99.0440216,osm_only,NA,1446804460,NA,NA,NA,https://geodata.ucdavis.edu/gadm/gadm4.1/shp/gadm41_THA_shp.zip,NA
Art Bosang Coffee House,18.7647206,99.0816374,osm_only,NA,1459660867,NA,NA,NA,https://geodata.ucdavis.edu/gadm/gadm4.1/shp/gadm41_THA_shp.zip,NA
Ninety-Four Coffee,18.768134,98.968295,osm_only,NA,1474870808,NA,NA,NA,https://geodata.ucdavis.edu/gadm/gadm4.1/shp/gadm41_THA_shp.zip,NA
Ninety-Four Coffee,18.7691764,98.96832,osm_only,NA,1474871817,NA,NA,NA,https://geodata.ucdavis.edu/gadm/gadm4.1/shp/gadm41_THA_shp.zip,NA
Caffe Ritazza,18.7693728,98.9683286,osm_only,NA,1474872064,NA,NA,NA,https://geodata.ucdavis.edu/gadm/gadm4.1/shp/gadm41_THA_shp.zip,NA
โรซาร์ เพลส,18.7835505,98.9966895,osm_only,NA,1477503682,NA,NA,NA,https://geodata.ucdavis.edu/gadm/gadm4.1/shp/gadm41_THA_shp.zip,NA
NA,18.7795004,98.9940509,osm_only,NA,1477518782,NA,NA,NA,https://geodata.ucdavis.edu/gadm/gadm4.1/shp/gadm41_THA_shp.zip,Mi-Su 08:30-15:30
Hawaiian Son,18.7820876,98.9945047,osm_only,NA,1477720119,NA,NA,NA,https://geodata.ucdavis.edu/gadm/gadm4.1/shp/gadm41_THA_shp.zip,NA
Born 2,18.7837594,98.9958003,osm_only,NA,1477737616,NA,NA,NA,https://geodata.ucdavis.edu/gadm/gadm4.1/shp/gadm41_THA_shp.zip,NA
Juice,18.7910608,98.990484,osm_only,NA,1491288310,NA,NA,NA,https://geodata.ucdavis.edu/gadm/gadm4.1/shp/gadm41_THA_shp.zip,NA
Chiang Mai Tea House,18.7910105,98.990241,osm_only,NA,1491288849,NA,NA,NA,https://geodata.ucdavis.edu/gadm/gadm4.1/shp/gadm41_THA_shp.zip,NA
City Cafe,18.7903749,98.9918228,osm_only,NA,1491320808,NA,NA,NA,https://geodata.ucdavis.edu/gadm/gadm4.1/shp/gadm41_THA_shp.zip,Mo-Sa 09:00-18:00
Indy Coffee,18.758709,99.0474611,osm_only,NA,1496929137,NA,NA,NA,https://geodata.ucdavis.edu/gadm/gadm4.1/shp/gadm41_THA_shp.zip,Mo-Su 07:00-19:00
NA,18.9359821,98.8227309,osm_only,NA,1517466209,NA,NA,NA,https://geodata.ucdavis.edu/gadm/gadm4.1/shp/gadm41_THA_shp.zip,NA
32km Coffee Hill,19.132967,98.7040518,osm_only,NA,1517513409,NA,NA,NA,https://geodata.ucdavis.edu/gadm/gadm4.1/shp/gadm41_THA_shp.zip,07:00-17:00
Le Vintage,19.1526809,98.6925232,osm_only,NA,1517514449,NA,NA,NA,https://geodata.ucdavis.edu/gadm/gadm4.1/shp/gadm41_THA_shp.zip,NA
NA,18.7597471,99.0152029,osm_only,NA,1548373092,NA,NA,NA,https://geodata.ucdavis.edu/gadm/gadm4.1/shp/gadm41_THA_shp.zip,NA
Java Coffee,18.7878381,98.9944772,osm_only,NA,1595585867,NA,NA,NA,https://geodata.ucdavis.edu/gadm/gadm4.1/shp/gadm41_THA_shp.zip,NA
NA,18.7880705,98.9889753,osm_only,NA,1598982582,NA,NA,NA,https://geodata.ucdavis.edu/gadm/gadm4.1/shp/gadm41_THA_shp.zip,NA
Wawee Coffee,18.7878605,98.9901618,osm_only,NA,1598984446,NA,NA,NA,https://geodata.ucdavis.edu/gadm/gadm4.1/shp/gadm41_THA_shp.zip,NA
Fat Cat,18.7628698,98.9949689,osm_only,NA,1615247948,NA,NA,NA,https://geodata.ucdavis.edu/gadm/gadm4.1/shp/gadm41_THA_shp.zip,NA
Doi Chaang,18.7823754,98.9899659,osm_only,NA,1618868156,NA,NA,NA,https://geodata.ucdavis.edu/gadm/gadm4.1/shp/gadm41_THA_shp.zip,NA
Arom D Shop,18.7700105,98.998772399999993,osm_only,NA,1685453396,NA,NA,NA,https://geodata.ucdavis.edu/gadm/gadm4.1/shp/gadm41_THA_shp.zip,NA
NA,18.8084546,98.974255,osm_only,NA,1686520700,NA,NA,NA,https://geodata.ucdavis.edu/gadm/gadm4.1/shp/gadm41_THA_shp.zip,NA
NA,20.0520265,99.3995497,osm_only,NA,1792667288,NA,NA,NA,https://geodata.ucdavis.edu/gadm/gadm4.1/shp/gadm41_THA_shp.zip,NA
Ming Muang,18.7977747,98.9666391,osm_only,NA,1796986984,NA,NA,NA,https://geodata.ucdavis.edu/gadm/gadm4.1/shp/gadm41_THA_shp.zip,NA
Wawee Coffee,18.7975594,98.9670413,osm_only,NA,1796992462,NA,NA,NA,https://geodata.ucdavis.edu/gadm/gadm4.1/shp/gadm41_THA_shp.zip,NA
Aroma,18.7977215,98.9674348,osm_only,NA,1796992466,NA,NA,NA,https://geodata.ucdavis.edu/gadm/gadm4.1/shp/gadm41_THA_shp.zip,NA
9th Street,18.7974297,98.9682308,osm_only,NA,1797000716,NA,NA,NA,https://geodata.ucdavis.edu/gadm/gadm4.1/shp/gadm41_THA_shp.zip,NA
Tea Tales,18.7974296,98.9683462,osm_only,NA,1797000726,NA,NA,NA,https://geodata.ucdavis.edu/gadm/gadm4.1/shp/gadm41_THA_shp.zip,NA
Marble Arch,18.7973862,98.968367,osm_only,NA,1797002637,NA,NA,NA,https://geodata.ucdavis.edu/gadm/gadm4.1/shp/gadm41_THA_shp.zip,09:00-24:00
O-B-One Coffee & Juice,18.7973154,98.9699966,osm_only,NA,1797019229,NA,NA,NA,https://geodata.ucdavis.edu/gadm/gadm4.1/shp/gadm41_THA_shp.zip,NA
Dejavu Cafe,18.7967367,98.9696581,osm_only,NA,1797039541,NA,NA,NA,https://geodata.ucdavis.edu/gadm/gadm4.1/shp/gadm41_THA_shp.zip,NA
La Genoise,18.7966837,98.9670338,osm_only,NA,1797049148,NA,NA,NA,https://geodata.ucdavis.edu/gadm/gadm4.1/shp/gadm41_THA_shp.zip,NA
Doi Chaang,18.7422351,99.0032854,osm_only,NA,1819897327,NA,NA,NA,https://geodata.ucdavis.edu/gadm/gadm4.1/shp/gadm41_THA_shp.zip,NA
NA,18.8726288,99.1347723,osm_only,NA,1877384996,NA,NA,NA,https://geodata.ucdavis.edu/gadm/gadm4.1/shp/gadm41_THA_shp.zip,NA
NA,18.756235,99.0506925,osm_only,NA,1895792122,NA,NA,NA,https://geodata.ucdavis.edu/gadm/gadm4.1/shp/gadm41_THA_shp.zip,NA
Doi Chaang Coffee,18.7712587,98.9764231,osm_only,NA,1903665319,NA,NA,NA,https://geodata.ucdavis.edu/gadm/gadm4.1/shp/gadm41_THA_shp.zip,07:00-21:00
Kaffee Bitte,18.8486761,98.9566085,osm_only,NA,1974754623,NA,NA,NA,https://geodata.ucdavis.edu/gadm/gadm4.1/shp/gadm41_THA_shp.zip,NA
NA,20.0650784,99.3521588,osm_only,NA,1985457974,NA,NA,NA,https://geodata.ucdavis.edu/gadm/gadm4.1/shp/gadm41_THA_shp.zip,NA
NA,20.0650375,99.3518204,osm_only,NA,1985458244,NA,NA,NA,https://geodata.ucdavis.edu/gadm/gadm4.1/shp/gadm41_THA_shp.zip,NA
Coffee Corner,18.7571736,99.0489814,osm_only,NA,2039805560,NA,NA,NA,https://geodata.ucdavis.edu/gadm/gadm4.1/shp/gadm41_THA_shp.zip,NA
NA,18.790668,98.9896486,osm_only,NA,2039922767,NA,NA,NA,https://geodata.ucdavis.edu/gadm/gadm4.1/shp/gadm41_THA_shp.zip,NA
บ้านลุงหมี,18.7883529,98.9868525,osm_only,NA,2039957239,NA,NA,NA,https://geodata.ucdavis.edu/gadm/gadm4.1/shp/gadm41_THA_shp.zip,NA
NA,18.7883502,98.9869107,osm_only,NA,2039958427,NA,NA,NA,https://geodata.ucdavis.edu/gadm/gadm4.1/shp/gadm41_THA_shp.zip,Mo 08:00-22:00; We-Su 08:00-22:00
J. Ju Coffee,18.7855818,98.9899892,osm_only,NA,2040022297,NA,NA,NA,https://geodata.ucdavis.edu/gadm/gadm4.1/shp/gadm41_THA_shp.zip,NA
Juicy4U,18.7850847,98.9925659,osm_only,NA,2040042303,NA,NA,NA,https://geodata.ucdavis.edu/gadm/gadm4.1/shp/gadm41_THA_shp.zip,Mo-Su 07:00-15:00
หมอกหลวง เชียงดาว,19.3831918,98.9500157,osm_only,NA,2045679477,NA,NA,NA,https://geodata.ucdavis.edu/gadm/gadm4.1/shp/gadm41_THA_shp.zip,NA
Kopi-O Cafe,18.7860192,98.9926927,osm_only,NA,2055855117,NA,NA,NA,https://geodata.ucdavis.edu/gadm/gadm4.1/shp/gadm41_THA_shp.zip,NA
Kissa Cafe,18.7976964,98.9895215,osm_only,NA,2082864508,NA,NA,NA,https://geodata.ucdavis.edu/gadm/gadm4.1/shp/gadm41_THA_shp.zip,NA
Paper Spoon,18.7808857,98.9529275,osm_only,NA,2085487654,NA,NA,NA,https://geodata.ucdavis.edu/gadm/gadm4.1/shp/gadm41_THA_shp.zip,NA
กลิ่นละมุน,18.7962642,99.0399276,osm_only,NA,2095788662,NA,NA,NA,https://geodata.ucdavis.edu/gadm/gadm4.1/shp/gadm41_THA_shp.zip,NA
Cosmos Cafe,18.7946677,98.9661312,osm_only,NA,2099411773,NA,NA,NA,https://geodata.ucdavis.edu/gadm/gadm4.1/shp/gadm41_THA_shp.zip,NA
Wawee Coffee,18.7978619,98.964613,osm_only,NA,2099411789,NA,NA,NA,https://geodata.ucdavis.edu/gadm/gadm4.1/shp/gadm41_THA_shp.zip,NA
Na Na Croissant and Coffee,18.8040817,98.9790419,osm_only,NA,2104376722,NA,NA,NA,http://www.nana-bakery-chiang-mai.com/,Tu-Su 07:00-18:00
Ristr8to,18.7991022,98.9672198,osm_only,NA,2105726947,NA,NA,NA,https://www.ristr8to.com/,We-Mo 07:08-20:08
Hillkoff Coffee Sales & Service,18.7984455,98.9866895,osm_only,NA,2105737204,NA,NA,NA,http://hillkoff.tarad.com,NA
Sangdee,18.7958435,98.9714631,osm_only,NA,2124797950,NA,NA,NA,https://geodata.ucdavis.edu/gadm/gadm4.1/shp/gadm41_THA_shp.zip,NA
NA,18.7883213,98.9994061,osm_only,NA,2125935593,NA,NA,NA,https://geodata.ucdavis.edu/gadm/gadm4.1/shp/gadm41_THA_shp.zip,NA
NA,18.9600392,98.992148,osm_only,NA,2183015152,NA,NA,NA,https://geodata.ucdavis.edu/gadm/gadm4.1/shp/gadm41_THA_shp.zip,NA
Hom Groon Coffee,18.7956012,99.0299923,osm_only,NA,2187932054,NA,NA,NA,https://geodata.ucdavis.edu/gadm/gadm4.1/shp/gadm41_THA_shp.zip,NA
NA,19.1545971,98.8590298,osm_only,NA,2190918720,NA,NA,NA,https://geodata.ucdavis.edu/gadm/gadm4.1/shp/gadm41_THA_shp.zip,NA
NA,19.2004183,98.8881808,osm_only,NA,2190918913,NA,NA,NA,https://geodata.ucdavis.edu/gadm/gadm4.1/shp/gadm41_THA_shp.zip,NA
NA,19.3725118,98.9659029,osm_only,NA,2195951195,NA,NA,NA,https://geodata.ucdavis.edu/gadm/gadm4.1/shp/gadm41_THA_shp.zip,NA
NA,18.7841295,98.9934816,osm_only,NA,2211037641,NA,NA,NA,https://geodata.ucdavis.edu/gadm/gadm4.1/shp/gadm41_THA_shp.zip,NA
NA,18.8615294,98.7049896,osm_only,NA,2229123276,NA,NA,NA,https://geodata.ucdavis.edu/gadm/gadm4.1/shp/gadm41_THA_shp.zip,NA
NA,18.7465532,99.2300841,osm_only,NA,2299123487,NA,NA,NA,https://geodata.ucdavis.edu/gadm/gadm4.1/shp/gadm41_THA_shp.zip,NA
NA,18.7396754,99.0840133,osm_only,NA,2308000157,NA,NA,NA,https://geodata.ucdavis.edu/gadm/gadm4.1/shp/gadm41_THA_shp.zip,NA
Akha Ama Phrasingh,18.7884334,98.9832565,osm_only,NA,2404044286,NA,NA,NA,http://www.akhaama.com/,Mo-Sa 08:00-18:00; Su 08:00-20:00
Cafe de Sirin,18.7872085,98.9988636,osm_only,NA,2414298003,NA,NA,NA,https://geodata.ucdavis.edu/gadm/gadm4.1/shp/gadm41_THA_shp.zip,NA
Rajdamnoen Coffee,18.7882024,98.9853463,osm_only,NA,2419667430,NA,NA,NA,https://geodata.ucdavis.edu/gadm/gadm4.1/shp/gadm41_THA_shp.zip,NA
NA,18.8074891,98.9949414,osm_only,NA,2428725795,NA,NA,NA,https://geodata.ucdavis.edu/gadm/gadm4.1/shp/gadm41_THA_shp.zip,NA
Au choix,18.801952,98.955317,osm_only,NA,2434773550,NA,NA,NA,https://geodata.ucdavis.edu/gadm/gadm4.1/shp/gadm41_THA_shp.zip,NA
Him Tang,18.8030234,98.9541472,osm_only,NA,2434777647,NA,NA,NA,https://geodata.ucdavis.edu/gadm/gadm4.1/shp/gadm41_THA_shp.zip,NA
กาแฟรัฐศาสตร์,18.803659,98.954184,osm_only,NA,2434783251,NA,NA,NA,https://geodata.ucdavis.edu/gadm/gadm4.1/shp/gadm41_THA_shp.zip,NA
Smile Coffee,18.7961626,98.9524658,osm_only,NA,2434783680,NA,NA,NA,https://geodata.ucdavis.edu/gadm/gadm4.1/shp/gadm41_THA_shp.zip,NA
Double Click Cafe,18.8036767,98.9529954,osm_only,NA,2434785831,NA,NA,NA,https://geodata.ucdavis.edu/gadm/gadm4.1/shp/gadm41_THA_shp.zip,NA
PAK Cafe,18.803894,98.9523157,osm_only,NA,2434787311,NA,NA,NA,https://geodata.ucdavis.edu/gadm/gadm4.1/shp/gadm41_THA_shp.zip,Mo-Sa 09:00-17:00
ฝ้ายเบเกอรี่,18.8017106,98.9518461,osm_only,NA,2434788491,NA,NA,NA,https://geodata.ucdavis.edu/gadm/gadm4.1/shp/gadm41_THA_shp.zip,NA
Kopi Gusto,18.801594,98.953546,osm_only,NA,2434791094,NA,NA,NA,https://geodata.ucdavis.edu/gadm/gadm4.1/shp/gadm41_THA_shp.zip,NA
C.M.U Bookstore Coffee,18.8015102,98.952814,osm_only,NA,2434791424,NA,NA,NA,https://geodata.ucdavis.edu/gadm/gadm4.1/shp/gadm41_THA_shp.zip,NA
ฝ้ายเบเกอรี่,18.7941323,98.9571127,osm_only,NA,2434793620,NA,NA,NA,https://geodata.ucdavis.edu/gadm/gadm4.1/shp/gadm41_THA_shp.zip,NA
NA,18.920273,99.0120562,osm_only,NA,2438922443,NA,NA,NA,https://geodata.ucdavis.edu/gadm/gadm4.1/shp/gadm41_THA_shp.zip,NA
Pacamara,18.7883537,98.9866577,osm_only,NA,2442812998,NA,NA,NA,https://geodata.ucdavis.edu/gadm/gadm4.1/shp/gadm41_THA_shp.zip,NA
Doi Chaang,18.8282003,99.0120337,osm_only,NA,2450538522,NA,NA,NA,https://geodata.ucdavis.edu/gadm/gadm4.1/shp/gadm41_THA_shp.zip,NA
NA,18.7858939,98.9818942,osm_only,NA,2466309811,NA,NA,NA,https://geodata.ucdavis.edu/gadm/gadm4.1/shp/gadm41_THA_shp.zip,NA
Coffee in Narrow,18.7872314,98.9897921,osm_only,NA,2466333305,NA,NA,NA,https://geodata.ucdavis.edu/gadm/gadm4.1/shp/gadm41_THA_shp.zip,NA
NAP'S Coffee Roaster,18.7895742,98.9849839,osm_only,NA,2466401386,NA,NA,NA,https://geodata.ucdavis.edu/gadm/gadm4.1/shp/gadm41_THA_shp.zip,NA
NA,18.8020156,98.9843786,osm_only,NA,2468772713,NA,NA,NA,https://geodata.ucdavis.edu/gadm/gadm4.1/shp/gadm41_THA_shp.zip,NA
ร้านกาแฟชมนกชมไม้,18.8658954,99.355712,osm_only,NA,2488959596,NA,NA,NA,https://geodata.ucdavis.edu/gadm/gadm4.1/shp/gadm41_THA_shp.zip,08:00-17:00
Jack's Coffee & Bakery,20.0584914,99.3604489,osm_only,NA,2494459527,NA,NA,NA,https://geodata.ucdavis.edu/gadm/gadm4.1/shp/gadm41_THA_shp.zip,NA
ไร่นท-ภูผา,18.8547824,98.7526357,osm_only,NA,2494631745,NA,NA,NA,https://geodata.ucdavis.edu/gadm/gadm4.1/shp/gadm41_THA_shp.zip,NA
ไอเบอร์รี่,18.7942473,98.9689346,osm_only,NA,2505598106,NA,NA,NA,https://geodata.ucdavis.edu/gadm/gadm4.1/shp/gadm41_THA_shp.zip,Mo-Su 10:30-22:00
Black Canyon,18.8243832,99.0138363,osm_only,NA,2517085338,NA,NA,NA,https://geodata.ucdavis.edu/gadm/gadm4.1/shp/gadm41_THA_shp.zip,NA
Cafe Amazon,18.8285283,99.0118848,osm_only,NA,2519563448,NA,NA,NA,https://geodata.ucdavis.edu/gadm/gadm4.1/shp/gadm41_THA_shp.zip,Mo-Su 06:00-18:00
เบนซ์ คาเฟ่,18.7913245,99.0271378,osm_only,NA,2520629646,NA,NA,NA,https://geodata.ucdavis.edu/gadm/gadm4.1/shp/gadm41_THA_shp.zip,NA
Akha Ama,18.8032255,98.9800245,osm_only,NA,2527662833,NA,NA,NA,http://www.akhaama.com,Mo-Tu 08:00-20:00; Th-Su 08:00-20:00
ขนมหวาน,18.8023754,98.9793876,osm_only,NA,2530435333,NA,NA,NA,https://geodata.ucdavis.edu/gadm/gadm4.1/shp/gadm41_THA_shp.zip,NA
Le Cafe Doisaket,18.9060078,99.1351212,osm_only,NA,2531723595,NA,NA,NA,https://www.facebook.com/Le.Cafe.Doisaket,We-Su 12:30-19:30
NA,19.204962600000002,98.6703863,osm_only,NA,2532279692,NA,NA,NA,https://geodata.ucdavis.edu/gadm/gadm4.1/shp/gadm41_THA_shp.zip,NA
NA,18.800274,98.9801072,osm_only,NA,2537789997,NA,NA,NA,https://geodata.ucdavis.edu/gadm/gadm4.1/shp/gadm41_THA_shp.zip,NA
NA,18.7433919,98.9290262,osm_only,NA,2544910570,NA,NA,NA,https://geodata.ucdavis.edu/gadm/gadm4.1/shp/gadm41_THA_shp.zip,NA
Food,18.6048717,98.7918527,osm_only,NA,2544996945,NA,NA,NA,https://geodata.ucdavis.edu/gadm/gadm4.1/shp/gadm41_THA_shp.zip,NA
NA,18.7684187,98.868852,osm_only,NA,2548920986,NA,NA,NA,https://geodata.ucdavis.edu/gadm/gadm4.1/shp/gadm41_THA_shp.zip,NA
Sudsanan,18.7993979,98.9738953,osm_only,NA,2554099859,NA,NA,NA,https://geodata.ucdavis.edu/gadm/gadm4.1/shp/gadm41_THA_shp.zip,NA
Coffee de Trains,18.783889,99.0169774,osm_only,NA,2562531648,NA,NA,NA,https://geodata.ucdavis.edu/gadm/gadm4.1/shp/gadm41_THA_shp.zip,NA
NA,18.6873889,98.9470885,osm_only,NA,2576988506,NA,NA,NA,https://geodata.ucdavis.edu/gadm/gadm4.1/shp/gadm41_THA_shp.zip,NA
NA,18.6894215,98.9433618,osm_only,NA,2576988539,NA,NA,NA,https://geodata.ucdavis.edu/gadm/gadm4.1/shp/gadm41_THA_shp.zip,NA
NA,18.6876437,98.9472499,osm_only,NA,2576988679,NA,NA,NA,https://geodata.ucdavis.edu/gadm/gadm4.1/shp/gadm41_THA_shp.zip,NA
Game Online & Internet,18.766579,99.0835219,osm_only,NA,2581625565,NA,NA,NA,https://geodata.ucdavis.edu/gadm/gadm4.1/shp/gadm41_THA_shp.zip,Mo-Su 09:00-24:00
สันไร่กาแฟ,18.7536402,99.1016741,osm_only,NA,2581627060,NA,NA,NA,https://geodata.ucdavis.edu/gadm/gadm4.1/shp/gadm41_THA_shp.zip,NA
กาแฟสด,18.7703844,99.085193,osm_only,NA,2582055354,NA,NA,NA,https://geodata.ucdavis.edu/gadm/gadm4.1/shp/gadm41_THA_shp.zip,NA
คำ-ม่อน,18.7819025,98.9807579,osm_only,NA,2590185727,NA,NA,NA,https://geodata.ucdavis.edu/gadm/gadm4.1/shp/gadm41_THA_shp.zip,Mo-Su 08:00-18:00
เกียว ไอศครีมกะทิ,18.8791411,99.060984,osm_only,NA,2590253491,NA,NA,NA,https://geodata.ucdavis.edu/gadm/gadm4.1/shp/gadm41_THA_shp.zip,NA
Cafe Blanco,18.7860191,98.9986166,osm_only,NA,2597971867,NA,NA,NA,https://geodata.ucdavis.edu/gadm/gadm4.1/shp/gadm41_THA_shp.zip,NA
Kaffe 151,18.7908106,98.9876772,osm_only,NA,2598509572,NA,NA,NA,https://geodata.ucdavis.edu/gadm/gadm4.1/shp/gadm41_THA_shp.zip,NA
The Cozy Cafe,18.7817463,98.9897543,osm_only,NA,2598509593,NA,NA,NA,https://geodata.ucdavis.edu/gadm/gadm4.1/shp/gadm41_THA_shp.zip,NA
NA,18.8026686,98.9605869,osm_only,NA,2604017619,NA,NA,NA,https://geodata.ucdavis.edu/gadm/gadm4.1/shp/gadm41_THA_shp.zip,NA
Latte Delight,18.8092844,98.9631692,osm_only,NA,2609583867,NA,NA,NA,https://geodata.ucdavis.edu/gadm/gadm4.1/shp/gadm41_THA_shp.zip,Mo-Su 07:00-20:00
Cafe Long Do,18.922019,98.9939463,osm_only,NA,2610694860,NA,NA,NA,https://geodata.ucdavis.edu/gadm/gadm4.1/shp/gadm41_THA_shp.zip,NA
ไม้เฮือน๖๐,18.9388768,98.9429997,osm_only,NA,2611231828,NA,NA,NA,https://geodata.ucdavis.edu/gadm/gadm4.1/shp/gadm41_THA_shp.zip,Mo-Su 07:30-18:00
NA,18.7864241,99.0112026,osm_only,NA,2613801942,NA,NA,NA,https://geodata.ucdavis.edu/gadm/gadm4.1/shp/gadm41_THA_shp.zip,NA
NA,18.7862832,99.0111704,osm_only,NA,2613801944,NA,NA,NA,https://geodata.ucdavis.edu/gadm/gadm4.1/shp/gadm41_THA_shp.zip,NA
NA,18.7862515,99.0113541,osm_only,NA,2613801946,NA,NA,NA,https://geodata.ucdavis.edu/gadm/gadm4.1/shp/gadm41_THA_shp.zip,NA
NA,18.7863898,99.0113876,osm_only,NA,2613801948,NA,NA,NA,https://geodata.ucdavis.edu/gadm/gadm4.1/shp/gadm41_THA_shp.zip,NA
ร้านกาแฟ โรงเรียนอมก๋อยวิทยาคม,17.7999449,98.3575985,osm_only,NA,2618230818,NA,NA,NA,https://geodata.ucdavis.edu/gadm/gadm4.1/shp/gadm41_THA_shp.zip,08:00-16:00
โจโจ้ อินเตอร์เน็ต,17.7968413,98.3572326,osm_only,NA,2618260105,NA,NA,NA,https://geodata.ucdavis.edu/gadm/gadm4.1/shp/gadm41_THA_shp.zip,NA
NA,18.8253327,98.9990052,osm_only,NA,2625725861,NA,NA,NA,https://geodata.ucdavis.edu/gadm/gadm4.1/shp/gadm41_THA_shp.zip,NA
NA,18.9662506,99.2416094,osm_only,NA,2629881214,NA,NA,NA,https://geodata.ucdavis.edu/gadm/gadm4.1/shp/gadm41_THA_shp.zip,NA
NA,18.791621,98.97033,osm_only,NA,2632210802,NA,NA,NA,https://geodata.ucdavis.edu/gadm/gadm4.1/shp/gadm41_THA_shp.zip,NA
Strawberry Fields Forever,19.8143168,99.1130712,osm_only,NA,2633808687,NA,NA,NA,https://geodata.ucdavis.edu/gadm/gadm4.1/shp/gadm41_THA_shp.zip,NA
Wawee,18.7893911,99.0042075,osm_only,NA,2648382125,NA,NA,NA,https://waweecoffee.com/,NA
เฮือนโบราณ ฮิมปิง,18.7770569,99.0076128,osm_only,NA,2648443313,NA,NA,NA,https://geodata.ucdavis.edu/gadm/gadm4.1/shp/gadm41_THA_shp.zip,NA
Club Diva,18.7899219,98.9560608,osm_only,NA,2650709899,NA,NA,NA,https://geodata.ucdavis.edu/gadm/gadm4.1/shp/gadm41_THA_shp.zip,NA
Yellow Bear Coffee,18.79889,98.9712526,osm_only,NA,2650769476,NA,NA,NA,https://geodata.ucdavis.edu/gadm/gadm4.1/shp/gadm41_THA_shp.zip,NA
Coffee 2 Days,18.7797528,98.9915472,osm_only,NA,2652920111,NA,NA,NA,https://geodata.ucdavis.edu/gadm/gadm4.1/shp/gadm41_THA_shp.zip,NA
Bella Goose Coffee,18.7812489,98.9990017,osm_only,NA,2655145988,NA,NA,NA,https://geodata.ucdavis.edu/gadm/gadm4.1/shp/gadm41_THA_shp.zip,07:00-16:00
Cafe' de Siam,18.7840002,98.9985363,osm_only,NA,2655180134,NA,NA,NA,https://geodata.ucdavis.edu/gadm/gadm4.1/shp/gadm41_THA_shp.zip,Tu-Su 08:15-18:30
NA,18.7744407,98.9900832,osm_only,NA,2656885995,NA,NA,NA,https://geodata.ucdavis.edu/gadm/gadm4.1/shp/gadm41_THA_shp.zip,NA
De Cassowary,18.7774265,98.9872715,osm_only,NA,2658260600,NA,NA,NA,https://geodata.ucdavis.edu/gadm/gadm4.1/shp/gadm41_THA_shp.zip,Mo-Su 10:00-23:00
Doi Chaang,18.7946383,98.9655721,osm_only,NA,2660438580,NA,NA,NA,https://geodata.ucdavis.edu/gadm/gadm4.1/shp/gadm41_THA_shp.zip,NA
Dude Cafe,18.7962597,98.9657581,osm_only,NA,2660438583,NA,NA,NA,https://geodata.ucdavis.edu/gadm/gadm4.1/shp/gadm41_THA_shp.zip,NA
Gateaux House,18.7888682,98.9730892,osm_only,NA,2661676325,NA,NA,NA,https://geodata.ucdavis.edu/gadm/gadm4.1/shp/gadm41_THA_shp.zip,NA
ร้านครึ่งทางโอเคมาร์ท,19.2081198,98.6706995,osm_only,NA,2666702978,NA,NA,NA,https://geodata.ucdavis.edu/gadm/gadm4.1/shp/gadm41_THA_shp.zip,NA
Im Cafe,18.795881,99.0057913,osm_only,NA,2678552865,NA,NA,NA,https://geodata.ucdavis.edu/gadm/gadm4.1/shp/gadm41_THA_shp.zip,NA
NA,18.6909966,99.049218,osm_only,NA,2679587976,NA,NA,NA,https://geodata.ucdavis.edu/gadm/gadm4.1/shp/gadm41_THA_shp.zip,NA
เฮือนซาลาเปา,18.8087233,99.0126168,osm_only,NA,2682493524,NA,NA,NA,https://geodata.ucdavis.edu/gadm/gadm4.1/shp/gadm41_THA_shp.zip,07:00-18:00
Walk Street Café,18.8015702,99.0105358,osm_only,NA,2682539763,NA,NA,NA,https://geodata.ucdavis.edu/gadm/gadm4.1/shp/gadm41_THA_shp.zip,NA
ฝ้ายเบเกอรี่,18.8259397,99.0118882,osm_only,NA,2682577300,NA,NA,NA,https://geodata.ucdavis.edu/gadm/gadm4.1/shp/gadm41_THA_shp.zip,NA
NA,18.5427689,98.5916025,osm_only,NA,2685071679,NA,NA,NA,https://geodata.ucdavis.edu/gadm/gadm4.1/shp/gadm41_THA_shp.zip,NA
Cup & Cake,18.6297624,98.8966168,osm_only,NA,2685512392,NA,NA,NA,https://geodata.ucdavis.edu/gadm/gadm4.1/shp/gadm41_THA_shp.zip,NA
กาแฟดอยขุนแตะ,18.4345822,98.6854219,osm_only,NA,2687048817,NA,NA,NA,https://geodata.ucdavis.edu/gadm/gadm4.1/shp/gadm41_THA_shp.zip,NA
NA,18.7985799,98.9867844,osm_only,NA,2689500563,NA,NA,NA,https://geodata.ucdavis.edu/gadm/gadm4.1/shp/gadm41_THA_shp.zip,NA
Roastniyom Coffee,18.7975573,98.9710079,osm_only,NA,2689662657,NA,NA,NA,https://geodata.ucdavis.edu/gadm/gadm4.1/shp/gadm41_THA_shp.zip,Mo-Su 07:00-20:00
The Coffee Club,18.7879133,98.9929407,osm_only,NA,2716915567,NA,NA,NA,https://geodata.ucdavis.edu/gadm/gadm4.1/shp/gadm41_THA_shp.zip,NA
Sonnencafé,18.794801,98.9648495,osm_only,NA,2716931056,NA,NA,NA,https://geodata.ucdavis.edu/gadm/gadm4.1/shp/gadm41_THA_shp.zip,NA
Bud's Ice Cream,18.7972281,99.0080952,osm_only,NA,2726518791,NA,NA,NA,https://geodata.ucdavis.edu/gadm/gadm4.1/shp/gadm41_THA_shp.zip,NA
NA,18.9621395,98.9141064,osm_only,NA,2773248348,NA,NA,NA,https://geodata.ucdavis.edu/gadm/gadm4.1/shp/gadm41_THA_shp.zip,NA
NA,18.9620152,98.914211,osm_only,NA,2773248350,NA,NA,NA,https://geodata.ucdavis.edu/gadm/gadm4.1/shp/gadm41_THA_shp.zip,NA
NA,18.9619873,98.9141681,osm_only,NA,2773248352,NA,NA,NA,https://geodata.ucdavis.edu/gadm/gadm4.1/shp/gadm41_THA_shp.zip,NA
NA,18.9523647,98.9443028,osm_only,NA,2773327206,NA,NA,NA,https://geodata.ucdavis.edu/gadm/gadm4.1/shp/gadm41_THA_shp.zip,NA
NA,18.9522531,98.944281,osm_only,NA,2773327210,NA,NA,NA,https://geodata.ucdavis.edu/gadm/gadm4.1/shp/gadm41_THA_shp.zip,NA
NA,18.9522306,98.9444098,osm_only,NA,2773327214,NA,NA,NA,https://geodata.ucdavis.edu/gadm/gadm4.1/shp/gadm41_THA_shp.zip,NA
NA,18.9523422,98.9444316,osm_only,NA,2773327218,NA,NA,NA,https://geodata.ucdavis.edu/gadm/gadm4.1/shp/gadm41_THA_shp.zip,NA
NA,19.3851105,98.7159638,osm_only,NA,2794674306,NA,NA,NA,https://geodata.ucdavis.edu/gadm/gadm4.1/shp/gadm41_THA_shp.zip,NA
NA,18.7726028,98.9780852,osm_only,NA,2799210280,NA,NA,NA,https://geodata.ucdavis.edu/gadm/gadm4.1/shp/gadm41_THA_shp.zip,NA
Sleepless,18.8058828,98.9880991,osm_only,NA,2865694701,NA,NA,NA,https://geodata.ucdavis.edu/gadm/gadm4.1/shp/gadm41_THA_shp.zip,NA
Coffee World,18.8068847,99.0181162,osm_only,NA,2865846901,NA,NA,NA,https://geodata.ucdavis.edu/gadm/gadm4.1/shp/gadm41_THA_shp.zip,NA
Pang Ping Café,18.8067569,99.0180447,osm_only,NA,2865847101,NA,NA,NA,https://geodata.ucdavis.edu/gadm/gadm4.1/shp/gadm41_THA_shp.zip,NA
Gloria Jean's Coffee,18.8076973,99.0182069,osm_only,NA,2865857601,NA,NA,NA,https://geodata.ucdavis.edu/gadm/gadm4.1/shp/gadm41_THA_shp.zip,NA
NA,18.7901527,98.9841078,osm_only,NA,2907507673,NA,NA,NA,https://geodata.ucdavis.edu/gadm/gadm4.1/shp/gadm41_THA_shp.zip,NA
NA,18.7903225,98.9840948,osm_only,NA,2907507674,NA,NA,NA,https://geodata.ucdavis.edu/gadm/gadm4.1/shp/gadm41_THA_shp.zip,NA
NA,18.7903329,98.9842465,osm_only,NA,2907507675,NA,NA,NA,https://geodata.ucdavis.edu/gadm/gadm4.1/shp/gadm41_THA_shp.zip,NA
NA,18.7901607,98.9842597,osm_only,NA,2907507676,NA,NA,NA,https://geodata.ucdavis.edu/gadm/gadm4.1/shp/gadm41_THA_shp.zip,NA
Doqaholic Cafe,18.8013006,98.9674288,osm_only,NA,2922091901,NA,NA,NA,https://geodata.ucdavis.edu/gadm/gadm4.1/shp/gadm41_THA_shp.zip,NA
Vet Med Cafeteria,18.7587783,98.9405236,osm_only,NA,2934994593,NA,NA,NA,https://geodata.ucdavis.edu/gadm/gadm4.1/shp/gadm41_THA_shp.zip,NA
NA,18.762396,98.9369321,osm_only,NA,2935124549,NA,NA,NA,https://geodata.ucdavis.edu/gadm/gadm4.1/shp/gadm41_THA_shp.zip,NA
NA,18.7612718,98.9363164,osm_only,NA,2935125974,NA,NA,NA,https://geodata.ucdavis.edu/gadm/gadm4.1/shp/gadm41_THA_shp.zip,NA
ฅนขายเป็ด,18.7394988,99.0813746,osm_only,NA,2941835002,NA,NA,NA,https://geodata.ucdavis.edu/gadm/gadm4.1/shp/gadm41_THA_shp.zip,NA
NA,18.7720706,99.0676129,osm_only,NA,2947600033,NA,NA,NA,https://geodata.ucdavis.edu/gadm/gadm4.1/shp/gadm41_THA_shp.zip,NA
Camellia & Co.,18.8011842,98.9675019,osm_only,NA,2969701534,NA,NA,NA,https://geodata.ucdavis.edu/gadm/gadm4.1/shp/gadm41_THA_shp.zip,24/7
NA,18.7780596,98.9948486,osm_only,NA,2980587711,NA,NA,NA,https://geodata.ucdavis.edu/gadm/gadm4.1/shp/gadm41_THA_shp.zip,NA
NA,18.7781498,98.9949096,osm_only,NA,2980587712,NA,NA,NA,https://geodata.ucdavis.edu/gadm/gadm4.1/shp/gadm41_THA_shp.zip,NA
NA,18.778143,98.9947111,osm_only,NA,2980587714,NA,NA,NA,https://geodata.ucdavis.edu/gadm/gadm4.1/shp/gadm41_THA_shp.zip,NA
NA,18.7782332,98.9947721,osm_only,NA,2980587715,NA,NA,NA,https://geodata.ucdavis.edu/gadm/gadm4.1/shp/gadm41_THA_shp.zip,NA
NA,18.778132,98.9948976,osm_only,NA,2980587718,NA,NA,NA,https://geodata.ucdavis.edu/gadm/gadm4.1/shp/gadm41_THA_shp.zip,NA
NA,18.7541367,99.0566354,osm_only,NA,2982600044,NA,NA,NA,https://geodata.ucdavis.edu/gadm/gadm4.1/shp/gadm41_THA_shp.zip,NA
NA,18.7600487,99.0161825,osm_only,NA,2984068640,NA,NA,NA,https://geodata.ucdavis.edu/gadm/gadm4.1/shp/gadm41_THA_shp.zip,NA
Coffee Journey,18.7856657,99.0091468,osm_only,NA,2984537933,NA,NA,NA,https://geodata.ucdavis.edu/gadm/gadm4.1/shp/gadm41_THA_shp.zip,NA
NA,18.6932187,98.9457078,osm_only,NA,3022682448,NA,NA,NA,https://geodata.ucdavis.edu/gadm/gadm4.1/shp/gadm41_THA_shp.zip,NA
NA,18.6933073,98.9456847,osm_only,NA,3022682450,NA,NA,NA,https://geodata.ucdavis.edu/gadm/gadm4.1/shp/gadm41_THA_shp.zip,NA
NA,18.693464,98.9454444,osm_only,NA,3022682452,NA,NA,NA,https://geodata.ucdavis.edu/gadm/gadm4.1/shp/gadm41_THA_shp.zip,NA
ที่นี่ ลีลาวดี,18.8748049,99.136253,osm_only,NA,3063226177,NA,NA,NA,https://geodata.ucdavis.edu/gadm/gadm4.1/shp/gadm41_THA_shp.zip,NA
NA,18.7671324,98.9817335,osm_only,NA,3067759761,NA,NA,NA,https://geodata.ucdavis.edu/gadm/gadm4.1/shp/gadm41_THA_shp.zip,NA
NA,18.8078928,98.9945886,osm_only,NA,3091942608,NA,NA,NA,https://geodata.ucdavis.edu/gadm/gadm4.1/shp/gadm41_THA_shp.zip,NA
กาแฟรสนิยม,18.8081115,98.9950507,osm_only,NA,3091942614,NA,NA,NA,https://geodata.ucdavis.edu/gadm/gadm4.1/shp/gadm41_THA_shp.zip,NA
NA,18.8082861,98.9950526,osm_only,NA,3091942618,NA,NA,NA,https://geodata.ucdavis.edu/gadm/gadm4.1/shp/gadm41_THA_shp.zip,NA
Love Coffee,18.7436014,99.1194917,osm_only,NA,3103269529,NA,NA,NA,https://geodata.ucdavis.edu/gadm/gadm4.1/shp/gadm41_THA_shp.zip,NA
NA,18.9236766,98.9235316,osm_only,NA,3105043084,NA,NA,NA,https://geodata.ucdavis.edu/gadm/gadm4.1/shp/gadm41_THA_shp.zip,NA
NA,18.9235781,98.9228224,osm_only,NA,3105043085,NA,NA,NA,https://geodata.ucdavis.edu/gadm/gadm4.1/shp/gadm41_THA_shp.zip,NA
Baa Baa Black Cafe,18.9126485,98.9291217,osm_only,NA,3106841846,NA,NA,NA,https://geodata.ucdavis.edu/gadm/gadm4.1/shp/gadm41_THA_shp.zip,NA
NA,18.959137,98.9439243,osm_only,NA,3109086413,NA,NA,NA,https://geodata.ucdavis.edu/gadm/gadm4.1/shp/gadm41_THA_shp.zip,NA
Eden Cafe,18.8659078,99.1503386,osm_only,NA,3112473832,NA,NA,NA,https://geodata.ucdavis.edu/gadm/gadm4.1/shp/gadm41_THA_shp.zip,NA
NA,18.9233645,98.9348893,osm_only,NA,3136607441,NA,NA,NA,https://geodata.ucdavis.edu/gadm/gadm4.1/shp/gadm41_THA_shp.zip,NA
Cool Cafe,18.9089176,98.9477027,osm_only,NA,3149195389,NA,NA,NA,https://geodata.ucdavis.edu/gadm/gadm4.1/shp/gadm41_THA_shp.zip,NA
Coffee House,18.7984826,99.0175562,osm_only,NA,3152478861,NA,NA,NA,https://geodata.ucdavis.edu/gadm/gadm4.1/shp/gadm41_THA_shp.zip,NA
NA,18.7835315,99.0058305,osm_only,NA,3162926207,NA,NA,NA,https://geodata.ucdavis.edu/gadm/gadm4.1/shp/gadm41_THA_shp.zip,NA
NA,18.8050127,98.9498647,osm_only,NA,3167971811,NA,NA,NA,https://geodata.ucdavis.edu/gadm/gadm4.1/shp/gadm41_THA_shp.zip,NA
NA,18.8050135,98.9499738,osm_only,NA,3167971812,NA,NA,NA,https://geodata.ucdavis.edu/gadm/gadm4.1/shp/gadm41_THA_shp.zip,NA
NA,18.8049234,98.9499746,osm_only,NA,3167971813,NA,NA,NA,https://geodata.ucdavis.edu/gadm/gadm4.1/shp/gadm41_THA_shp.zip,NA
NA,18.8049225,98.9498655,osm_only,NA,3167971814,NA,NA,NA,https://geodata.ucdavis.edu/gadm/gadm4.1/shp/gadm41_THA_shp.zip,NA
Librarista,18.7984601,98.9688241,osm_only,NA,3168260766,NA,NA,NA,https://geodata.ucdavis.edu/gadm/gadm4.1/shp/gadm41_THA_shp.zip,NA
Casa Shadé,18.6873272,98.9474332,osm_only,NA,3174252561,NA,NA,NA,https://geodata.ucdavis.edu/gadm/gadm4.1/shp/gadm41_THA_shp.zip,NA
I Love Ice Cream,18.7988667,99.0238306,osm_only,NA,3180206861,NA,NA,NA,https://geodata.ucdavis.edu/gadm/gadm4.1/shp/gadm41_THA_shp.zip,NA
ฝ้ายเบเกอรี่,18.8013672,98.9501719,osm_only,NA,3182220946,NA,NA,NA,https://geodata.ucdavis.edu/gadm/gadm4.1/shp/gadm41_THA_shp.zip,NA
Wawee Coffee,18.7986562,99.0239188,osm_only,NA,3182230621,NA,NA,NA,https://geodata.ucdavis.edu/gadm/gadm4.1/shp/gadm41_THA_shp.zip,NA
NA,18.8735205,99.1338267,osm_only,NA,3184375941,NA,NA,NA,https://geodata.ucdavis.edu/gadm/gadm4.1/shp/gadm41_THA_shp.zip,NA
NA,18.8866171,99.2656876,osm_only,NA,3184551427,NA,NA,NA,https://geodata.ucdavis.edu/gadm/gadm4.1/shp/gadm41_THA_shp.zip,NA
Café Amazon,18.8088946,99.0119025,osm_only,NA,3184594339,NA,NA,NA,https://geodata.ucdavis.edu/gadm/gadm4.1/shp/gadm41_THA_shp.zip,NA
ใบทอง บวยเลิฟ,18.8466967,99.0796366,osm_only,NA,3184594340,NA,NA,NA,https://geodata.ucdavis.edu/gadm/gadm4.1/shp/gadm41_THA_shp.zip,NA
NA,18.8136466,99.0323128,osm_only,NA,3184594342,NA,NA,NA,https://geodata.ucdavis.edu/gadm/gadm4.1/shp/gadm41_THA_shp.zip,NA
NA,18.7956893,98.9550251,osm_only,NA,3195111236,NA,NA,NA,https://geodata.ucdavis.edu/gadm/gadm4.1/shp/gadm41_THA_shp.zip,NA
NA,18.8122065,98.9911939,osm_only,NA,3195504332,NA,NA,NA,https://geodata.ucdavis.edu/gadm/gadm4.1/shp/gadm41_THA_shp.zip,NA
Tree Sis Coffee,18.7894105,98.9828254,osm_only,NA,3197689690,NA,NA,NA,https://www.facebook.com/TreeSisCoffee,Mo-Su 08:30-18:00
NA,18.7777504,98.9534779,osm_only,NA,3206109661,NA,NA,NA,https://geodata.ucdavis.edu/gadm/gadm4.1/shp/gadm41_THA_shp.zip,NA
Oldies,18.7972728,99.0023897,osm_only,NA,3207247636,NA,NA,NA,https://geodata.ucdavis.edu/gadm/gadm4.1/shp/gadm41_THA_shp.zip,NA
NA,18.7554647,99.0082667,osm_only,NA,3207247645,NA,NA,NA,https://geodata.ucdavis.edu/gadm/gadm4.1/shp/gadm41_THA_shp.zip,NA
NA,18.7555023,99.0083993,osm_only,NA,3207247647,NA,NA,NA,https://geodata.ucdavis.edu/gadm/gadm4.1/shp/gadm41_THA_shp.zip,NA
NA,18.7556226,99.0082167,osm_only,NA,3207247649,NA,NA,NA,https://geodata.ucdavis.edu/gadm/gadm4.1/shp/gadm41_THA_shp.zip,NA
NA,18.7556602,99.0083492,osm_only,NA,3207247650,NA,NA,NA,https://geodata.ucdavis.edu/gadm/gadm4.1/shp/gadm41_THA_shp.zip,NA
NA,18.8061139,98.9690711,osm_only,NA,3207435767,NA,NA,NA,https://geodata.ucdavis.edu/gadm/gadm4.1/shp/gadm41_THA_shp.zip,NA
NA,18.8061385,98.969125,osm_only,NA,3207435775,NA,NA,NA,https://geodata.ucdavis.edu/gadm/gadm4.1/shp/gadm41_THA_shp.zip,NA
NA,18.8061215,98.9692079,osm_only,NA,3207435777,NA,NA,NA,https://geodata.ucdavis.edu/gadm/gadm4.1/shp/gadm41_THA_shp.zip,NA
NA,18.8059996,98.9690282,osm_only,NA,3207435796,NA,NA,NA,https://geodata.ucdavis.edu/gadm/gadm4.1/shp/gadm41_THA_shp.zip,NA
NA,18.8059616,98.969157,osm_only,NA,3207435803,NA,NA,NA,https://geodata.ucdavis.edu/gadm/gadm4.1/shp/gadm41_THA_shp.zip,NA
Coffee in Mae Lod,19.1012149,98.7723745,osm_only,NA,3211600662,NA,NA,NA,https://geodata.ucdavis.edu/gadm/gadm4.1/shp/gadm41_THA_shp.zip,NA
NA,18.811668,98.989202,osm_only,NA,3229022382,NA,NA,NA,https://geodata.ucdavis.edu/gadm/gadm4.1/shp/gadm41_THA_shp.zip,NA
Cafe de Wang,18.6415448,98.699865,osm_only,NA,3235399085,NA,NA,NA,https://geodata.ucdavis.edu/gadm/gadm4.1/shp/gadm41_THA_shp.zip,NA
NA,18.5470443,98.5154899,osm_only,NA,3235711925,NA,NA,NA,https://geodata.ucdavis.edu/gadm/gadm4.1/shp/gadm41_THA_shp.zip,NA
Beatles Station,18.9203634,98.9167095,osm_only,NA,3237458360,NA,NA,NA,https://geodata.ucdavis.edu/gadm/gadm4.1/shp/gadm41_THA_shp.zip,NA
NA,18.9224675,98.9238098,osm_only,NA,3237461402,NA,NA,NA,https://geodata.ucdavis.edu/gadm/gadm4.1/shp/gadm41_THA_shp.zip,NA
Coffee & Bakery,18.7952914,98.9965711,osm_only,NA,3237872029,NA,NA,NA,https://geodata.ucdavis.edu/gadm/gadm4.1/shp/gadm41_THA_shp.zip,NA
Doi Chaang,18.8073988,98.9573464,osm_only,NA,3242548890,NA,NA,NA,https://geodata.ucdavis.edu/gadm/gadm4.1/shp/gadm41_THA_shp.zip,NA
บ้านดอย,18.9416555,98.8872686,osm_only,NA,3247133753,NA,NA,NA,https://geodata.ucdavis.edu/gadm/gadm4.1/shp/gadm41_THA_shp.zip,NA
Sameong Coffee,18.7246611,98.925322,osm_only,NA,3247457955,NA,NA,NA,https://geodata.ucdavis.edu/gadm/gadm4.1/shp/gadm41_THA_shp.zip,NA
Black Canyon Coffee,18.806559,99.0184091,osm_only,NA,3249111057,NA,NA,NA,https://geodata.ucdavis.edu/gadm/gadm4.1/shp/gadm41_THA_shp.zip,NA
Swensens,18.8062656,99.0183909,osm_only,NA,3249112264,NA,NA,NA,https://geodata.ucdavis.edu/gadm/gadm4.1/shp/gadm41_THA_shp.zip,NA
NA,18.7818726,98.9790189,osm_only,NA,3251622836,NA,NA,NA,https://geodata.ucdavis.edu/gadm/gadm4.1/shp/gadm41_THA_shp.zip,NA
NA,18.7818717,98.9790475,osm_only,NA,3251622837,NA,NA,NA,https://geodata.ucdavis.edu/gadm/gadm4.1/shp/gadm41_THA_shp.zip,NA
NA,18.7818878,98.9790841,osm_only,NA,3251622838,NA,NA,NA,https://geodata.ucdavis.edu/gadm/gadm4.1/shp/gadm41_THA_shp.zip,NA
NA,18.7819199,98.9789778,osm_only,NA,3251622839,NA,NA,NA,https://geodata.ucdavis.edu/gadm/gadm4.1/shp/gadm41_THA_shp.zip,NA
NA,18.7819131,98.9789939,osm_only,NA,3251622840,NA,NA,NA,https://geodata.ucdavis.edu/gadm/gadm4.1/shp/gadm41_THA_shp.zip,NA
NA,18.78193,98.9789885,osm_only,NA,3251622841,NA,NA,NA,https://geodata.ucdavis.edu/gadm/gadm4.1/shp/gadm41_THA_shp.zip,NA
NA,18.7819199,98.9790876,osm_only,NA,3251622842,NA,NA,NA,https://geodata.ucdavis.edu/gadm/gadm4.1/shp/gadm41_THA_shp.zip,NA
NA,18.7819562,98.9789305,osm_only,NA,3251622843,NA,NA,NA,https://geodata.ucdavis.edu/gadm/gadm4.1/shp/gadm41_THA_shp.zip,NA
NA,18.7819554,98.9790466,osm_only,NA,3251622844,NA,NA,NA,https://geodata.ucdavis.edu/gadm/gadm4.1/shp/gadm41_THA_shp.zip,NA
NA,18.7819427,98.9790769,osm_only,NA,3251622845,NA,NA,NA,https://geodata.ucdavis.edu/gadm/gadm4.1/shp/gadm41_THA_shp.zip,NA
NA,18.781963,98.9790198,osm_only,NA,3251622846,NA,NA,NA,https://geodata.ucdavis.edu/gadm/gadm4.1/shp/gadm41_THA_shp.zip,NA
NA,18.7819807,98.9790287,osm_only,NA,3251622847,NA,NA,NA,https://geodata.ucdavis.edu/gadm/gadm4.1/shp/gadm41_THA_shp.zip,NA
NA,18.7820095,98.9789814,osm_only,NA,3251622848,NA,NA,NA,https://geodata.ucdavis.edu/gadm/gadm4.1/shp/gadm41_THA_shp.zip,NA
NA,18.7561821,99.050878,osm_only,NA,3252897124,NA,NA,NA,https://geodata.ucdavis.edu/gadm/gadm4.1/shp/gadm41_THA_shp.zip,NA
NA,18.7810074,98.988207,osm_only,NA,3253197334,NA,NA,NA,https://geodata.ucdavis.edu/gadm/gadm4.1/shp/gadm41_THA_shp.zip,NA
Doi Chaang,18.7488085,98.8902499,osm_only,NA,3256172105,NA,NA,NA,https://geodata.ucdavis.edu/gadm/gadm4.1/shp/gadm41_THA_shp.zip,NA
NA,18.7808764,98.9751961,osm_only,NA,3263019824,NA,NA,NA,https://geodata.ucdavis.edu/gadm/gadm4.1/shp/gadm41_THA_shp.zip,NA
NA,18.7987571,98.9804862,osm_only,NA,3266371702,NA,NA,NA,https://geodata.ucdavis.edu/gadm/gadm4.1/shp/gadm41_THA_shp.zip,NA
NA,18.798791,98.9803997,osm_only,NA,3266371703,NA,NA,NA,https://geodata.ucdavis.edu/gadm/gadm4.1/shp/gadm41_THA_shp.zip,NA
NA,18.7989191,98.9805479,osm_only,NA,3266371704,NA,NA,NA,https://geodata.ucdavis.edu/gadm/gadm4.1/shp/gadm41_THA_shp.zip,NA
NA,18.7989263,98.9804559,osm_only,NA,3266371705,NA,NA,NA,https://geodata.ucdavis.edu/gadm/gadm4.1/shp/gadm41_THA_shp.zip,NA
NA,18.7989307,98.9805154,osm_only,NA,3266371706,NA,NA,NA,https://geodata.ucdavis.edu/gadm/gadm4.1/shp/gadm41_THA_shp.zip,NA
NA,18.7989447,98.980445,osm_only,NA,3266371707,NA,NA,NA,https://geodata.ucdavis.edu/gadm/gadm4.1/shp/gadm41_THA_shp.zip,NA
NA,18.7989506,98.9805231,osm_only,NA,3266371708,NA,NA,NA,https://geodata.ucdavis.edu/gadm/gadm4.1/shp/gadm41_THA_shp.zip,NA
NA,18.7989658,98.9804465,osm_only,NA,3266371709,NA,NA,NA,https://geodata.ucdavis.edu/gadm/gadm4.1/shp/gadm41_THA_shp.zip,NA
NA,18.7989711,98.9805182,osm_only,NA,3266371710,NA,NA,NA,https://geodata.ucdavis.edu/gadm/gadm4.1/shp/gadm41_THA_shp.zip,NA
NA,18.7989828,98.9804597,osm_only,NA,3266371711,NA,NA,NA,https://geodata.ucdavis.edu/gadm/gadm4.1/shp/gadm41_THA_shp.zip,NA
NA,18.7989859,98.9805023,osm_only,NA,3266371712,NA,NA,NA,https://geodata.ucdavis.edu/gadm/gadm4.1/shp/gadm41_THA_shp.zip,NA
NA,18.7989903,98.9804805,osm_only,NA,3266371713,NA,NA,NA,https://geodata.ucdavis.edu/gadm/gadm4.1/shp/gadm41_THA_shp.zip,NA
NA,18.7837946,98.9927122,osm_only,NA,3266565644,NA,NA,NA,https://geodata.ucdavis.edu/gadm/gadm4.1/shp/gadm41_THA_shp.zip,NA
Liberty Coffee and More,18.7840776,98.9928035,osm_only,NA,3266573695,NA,NA,NA,https://geodata.ucdavis.edu/gadm/gadm4.1/shp/gadm41_THA_shp.zip,NA
NA,18.7947482,98.9973974,osm_only,NA,3266843183,NA,NA,NA,https://geodata.ucdavis.edu/gadm/gadm4.1/shp/gadm41_THA_shp.zip,NA
Pai Doi Coffee,18.787918,98.9927857,osm_only,NA,3277470021,NA,NA,NA,https://geodata.ucdavis.edu/gadm/gadm4.1/shp/gadm41_THA_shp.zip,NA
Starbucks,18.7695455,98.9678228,osm_only,NA,3281905420,NA,NA,NA,www.starbuckscard.in.th,NA
Ice Manias,18.8018801,98.9783475,osm_only,NA,3283940818,NA,NA,NA,https://geodata.ucdavis.edu/gadm/gadm4.1/shp/gadm41_THA_shp.zip,Mo-Su 12:00-24:00
Soi Cafe,18.8004869,98.9780829,osm_only,NA,3285280608,NA,NA,NA,https://geodata.ucdavis.edu/gadm/gadm4.1/shp/gadm41_THA_shp.zip,Mo-Su 08:00-18:00; We off
Artisan,18.7996494,98.9776141,osm_only,NA,3285298562,NA,NA,NA,https://geodata.ucdavis.edu/gadm/gadm4.1/shp/gadm41_THA_shp.zip,NA
Beloved Shop,18.7995455,98.9778182,osm_only,NA,3285298563,NA,NA,NA,https://geodata.ucdavis.edu/gadm/gadm4.1/shp/gadm41_THA_shp.zip,NA
Sweet Tree,18.7981415,98.9790728,osm_only,NA,3285318965,NA,NA,NA,https://geodata.ucdavis.edu/gadm/gadm4.1/shp/gadm41_THA_shp.zip,Mo-Su 09:30-18:30; We off
Café de Museum,18.7899164,98.9883037,osm_only,NA,3287033149,NA,NA,NA,https://geodata.ucdavis.edu/gadm/gadm4.1/shp/gadm41_THA_shp.zip,NA
Starbucks,18.8023589,98.9677753,osm_only,NA,3287356498,NA,NA,NA,https://www.starbucks.com/,NA
Gelabar,18.7981283,98.9694898,osm_only,NA,3287791861,NA,NA,NA,https://geodata.ucdavis.edu/gadm/gadm4.1/shp/gadm41_THA_shp.zip,NA
Timely Cafe,18.7975321,98.9694748,osm_only,NA,3287829862,NA,NA,NA,https://geodata.ucdavis.edu/gadm/gadm4.1/shp/gadm41_THA_shp.zip,Mo-Su 17:30-24:00
Goat Coffee,18.7975913,98.9692709,osm_only,NA,3287846761,NA,NA,NA,https://geodata.ucdavis.edu/gadm/gadm4.1/shp/gadm41_THA_shp.zip,NA
Chuen,18.7976849,98.9683793,osm_only,NA,3287854761,NA,NA,NA,https://geodata.ucdavis.edu/gadm/gadm4.1/shp/gadm41_THA_shp.zip,NA
NA,18.7930917,98.9722758,osm_only,NA,3293754361,NA,NA,NA,https://geodata.ucdavis.edu/gadm/gadm4.1/shp/gadm41_THA_shp.zip,NA
NA,18.7932114,98.9723469,osm_only,NA,3293754362,NA,NA,NA,https://geodata.ucdavis.edu/gadm/gadm4.1/shp/gadm41_THA_shp.zip,NA
NA,18.7930375,98.9726737,osm_only,NA,3293754363,NA,NA,NA,https://geodata.ucdavis.edu/gadm/gadm4.1/shp/gadm41_THA_shp.zip,NA
NA,18.7929177,98.9726026,osm_only,NA,3293754364,NA,NA,NA,https://geodata.ucdavis.edu/gadm/gadm4.1/shp/gadm41_THA_shp.zip,NA
Coffee Champ,18.8033676,98.9803179,osm_only,NA,3298008463,NA,NA,NA,https://geodata.ucdavis.edu/gadm/gadm4.1/shp/gadm41_THA_shp.zip,NA
Phuphiang Coffee,18.8053032,98.98309,osm_only,NA,3298047309,NA,NA,NA,https://geodata.ucdavis.edu/gadm/gadm4.1/shp/gadm41_THA_shp.zip,Mo-Su 09:30-18:30
NA,18.8056494,98.9747273,osm_only,NA,3311596475,NA,NA,NA,https://geodata.ucdavis.edu/gadm/gadm4.1/shp/gadm41_THA_shp.zip,Mo-Su 09:00-20:00
Miracle Coffee,18.8048979,98.9693626,osm_only,NA,3311605585,NA,NA,NA,https://geodata.ucdavis.edu/gadm/gadm4.1/shp/gadm41_THA_shp.zip,NA
โอลด์ดี้ กาแฟไทย,18.795912,98.9840967,osm_only,NA,3317902512,NA,NA,NA,https://geodata.ucdavis.edu/gadm/gadm4.1/shp/gadm41_THA_shp.zip,NA
Café Amazon,18.7964216,98.983031,osm_only,NA,3317920525,NA,NA,NA,https://geodata.ucdavis.edu/gadm/gadm4.1/shp/gadm41_THA_shp.zip,Mo-Su 06:00-18:00
NA,18.6879709,98.3181437,osm_only,NA,3318022137,NA,NA,NA,https://geodata.ucdavis.edu/gadm/gadm4.1/shp/gadm41_THA_shp.zip,NA
ไอศกรีมป่าตัน,18.6271366,98.8957559,osm_only,NA,3322909006,NA,NA,NA,https://geodata.ucdavis.edu/gadm/gadm4.1/shp/gadm41_THA_shp.zip,NA
L‘Opéra,18.7814595,99.0031879,osm_only,NA,3326560610,NA,NA,NA,https://geodata.ucdavis.edu/gadm/gadm4.1/shp/gadm41_THA_shp.zip,Mo-Su 07:00-22:00
NA,18.7810186,99.0013556,osm_only,NA,3326560611,NA,NA,NA,https://geodata.ucdavis.edu/gadm/gadm4.1/shp/gadm41_THA_shp.zip,NA
What Coffee,18.9320338,99.3468629,osm_only,NA,3329625278,NA,NA,NA,https://geodata.ucdavis.edu/gadm/gadm4.1/shp/gadm41_THA_shp.zip,NA
NA,18.9213898,99.3301164,osm_only,NA,3329628693,NA,NA,NA,https://geodata.ucdavis.edu/gadm/gadm4.1/shp/gadm41_THA_shp.zip,NA
Bitter and Sweet,18.7433157,99.1215275,osm_only,NA,3337437293,NA,NA,NA,https://geodata.ucdavis.edu/gadm/gadm4.1/shp/gadm41_THA_shp.zip,NA
Omelette Bakery Cafe,18.9152897,98.9419741,osm_only,NA,3341008197,NA,NA,NA,https://geodata.ucdavis.edu/gadm/gadm4.1/shp/gadm41_THA_shp.zip,NA
Doi Chaang,18.7768008,98.9537885,osm_only,NA,3341093652,NA,NA,NA,https://geodata.ucdavis.edu/gadm/gadm4.1/shp/gadm41_THA_shp.zip,NA
The café,18.7346508,98.9379149,osm_only,NA,3342127912,NA,NA,NA,https://geodata.ucdavis.edu/gadm/gadm4.1/shp/gadm41_THA_shp.zip,NA
NA,18.6689005,98.6575682,osm_only,NA,3347221822,NA,NA,NA,https://geodata.ucdavis.edu/gadm/gadm4.1/shp/gadm41_THA_shp.zip,NA
NA,18.6689251,98.6574664,osm_only,NA,3347221823,NA,NA,NA,https://geodata.ucdavis.edu/gadm/gadm4.1/shp/gadm41_THA_shp.zip,NA
NA,18.6688374,98.6574427,osm_only,NA,3347221824,NA,NA,NA,https://geodata.ucdavis.edu/gadm/gadm4.1/shp/gadm41_THA_shp.zip,NA
NA,18.6688128,98.6575445,osm_only,NA,3347221825,NA,NA,NA,https://geodata.ucdavis.edu/gadm/gadm4.1/shp/gadm41_THA_shp.zip,NA
Coffee World,18.7693707,98.9755892,osm_only,NA,3347631782,NA,NA,NA,https://geodata.ucdavis.edu/gadm/gadm4.1/shp/gadm41_THA_shp.zip,"Mo-Fr 11:00-21:00; Sa,Su 10:00-21:00"
Fang Coffee,18.7695495,98.9749273,osm_only,NA,3347631783,NA,NA,NA,https://geodata.ucdavis.edu/gadm/gadm4.1/shp/gadm41_THA_shp.zip,"Mo-Fr 11:00-21:00; Sa,Su 10:00-21:00"
S&P,18.769214,98.9748224,osm_only,NA,3347633201,NA,NA,NA,https://geodata.ucdavis.edu/gadm/gadm4.1/shp/gadm41_THA_shp.zip,"Mo-Fr 11:00-21:00; Sa,Su 10:00-21:00"
ช็อกโก ทอส,18.8416132,98.962931,osm_only,NA,3353875138,NA,NA,NA,https://geodata.ucdavis.edu/gadm/gadm4.1/shp/gadm41_THA_shp.zip,Mo-Fr 08:00-19:00
NA,18.8942164,98.8369242,osm_only,NA,3355620166,NA,NA,NA,https://geodata.ucdavis.edu/gadm/gadm4.1/shp/gadm41_THA_shp.zip,NA
NA,18.8716105,99.0380644,osm_only,NA,3359378560,NA,NA,NA,https://geodata.ucdavis.edu/gadm/gadm4.1/shp/gadm41_THA_shp.zip,NA
NA,18.774335,98.9756371,osm_only,NA,3367846267,NA,NA,NA,https://geodata.ucdavis.edu/gadm/gadm4.1/shp/gadm41_THA_shp.zip,NA
คาเฟ่ อเมซอน,18.7898626,98.9705961,osm_only,NA,3369589470,NA,NA,NA,https://geodata.ucdavis.edu/gadm/gadm4.1/shp/gadm41_THA_shp.zip,Mo-Su 06:30-19:00
กาแฟรสนิยม,18.7918584,98.9703227,osm_only,NA,3369589474,NA,NA,NA,https://geodata.ucdavis.edu/gadm/gadm4.1/shp/gadm41_THA_shp.zip,NA
Cafe Arte,18.7927559,98.992187,osm_only,NA,3369623290,NA,NA,NA,https://geodata.ucdavis.edu/gadm/gadm4.1/shp/gadm41_THA_shp.zip,NA
มิ่งมิตร,18.7952239,98.9873735,osm_only,NA,3371232076,NA,NA,NA,https://geodata.ucdavis.edu/gadm/gadm4.1/shp/gadm41_THA_shp.zip,Mo-Su 07:00-17:00
NA,18.7772728,99.0548282,osm_only,NA,3376408641,NA,NA,NA,https://geodata.ucdavis.edu/gadm/gadm4.1/shp/gadm41_THA_shp.zip,NA
Hi Coffee,19.1686385,98.6911374,osm_only,NA,3379414262,NA,NA,NA,https://geodata.ucdavis.edu/gadm/gadm4.1/shp/gadm41_THA_shp.zip,NA
T@31 Coffee,18.7940979,98.9729264,osm_only,NA,3380623726,NA,NA,NA,https://geodata.ucdavis.edu/gadm/gadm4.1/shp/gadm41_THA_shp.zip,NA
Coffee Lovers,18.7856576,98.9831606,osm_only,NA,3384100280,NA,NA,NA,https://geodata.ucdavis.edu/gadm/gadm4.1/shp/gadm41_THA_shp.zip,07:00-18:00
Happy Espresso,18.781739,98.9830914,osm_only,NA,3384152432,NA,NA,NA,https://happyespresso.net/,Mo-Sa 08:30-17:30
NA,18.8105732,98.9795256,osm_only,NA,3384275334,NA,NA,NA,https://geodata.ucdavis.edu/gadm/gadm4.1/shp/gadm41_THA_shp.zip,NA
NA,18.7930497,98.9787534,osm_only,NA,3385480758,NA,NA,NA,https://geodata.ucdavis.edu/gadm/gadm4.1/shp/gadm41_THA_shp.zip,NA
Fern Forest Cafe,18.7933869,98.9820298,osm_only,NA,3385494997,NA,NA,NA,https://facebook.com/FernForestCafe/,Mo-Su 08:30-18:30
Tikky's Café,18.7919086,98.9789789,osm_only,NA,3385505418,NA,NA,NA,https://geodata.ucdavis.edu/gadm/gadm4.1/shp/gadm41_THA_shp.zip,Mo-Su 10:30-20:30
East Coffee,18.7927305,98.9791661,osm_only,NA,3385507274,NA,NA,NA,https://geodata.ucdavis.edu/gadm/gadm4.1/shp/gadm41_THA_shp.zip,NA
Thor Phan,18.7886965,98.9802437,osm_only,NA,3388701190,NA,NA,NA,https://geodata.ucdavis.edu/gadm/gadm4.1/shp/gadm41_THA_shp.zip,09:30-16:00; Su[-1] off
Bike Cafe,18.7810959,98.9825068,osm_only,NA,3388725586,NA,NA,NA,https://geodata.ucdavis.edu/gadm/gadm4.1/shp/gadm41_THA_shp.zip,NA
NA,20.0651945,99.3517848,osm_only,NA,3389097419,NA,NA,NA,https://geodata.ucdavis.edu/gadm/gadm4.1/shp/gadm41_THA_shp.zip,NA
NA,20.0652619,99.3521893,osm_only,NA,3389097422,NA,NA,NA,https://geodata.ucdavis.edu/gadm/gadm4.1/shp/gadm41_THA_shp.zip,NA
NA,18.810723,98.9997859,osm_only,NA,3394781916,NA,NA,NA,https://geodata.ucdavis.edu/gadm/gadm4.1/shp/gadm41_THA_shp.zip,NA
Love at First Bite,18.786176,99.0066911,osm_only,NA,3395080852,NA,NA,NA,https://geodata.ucdavis.edu/gadm/gadm4.1/shp/gadm41_THA_shp.zip,Tu-Su 10:30-18:00
NA,19.0714287,98.3037742,osm_only,NA,3397737974,NA,NA,NA,https://geodata.ucdavis.edu/gadm/gadm4.1/shp/gadm41_THA_shp.zip,NA
NA,19.0713244,98.3037894,osm_only,NA,3397737975,NA,NA,NA,https://geodata.ucdavis.edu/gadm/gadm4.1/shp/gadm41_THA_shp.zip,NA
NA,19.0713101,98.3036794,osm_only,NA,3397737976,NA,NA,NA,https://geodata.ucdavis.edu/gadm/gadm4.1/shp/gadm41_THA_shp.zip,NA
I Like Ice-cream,18.7928431,98.9543515,osm_only,NA,3400272248,NA,NA,NA,https://geodata.ucdavis.edu/gadm/gadm4.1/shp/gadm41_THA_shp.zip,NA
Café Amazon,18.7386061,99.0143678,osm_only,NA,3409866633,NA,NA,NA,https://geodata.ucdavis.edu/gadm/gadm4.1/shp/gadm41_THA_shp.zip,NA
Deco Coffee & Tea,18.7401259,99.0142727,osm_only,NA,3409866635,NA,NA,NA,https://geodata.ucdavis.edu/gadm/gadm4.1/shp/gadm41_THA_shp.zip,NA
At Fifteen,18.7850986,98.9961213,osm_only,NA,3414272473,NA,NA,NA,https://geodata.ucdavis.edu/gadm/gadm4.1/shp/gadm41_THA_shp.zip,Tu-Su 08:30-17:30
Crema Cafe,18.7842684,98.9959699,osm_only,NA,3414272474,NA,NA,NA,https://geodata.ucdavis.edu/gadm/gadm4.1/shp/gadm41_THA_shp.zip,NA
The Baker's,18.7856178,98.995292,osm_only,NA,3414272483,NA,NA,NA,https://geodata.ucdavis.edu/gadm/gadm4.1/shp/gadm41_THA_shp.zip,NA
มนเมืองกาแฟ,18.7487174,99.0048312,osm_only,NA,3416881722,NA,NA,NA,https://geodata.ucdavis.edu/gadm/gadm4.1/shp/gadm41_THA_shp.zip,NA
Coffee Bug,18.785907,99.0027155,osm_only,NA,3417167515,NA,NA,NA,https://geodata.ucdavis.edu/gadm/gadm4.1/shp/gadm41_THA_shp.zip,NA
Genocafe,18.7857693,99.0029981,osm_only,NA,3417167516,NA,NA,NA,https://geodata.ucdavis.edu/gadm/gadm4.1/shp/gadm41_THA_shp.zip,NA
Yesterday,18.7970757,98.9660941,osm_only,NA,3417316793,NA,NA,NA,https://geodata.ucdavis.edu/gadm/gadm4.1/shp/gadm41_THA_shp.zip,NA
Ban Panfa Cafe & Bakery,18.733813,99.028015,osm_only,NA,3418924493,NA,NA,NA,https://geodata.ucdavis.edu/gadm/gadm4.1/shp/gadm41_THA_shp.zip,09:00-18:00
Coffee Lover Chiang Mai,18.7504115,99.0268155,osm_only,NA,3418977493,NA,NA,NA,https://geodata.ucdavis.edu/gadm/gadm4.1/shp/gadm41_THA_shp.zip,NA
บ้าน นฤมิตร,18.7895758,98.9952787,osm_only,NA,3418977906,NA,NA,NA,https://geodata.ucdavis.edu/gadm/gadm4.1/shp/gadm41_THA_shp.zip,NA
ดาราอาหารเวียดนาม,18.7918632,98.9957563,osm_only,NA,3418977912,NA,NA,NA,https://geodata.ucdavis.edu/gadm/gadm4.1/shp/gadm41_THA_shp.zip,NA
Mont Jo,18.8997456,99.0063462,osm_only,NA,3419811900,NA,NA,NA,https://geodata.ucdavis.edu/gadm/gadm4.1/shp/gadm41_THA_shp.zip,NA
Toong's,18.725134,98.9252001,osm_only,NA,3419871310,NA,NA,NA,https://geodata.ucdavis.edu/gadm/gadm4.1/shp/gadm41_THA_shp.zip,NA
Ramino,18.7516905,98.9405998,osm_only,NA,3419878776,NA,NA,NA,https://geodata.ucdavis.edu/gadm/gadm4.1/shp/gadm41_THA_shp.zip,NA
NA,18.7954525,98.9708597,osm_only,NA,3421202368,NA,NA,NA,https://geodata.ucdavis.edu/gadm/gadm4.1/shp/gadm41_THA_shp.zip,Mo-Su 08:00-18:00
Coffeebooz,18.7933253,98.9715717,osm_only,NA,3421245743,NA,NA,NA,https://geodata.ucdavis.edu/gadm/gadm4.1/shp/gadm41_THA_shp.zip,Tu-Su 09:00-19:00
Kola's Honeymoon,18.7936645,98.970876,osm_only,NA,3421254994,NA,NA,NA,https://geodata.ucdavis.edu/gadm/gadm4.1/shp/gadm41_THA_shp.zip,NA
ภคมน,18.7935846,98.9708573,osm_only,NA,3421257554,NA,NA,NA,https://geodata.ucdavis.edu/gadm/gadm4.1/shp/gadm41_THA_shp.zip,Mo-Su 09:00-20:00
Favour Art Cafe,18.7944658,98.969276,osm_only,NA,3421278244,NA,NA,NA,https://geodata.ucdavis.edu/gadm/gadm4.1/shp/gadm41_THA_shp.zip,NA
Goong,18.7951359,98.9681526,osm_only,NA,3421300374,NA,NA,NA,https://geodata.ucdavis.edu/gadm/gadm4.1/shp/gadm41_THA_shp.zip,NA
Mango Tango,18.7963655,98.9685184,osm_only,NA,3421308693,NA,NA,NA,http://mymangotango.com,Mo-Su 11:00-22:00
NA,18.7473314,98.9514338,osm_only,NA,3424651193,NA,NA,NA,https://geodata.ucdavis.edu/gadm/gadm4.1/shp/gadm41_THA_shp.zip,Mo-Su 08:30-19:00
บ้านตะวันฉาย,18.799762,98.9687341,osm_only,NA,3426415662,NA,NA,NA,https://geodata.ucdavis.edu/gadm/gadm4.1/shp/gadm41_THA_shp.zip,NA
Manifreshto,18.7987766,98.968639,osm_only,NA,3426415665,NA,NA,NA,https://geodata.ucdavis.edu/gadm/gadm4.1/shp/gadm41_THA_shp.zip,NA
ชั้นหนึ่ง,18.7998091,98.9682194,osm_only,NA,3426416706,NA,NA,NA,https://geodata.ucdavis.edu/gadm/gadm4.1/shp/gadm41_THA_shp.zip,NA
Home Sit,18.7998648,98.9675211,osm_only,NA,3431033697,NA,NA,NA,https://geodata.ucdavis.edu/gadm/gadm4.1/shp/gadm41_THA_shp.zip,Mo-Fr 18:00-24:00
NA,18.7814036,98.9767565,osm_only,NA,3432607045,NA,NA,NA,https://geodata.ucdavis.edu/gadm/gadm4.1/shp/gadm41_THA_shp.zip,NA
NA,18.7483185,98.9466508,osm_only,NA,3436867170,NA,NA,NA,https://geodata.ucdavis.edu/gadm/gadm4.1/shp/gadm41_THA_shp.zip,NA
Clay Studio Café,18.7821599,98.9872802,osm_only,NA,3440864915,NA,NA,NA,https://geodata.ucdavis.edu/gadm/gadm4.1/shp/gadm41_THA_shp.zip,Mo-Su 08:00-18:00
NA,19.1078865,99.0006836,osm_only,NA,3446367073,NA,NA,NA,https://geodata.ucdavis.edu/gadm/gadm4.1/shp/gadm41_THA_shp.zip,NA
Miss Cafe,18.7546746,99.0538091,osm_only,NA,3470589850,NA,NA,NA,https://geodata.ucdavis.edu/gadm/gadm4.1/shp/gadm41_THA_shp.zip,NA
NA,18.7014907,98.9315876,osm_only,NA,3476312532,NA,NA,NA,https://geodata.ucdavis.edu/gadm/gadm4.1/shp/gadm41_THA_shp.zip,NA
NA,18.7015932,98.9316601,osm_only,NA,3476312539,NA,NA,NA,https://geodata.ucdavis.edu/gadm/gadm4.1/shp/gadm41_THA_shp.zip,NA
NA,18.7014815,98.9318362,osm_only,NA,3476312543,NA,NA,NA,https://geodata.ucdavis.edu/gadm/gadm4.1/shp/gadm41_THA_shp.zip,NA
NA,18.701379,98.9317637,osm_only,NA,3476312544,NA,NA,NA,https://geodata.ucdavis.edu/gadm/gadm4.1/shp/gadm41_THA_shp.zip,NA
Swensen's,18.7983097,99.0223584,osm_only,NA,3490771193,NA,NA,NA,https://geodata.ucdavis.edu/gadm/gadm4.1/shp/gadm41_THA_shp.zip,NA
NA,18.8350491,99.0372639,osm_only,NA,3540898698,NA,NA,NA,https://geodata.ucdavis.edu/gadm/gadm4.1/shp/gadm41_THA_shp.zip,NA
Dunkin' Donuts,18.8350639,99.0372038,osm_only,NA,3540899195,NA,NA,NA,https://geodata.ucdavis.edu/gadm/gadm4.1/shp/gadm41_THA_shp.zip,NA
NA,18.8319285,99.0201962,osm_only,NA,3559049712,NA,NA,NA,https://geodata.ucdavis.edu/gadm/gadm4.1/shp/gadm41_THA_shp.zip,NA
NA,18.7851364,99.0071111,osm_only,NA,3579808793,NA,NA,NA,https://geodata.ucdavis.edu/gadm/gadm4.1/shp/gadm41_THA_shp.zip,NA
VAVA Frozen Yogurt,18.7879183,98.9924974,osm_only,NA,3619858705,NA,NA,NA,https://geodata.ucdavis.edu/gadm/gadm4.1/shp/gadm41_THA_shp.zip,NA
ปรารถนา กาแฟ,18.7645394,99.0280222,osm_only,NA,3632282338,NA,NA,NA,https://geodata.ucdavis.edu/gadm/gadm4.1/shp/gadm41_THA_shp.zip,Mo-Fr 07:30-17:00;Sa-Su 10:00-16:00
Overstand,18.7859835,98.9926556,osm_only,NA,3632320011,NA,NA,NA,https://geodata.ucdavis.edu/gadm/gadm4.1/shp/gadm41_THA_shp.zip,NA
Nitroffee,18.7902051,98.9708448,osm_only,NA,3643587587,NA,NA,NA,https://geodata.ucdavis.edu/gadm/gadm4.1/shp/gadm41_THA_shp.zip,NA
เมา กาแฟ,18.758676,98.9434828,osm_only,NA,3643666024,NA,NA,NA,https://geodata.ucdavis.edu/gadm/gadm4.1/shp/gadm41_THA_shp.zip,NA
NA,18.7901598,98.9842445,osm_only,NA,3654118480,NA,NA,NA,https://geodata.ucdavis.edu/gadm/gadm4.1/shp/gadm41_THA_shp.zip,NA
NA,18.7772145,98.9954236,osm_only,NA,3670619208,NA,NA,NA,https://geodata.ucdavis.edu/gadm/gadm4.1/shp/gadm41_THA_shp.zip,NA
Library Coffee (5F),18.7899954,98.9727432,osm_only,NA,3672043732,NA,NA,NA,https://www.facebook.com/cmulibrarycoffee,NA
NA,18.7693734,99.029763,osm_only,NA,3699353869,NA,NA,NA,https://geodata.ucdavis.edu/gadm/gadm4.1/shp/gadm41_THA_shp.zip,NA
NA,18.7694208,99.0297088,osm_only,NA,3699353872,NA,NA,NA,https://geodata.ucdavis.edu/gadm/gadm4.1/shp/gadm41_THA_shp.zip,NA
NA,18.7694753,99.0297619,osm_only,NA,3699353874,NA,NA,NA,https://geodata.ucdavis.edu/gadm/gadm4.1/shp/gadm41_THA_shp.zip,NA
NA,18.7600427,99.0211459,osm_only,NA,3708969930,NA,NA,NA,https://geodata.ucdavis.edu/gadm/gadm4.1/shp/gadm41_THA_shp.zip,NA
NA,18.6692275,99.0523106,osm_only,NA,3715124774,NA,NA,NA,https://geodata.ucdavis.edu/gadm/gadm4.1/shp/gadm41_THA_shp.zip,NA
NA,18.7477723,99.034617,osm_only,NA,3715124776,NA,NA,NA,https://geodata.ucdavis.edu/gadm/gadm4.1/shp/gadm41_THA_shp.zip,NA
NA,18.7720137,98.9801371,osm_only,NA,3716323839,NA,NA,NA,https://geodata.ucdavis.edu/gadm/gadm4.1/shp/gadm41_THA_shp.zip,NA
NA,18.4359142,98.6877501,osm_only,NA,3724096630,NA,NA,NA,https://geodata.ucdavis.edu/gadm/gadm4.1/shp/gadm41_THA_shp.zip,NA
72 Café,18.7961669,98.9661399,osm_only,NA,3741019925,NA,NA,NA,https://geodata.ucdavis.edu/gadm/gadm4.1/shp/gadm41_THA_shp.zip,NA
NA,18.8349908,99.0370754,osm_only,NA,3745201054,NA,NA,NA,https://geodata.ucdavis.edu/gadm/gadm4.1/shp/gadm41_THA_shp.zip,NA
NA,18.771978,99.0414997,osm_only,NA,3745352265,NA,NA,NA,https://geodata.ucdavis.edu/gadm/gadm4.1/shp/gadm41_THA_shp.zip,NA
NA,18.7480301,98.9477946,osm_only,NA,3757290645,NA,NA,NA,https://geodata.ucdavis.edu/gadm/gadm4.1/shp/gadm41_THA_shp.zip,NA
NA,18.6971736,98.8931702,osm_only,NA,3757290933,NA,NA,NA,https://geodata.ucdavis.edu/gadm/gadm4.1/shp/gadm41_THA_shp.zip,NA
NA,18.912493,98.9352921,osm_only,NA,3779091784,NA,NA,NA,https://geodata.ucdavis.edu/gadm/gadm4.1/shp/gadm41_THA_shp.zip,NA
NA,19.2007955,98.7982032,osm_only,NA,3780428290,NA,NA,NA,https://geodata.ucdavis.edu/gadm/gadm4.1/shp/gadm41_THA_shp.zip,NA
NA,18.7586873,99.0016524,osm_only,NA,3784397399,NA,NA,NA,https://geodata.ucdavis.edu/gadm/gadm4.1/shp/gadm41_THA_shp.zip,NA
Kaffee Bitte,18.9298473,98.9298096,osm_only,NA,3803713498,NA,NA,NA,https://geodata.ucdavis.edu/gadm/gadm4.1/shp/gadm41_THA_shp.zip,NA
Café Amazon,18.7721614,98.9725203,osm_only,NA,3810861066,NA,NA,NA,https://geodata.ucdavis.edu/gadm/gadm4.1/shp/gadm41_THA_shp.zip,NA
มิ่งมิตร,18.7638928,98.992515,osm_only,NA,3810861068,NA,NA,NA,https://geodata.ucdavis.edu/gadm/gadm4.1/shp/gadm41_THA_shp.zip,"PH,Mo-Su 07:00-05:00"
Catmosphere Cat Café,18.8063487,98.9579089,osm_only,NA,3819711686,NA,NA,NA,https://geodata.ucdavis.edu/gadm/gadm4.1/shp/gadm41_THA_shp.zip,Mo-Su 10:00-20:00
NA,18.6790981,98.8961175,osm_only,NA,3832005203,NA,NA,NA,https://geodata.ucdavis.edu/gadm/gadm4.1/shp/gadm41_THA_shp.zip,07:00-20:00
NA,18.7034659,98.903162,osm_only,NA,3832005712,NA,NA,NA,https://geodata.ucdavis.edu/gadm/gadm4.1/shp/gadm41_THA_shp.zip,NA
Cozy Cafe Chiangmai,18.7791532,98.9887346,osm_only,NA,3843126639,NA,NA,NA,https://geodata.ucdavis.edu/gadm/gadm4.1/shp/gadm41_THA_shp.zip,Mo-Su 09:00-18:00
La Mango,18.7897178,98.9876941,osm_only,NA,3843126641,NA,NA,NA,https://geodata.ucdavis.edu/gadm/gadm4.1/shp/gadm41_THA_shp.zip,NA
Local Cafe,18.8009969,98.9674613,osm_only,NA,3843126642,NA,NA,NA,https://geodata.ucdavis.edu/gadm/gadm4.1/shp/gadm41_THA_shp.zip,Mo-Su 10:30-22:00
Food,19.3284624,98.9281371,osm_only,NA,3851644959,NA,NA,NA,https://geodata.ucdavis.edu/gadm/gadm4.1/shp/gadm41_THA_shp.zip,NA
NA,18.7521409,99.008549,osm_only,NA,3860662412,NA,NA,NA,https://geodata.ucdavis.edu/gadm/gadm4.1/shp/gadm41_THA_shp.zip,NA
NA,18.7521699,99.0086579,osm_only,NA,3860662413,NA,NA,NA,https://geodata.ucdavis.edu/gadm/gadm4.1/shp/gadm41_THA_shp.zip,NA
NA,18.7522418,99.008519,osm_only,NA,3860662416,NA,NA,NA,https://geodata.ucdavis.edu/gadm/gadm4.1/shp/gadm41_THA_shp.zip,NA
NA,18.7522709,99.0086279,osm_only,NA,3860662417,NA,NA,NA,https://geodata.ucdavis.edu/gadm/gadm4.1/shp/gadm41_THA_shp.zip,NA
NA,18.7555378,99.0082435,osm_only,NA,3862548425,NA,NA,NA,https://geodata.ucdavis.edu/gadm/gadm4.1/shp/gadm41_THA_shp.zip,NA
Ajiyoshi Yatai Ramen,18.8021628,98.9845326,osm_only,NA,3862580751,NA,NA,NA,https://geodata.ucdavis.edu/gadm/gadm4.1/shp/gadm41_THA_shp.zip,Mo-Su 11:00-21:30
Inthanin Coffee,18.7771229,98.9766369,osm_only,NA,3877442977,NA,NA,NA,https://geodata.ucdavis.edu/gadm/gadm4.1/shp/gadm41_THA_shp.zip,07:00-18:00
NA,18.5929151,98.8360169,osm_only,NA,3880114767,NA,NA,NA,https://geodata.ucdavis.edu/gadm/gadm4.1/shp/gadm41_THA_shp.zip,NA
ณ แม่ตื๋น คาเฟ่,17.4054295,98.4555356,osm_only,NA,3884665393,NA,NA,NA,https://geodata.ucdavis.edu/gadm/gadm4.1/shp/gadm41_THA_shp.zip,NA
NA,18.7893995,99.0003575,osm_only,NA,3888608226,NA,NA,NA,https://geodata.ucdavis.edu/gadm/gadm4.1/shp/gadm41_THA_shp.zip,08:00-17:00
NA,18.764666,99.0214899,osm_only,NA,3888816846,NA,NA,NA,https://geodata.ucdavis.edu/gadm/gadm4.1/shp/gadm41_THA_shp.zip,NA
คาเฟ่ เม้าท์ฟิวล์,18.805111,98.9732923,osm_only,NA,3897763597,NA,NA,NA,https://geodata.ucdavis.edu/gadm/gadm4.1/shp/gadm41_THA_shp.zip,NA
NA,18.7477888,98.9792858,osm_only,NA,3901216868,NA,NA,NA,https://geodata.ucdavis.edu/gadm/gadm4.1/shp/gadm41_THA_shp.zip,07:30-17:00
NA,18.7498422,98.975947,osm_only,NA,3901216869,NA,NA,NA,https://geodata.ucdavis.edu/gadm/gadm4.1/shp/gadm41_THA_shp.zip,NA
Maison de Café,18.8747473,99.0079901,osm_only,NA,3905979257,NA,NA,NA,https://geodata.ucdavis.edu/gadm/gadm4.1/shp/gadm41_THA_shp.zip,NA
My Secret Cafe,18.7881064,98.9832319,osm_only,NA,3907871477,NA,NA,NA,https://geodata.ucdavis.edu/gadm/gadm4.1/shp/gadm41_THA_shp.zip,NA
Wawee Coffee,18.7722642,98.9995627,osm_only,NA,3907871479,NA,NA,NA,https://geodata.ucdavis.edu/gadm/gadm4.1/shp/gadm41_THA_shp.zip,NA
Cafe de Krabi,18.7710016,99.0054657,osm_only,NA,3908107549,NA,NA,NA,https://geodata.ucdavis.edu/gadm/gadm4.1/shp/gadm41_THA_shp.zip,NA
NA,18.8404532,98.9983994,osm_only,NA,3912487218,NA,NA,NA,https://geodata.ucdavis.edu/gadm/gadm4.1/shp/gadm41_THA_shp.zip,NA
Inthanin Coffee,18.9013426,98.9500508,osm_only,NA,3912487219,NA,NA,NA,https://geodata.ucdavis.edu/gadm/gadm4.1/shp/gadm41_THA_shp.zip,NA
NA,18.9166389,98.8214656,osm_only,NA,3912487222,NA,NA,NA,https://geodata.ucdavis.edu/gadm/gadm4.1/shp/gadm41_THA_shp.zip,NA
NA,18.9204269,98.8198368,osm_only,NA,3912487223,NA,NA,NA,https://geodata.ucdavis.edu/gadm/gadm4.1/shp/gadm41_THA_shp.zip,NA
NA,19.012415,98.971144,osm_only,NA,3923317011,NA,NA,NA,https://geodata.ucdavis.edu/gadm/gadm4.1/shp/gadm41_THA_shp.zip,NA
NA,19.3907322,98.9711683,osm_only,NA,3923442395,NA,NA,NA,https://geodata.ucdavis.edu/gadm/gadm4.1/shp/gadm41_THA_shp.zip,NA
คาเฟ่ อเมซอน,18.9191843,98.9432489,osm_only,NA,3924966402,NA,NA,NA,https://geodata.ucdavis.edu/gadm/gadm4.1/shp/gadm41_THA_shp.zip,Mo-Su 06:00-18:00
คาเฟ่ อเมซอน,18.7508006,98.9252101,osm_only,NA,3927203442,NA,NA,NA,https://geodata.ucdavis.edu/gadm/gadm4.1/shp/gadm41_THA_shp.zip,NA
Healthy B,18.7984417,98.9690644,osm_only,NA,3927203448,NA,NA,NA,https://geodata.ucdavis.edu/gadm/gadm4.1/shp/gadm41_THA_shp.zip,NA
Mac Cafe,18.8064957,98.957928,osm_only,NA,3927203449,NA,NA,NA,https://geodata.ucdavis.edu/gadm/gadm4.1/shp/gadm41_THA_shp.zip,NA
อินทนนท์ กาแฟสด,18.7449654,98.9894863,osm_only,NA,3928262001,NA,NA,NA,https://geodata.ucdavis.edu/gadm/gadm4.1/shp/gadm41_THA_shp.zip,NA
Chillan Coffee,18.6825371,98.9186493,osm_only,NA,3933516649,NA,NA,NA,https://geodata.ucdavis.edu/gadm/gadm4.1/shp/gadm41_THA_shp.zip,NA
Ocha Coffee,18.7891856,98.9552084,osm_only,NA,3935432857,NA,NA,NA,https://geodata.ucdavis.edu/gadm/gadm4.1/shp/gadm41_THA_shp.zip,NA
NA,18.7485162,99.0012495,osm_only,NA,3935453579,NA,NA,NA,https://geodata.ucdavis.edu/gadm/gadm4.1/shp/gadm41_THA_shp.zip,NA
ออนเดอะเวย์ คาเฟ่,18.8424404,98.9819258,osm_only,NA,3937133676,NA,NA,NA,https://geodata.ucdavis.edu/gadm/gadm4.1/shp/gadm41_THA_shp.zip,Mo-Sa 08:00-18:00
ไอดีดี คาเฟ่,18.8336147,99.00331,osm_only,NA,3937133678,NA,NA,NA,https://geodata.ucdavis.edu/gadm/gadm4.1/shp/gadm41_THA_shp.zip,NA
Bodhi Tree 1 Café,18.7860289,98.9914746,osm_only,NA,3957108529,NA,NA,NA,https://geodata.ucdavis.edu/gadm/gadm4.1/shp/gadm41_THA_shp.zip,NA
Rao photo coffee,18.7812702,98.9534678,osm_only,NA,3968872886,NA,NA,NA,https://geodata.ucdavis.edu/gadm/gadm4.1/shp/gadm41_THA_shp.zip,NA
NA,18.8288448,99.0128479,osm_only,NA,3979200909,NA,NA,NA,https://geodata.ucdavis.edu/gadm/gadm4.1/shp/gadm41_THA_shp.zip,NA
Jario Coffee,18.828008,99.012817,osm_only,NA,3979200911,NA,NA,NA,https://geodata.ucdavis.edu/gadm/gadm4.1/shp/gadm41_THA_shp.zip,NA
NA,18.8286555,99.0128488,osm_only,NA,3979200912,NA,NA,NA,https://geodata.ucdavis.edu/gadm/gadm4.1/shp/gadm41_THA_shp.zip,Tu-Su; Mo off
NA,18.8287286,99.0128438,osm_only,NA,3979200915,NA,NA,NA,https://geodata.ucdavis.edu/gadm/gadm4.1/shp/gadm41_THA_shp.zip,NA
Caffè B{e}arista,18.8035538,98.9744687,osm_only,NA,3996636060,NA,NA,NA,https://geodata.ucdavis.edu/gadm/gadm4.1/shp/gadm41_THA_shp.zip,NA
NA,18.6636241,98.8268848,osm_only,NA,3996699478,NA,NA,NA,https://geodata.ucdavis.edu/gadm/gadm4.1/shp/gadm41_THA_shp.zip,NA
NA,18.797671,98.9750674,osm_only,NA,4005933419,NA,NA,NA,https://geodata.ucdavis.edu/gadm/gadm4.1/shp/gadm41_THA_shp.zip,NA
NA,18.7977623,98.9751233,osm_only,NA,4005933420,NA,NA,NA,https://geodata.ucdavis.edu/gadm/gadm4.1/shp/gadm41_THA_shp.zip,NA
NA,18.7977718,98.9748838,osm_only,NA,4005933421,NA,NA,NA,https://geodata.ucdavis.edu/gadm/gadm4.1/shp/gadm41_THA_shp.zip,NA
NA,18.797863,98.9749398,osm_only,NA,4005933422,NA,NA,NA,https://geodata.ucdavis.edu/gadm/gadm4.1/shp/gadm41_THA_shp.zip,NA
Eight Cafe Chiangmai,18.7645157,99.0083089,osm_only,NA,4009513093,NA,NA,NA,https://geodata.ucdavis.edu/gadm/gadm4.1/shp/gadm41_THA_shp.zip,NA
NA,18.8711154,99.1365517,osm_only,NA,4036093761,NA,NA,NA,https://geodata.ucdavis.edu/gadm/gadm4.1/shp/gadm41_THA_shp.zip,NA
NA,18.7451925,98.9841259,osm_only,NA,4049736452,NA,NA,NA,https://geodata.ucdavis.edu/gadm/gadm4.1/shp/gadm41_THA_shp.zip,NA
Bee Healthy,18.7665929,98.9952621,osm_only,NA,4064637987,NA,NA,NA,https://geodata.ucdavis.edu/gadm/gadm4.1/shp/gadm41_THA_shp.zip,NA
NA,18.7576969,99.0029382,osm_only,NA,4064638194,NA,NA,NA,https://geodata.ucdavis.edu/gadm/gadm4.1/shp/gadm41_THA_shp.zip,NA
NA,18.7741066,98.9981476,osm_only,NA,4064638197,NA,NA,NA,https://geodata.ucdavis.edu/gadm/gadm4.1/shp/gadm41_THA_shp.zip,NA
กาแฟยิ้มยิ้ม,18.7476157,99.0091981,osm_only,NA,4067975166,NA,NA,NA,https://geodata.ucdavis.edu/gadm/gadm4.1/shp/gadm41_THA_shp.zip,NA
เคลิ้มกาแฟ,18.7619948,99.0015733,osm_only,NA,4069454731,NA,NA,NA,https://geodata.ucdavis.edu/gadm/gadm4.1/shp/gadm41_THA_shp.zip,Mo-Su 08:00-18:00
NA,18.7546493,99.0075248,osm_only,NA,4069454755,NA,NA,NA,https://geodata.ucdavis.edu/gadm/gadm4.1/shp/gadm41_THA_shp.zip,NA
NA,18.7084994,99.0001187,osm_only,NA,4079924526,NA,NA,NA,https://geodata.ucdavis.edu/gadm/gadm4.1/shp/gadm41_THA_shp.zip,NA
NA,18.6274166,98.5056228,osm_only,NA,4081186087,NA,NA,NA,https://geodata.ucdavis.edu/gadm/gadm4.1/shp/gadm41_THA_shp.zip,NA
NA,18.6274504,98.505665,osm_only,NA,4081186089,NA,NA,NA,https://geodata.ucdavis.edu/gadm/gadm4.1/shp/gadm41_THA_shp.zip,NA
NA,18.6274579,98.5055859,osm_only,NA,4081186091,NA,NA,NA,https://geodata.ucdavis.edu/gadm/gadm4.1/shp/gadm41_THA_shp.zip,NA
NA,18.6274917,98.5056281,osm_only,NA,4081186092,NA,NA,NA,https://geodata.ucdavis.edu/gadm/gadm4.1/shp/gadm41_THA_shp.zip,NA
NA,18.7835306,98.9818749,osm_only,NA,4084830623,NA,NA,NA,https://geodata.ucdavis.edu/gadm/gadm4.1/shp/gadm41_THA_shp.zip,NA
NA,18.7834453,98.9818722,osm_only,NA,4084830627,NA,NA,NA,https://geodata.ucdavis.edu/gadm/gadm4.1/shp/gadm41_THA_shp.zip,NA
NA,18.7834289,98.9818061,osm_only,NA,4084830629,NA,NA,NA,https://geodata.ucdavis.edu/gadm/gadm4.1/shp/gadm41_THA_shp.zip,NA
NA,18.7835381,98.9818115,osm_only,NA,4084830630,NA,NA,NA,https://geodata.ucdavis.edu/gadm/gadm4.1/shp/gadm41_THA_shp.zip,NA
NA,18.7835791,98.9824952,osm_only,NA,4084836458,NA,NA,NA,https://geodata.ucdavis.edu/gadm/gadm4.1/shp/gadm41_THA_shp.zip,NA
NA,18.7835329,98.9825995,osm_only,NA,4084836459,NA,NA,NA,https://geodata.ucdavis.edu/gadm/gadm4.1/shp/gadm41_THA_shp.zip,NA
NA,18.7834552,98.9825611,osm_only,NA,4084836460,NA,NA,NA,https://geodata.ucdavis.edu/gadm/gadm4.1/shp/gadm41_THA_shp.zip,NA
NA,18.7835014,98.9824568,osm_only,NA,4084836462,NA,NA,NA,https://geodata.ucdavis.edu/gadm/gadm4.1/shp/gadm41_THA_shp.zip,NA
NA,19.0164753,99.3017408,osm_only,NA,4099632850,NA,NA,NA,https://geodata.ucdavis.edu/gadm/gadm4.1/shp/gadm41_THA_shp.zip,NA
NA,18.5427594,98.5916646,osm_only,NA,4099934304,NA,NA,NA,https://geodata.ucdavis.edu/gadm/gadm4.1/shp/gadm41_THA_shp.zip,NA
NA,18.5428584,98.5916177,osm_only,NA,4099934307,NA,NA,NA,https://geodata.ucdavis.edu/gadm/gadm4.1/shp/gadm41_THA_shp.zip,NA
NA,18.8027625,98.978641,osm_only,NA,4104856888,NA,NA,NA,https://geodata.ucdavis.edu/gadm/gadm4.1/shp/gadm41_THA_shp.zip,NA
NA,18.8028691,98.9784184,osm_only,NA,4104856897,NA,NA,NA,https://geodata.ucdavis.edu/gadm/gadm4.1/shp/gadm41_THA_shp.zip,NA
NA,18.8028704,98.9786585,osm_only,NA,4104856898,NA,NA,NA,https://geodata.ucdavis.edu/gadm/gadm4.1/shp/gadm41_THA_shp.zip,NA
NA,18.802925,98.9784305,osm_only,NA,4104856899,NA,NA,NA,https://geodata.ucdavis.edu/gadm/gadm4.1/shp/gadm41_THA_shp.zip,NA
NA,18.8220228,98.9675001,osm_only,NA,4107076393,NA,NA,NA,https://geodata.ucdavis.edu/gadm/gadm4.1/shp/gadm41_THA_shp.zip,NA
NA,18.8218232,98.9675282,osm_only,NA,4107076408,NA,NA,NA,https://geodata.ucdavis.edu/gadm/gadm4.1/shp/gadm41_THA_shp.zip,NA
NA,18.8219813,98.9676009,osm_only,NA,4107076415,NA,NA,NA,https://geodata.ucdavis.edu/gadm/gadm4.1/shp/gadm41_THA_shp.zip,NA
NA,18.8218647,98.9674274,osm_only,NA,4107076463,NA,NA,NA,https://geodata.ucdavis.edu/gadm/gadm4.1/shp/gadm41_THA_shp.zip,NA
Café Amazon,18.7514855,99.0635285,osm_only,NA,4115297791,NA,NA,NA,https://geodata.ucdavis.edu/gadm/gadm4.1/shp/gadm41_THA_shp.zip,NA
Coffee Cop,18.7856565,98.9875017,osm_only,NA,4129821990,NA,NA,NA,https://geodata.ucdavis.edu/gadm/gadm4.1/shp/gadm41_THA_shp.zip,NA
Kaldi Coffee House,18.7881543,98.9868201,osm_only,NA,4132247489,NA,NA,NA,https://geodata.ucdavis.edu/gadm/gadm4.1/shp/gadm41_THA_shp.zip,NA
Yellow Duck Cafe,18.8169147,99.0205825,osm_only,NA,4142717265,NA,NA,NA,https://geodata.ucdavis.edu/gadm/gadm4.1/shp/gadm41_THA_shp.zip,NA
NA,18.7603244,98.9981289,osm_only,NA,4173012792,NA,NA,NA,https://geodata.ucdavis.edu/gadm/gadm4.1/shp/gadm41_THA_shp.zip,NA
ฮอห์ม คาเฟ่,18.8186312,98.9691903,osm_only,NA,4180090391,NA,NA,NA,https://m.facebook.com/hohmcafe/,Mo-Su 10:00-18:00
Doi Luang Coffee,20.0603509,99.3613189,osm_only,NA,4206128689,NA,NA,NA,https://geodata.ucdavis.edu/gadm/gadm4.1/shp/gadm41_THA_shp.zip,NA
Cafe de Time,19.6244133,99.1289199,osm_only,NA,4208599025,NA,NA,NA,https://geodata.ucdavis.edu/gadm/gadm4.1/shp/gadm41_THA_shp.zip,NA
NA,18.8072888,98.9628523,osm_only,NA,4209258160,NA,NA,NA,https://geodata.ucdavis.edu/gadm/gadm4.1/shp/gadm41_THA_shp.zip,NA
NA,18.8070612,98.9629472,osm_only,NA,4209258178,NA,NA,NA,https://geodata.ucdavis.edu/gadm/gadm4.1/shp/gadm41_THA_shp.zip,NA
NA,18.8072558,98.9629968,osm_only,NA,4209259602,NA,NA,NA,https://geodata.ucdavis.edu/gadm/gadm4.1/shp/gadm41_THA_shp.zip,NA
NA,18.8070943,98.9628027,osm_only,NA,4209259651,NA,NA,NA,https://geodata.ucdavis.edu/gadm/gadm4.1/shp/gadm41_THA_shp.zip,NA
Huean Hug Coffee,18.8029385,98.9754335,osm_only,NA,4210249666,NA,NA,NA,https://geodata.ucdavis.edu/gadm/gadm4.1/shp/gadm41_THA_shp.zip,Tu-Su 08:00-18:00
Kalapela Tea House,18.788226,98.986528,osm_only,NA,4212373091,NA,NA,NA,https://geodata.ucdavis.edu/gadm/gadm4.1/shp/gadm41_THA_shp.zip,Mo-Su 10:00-23:00
Nine coffee,18.7899541,98.9815961,osm_only,NA,4225187389,NA,NA,NA,https://geodata.ucdavis.edu/gadm/gadm4.1/shp/gadm41_THA_shp.zip,NA
Collina,18.8059743,98.9971361,osm_only,NA,4225761969,NA,NA,NA,https://geodata.ucdavis.edu/gadm/gadm4.1/shp/gadm41_THA_shp.zip,NA
บีซู คาเฟ่,18.7717062,98.9475138,osm_only,NA,4248786004,NA,NA,NA,https://geodata.ucdavis.edu/gadm/gadm4.1/shp/gadm41_THA_shp.zip,Mo-Su 09:00-19:00
Café Chez Nous,19.0880275,98.9025632,osm_only,NA,4260029196,NA,NA,NA,https://geodata.ucdavis.edu/gadm/gadm4.1/shp/gadm41_THA_shp.zip,NA
Graveyard View,19.107839,99.0405893,osm_only,NA,4262547890,NA,NA,NA,https://geodata.ucdavis.edu/gadm/gadm4.1/shp/gadm41_THA_shp.zip,NA
Omnia,18.8136656,98.9737922,osm_only,NA,4265502391,NA,NA,NA,https://geodata.ucdavis.edu/gadm/gadm4.1/shp/gadm41_THA_shp.zip,Mo-Su 08:00-17:00
Mild,18.7936871,98.9922111,osm_only,NA,4281954591,NA,NA,NA,https://geodata.ucdavis.edu/gadm/gadm4.1/shp/gadm41_THA_shp.zip,NA
Wake Up,18.7964742,98.9657884,osm_only,NA,4285584789,NA,NA,NA,https://geodata.ucdavis.edu/gadm/gadm4.1/shp/gadm41_THA_shp.zip,NA
Doi Chaang,19.7468848,99.1446959,osm_only,NA,4294806092,NA,NA,NA,https://geodata.ucdavis.edu/gadm/gadm4.1/shp/gadm41_THA_shp.zip,NA
Hazz cafe - Hallal (A/C),18.7691829,99.0006096,osm_only,NA,4324640989,NA,NA,NA,https://geodata.ucdavis.edu/gadm/gadm4.1/shp/gadm41_THA_shp.zip,NA
ร้านแม่,18.751898,99.0299236,osm_only,NA,4336587591,NA,NA,NA,https://geodata.ucdavis.edu/gadm/gadm4.1/shp/gadm41_THA_shp.zip,NA
7-,18.8013343,98.9771252,osm_only,NA,4336604589,NA,NA,NA,https://geodata.ucdavis.edu/gadm/gadm4.1/shp/gadm41_THA_shp.zip,NA
Mae Klang Luang coffee bar,18.5385658,98.5463898,osm_only,NA,4346652234,NA,NA,NA,https://geodata.ucdavis.edu/gadm/gadm4.1/shp/gadm41_THA_shp.zip,NA
Buff Cafe,18.7247673,98.9265335,osm_only,NA,4348232705,NA,NA,NA,https://geodata.ucdavis.edu/gadm/gadm4.1/shp/gadm41_THA_shp.zip,Mo-Sa 09:00-20:00; Su
Four Heavens Cafe & Bistro,18.8287987,99.0134317,osm_only,NA,4352243455,NA,NA,NA,https://geodata.ucdavis.edu/gadm/gadm4.1/shp/gadm41_THA_shp.zip,NA
Plum Coffee & Smoothies,18.7884217,98.99857,osm_only,NA,4352509194,NA,NA,NA,https://geodata.ucdavis.edu/gadm/gadm4.1/shp/gadm41_THA_shp.zip,NA
แมวมอธ แคทคาเฟ่,18.7898245,98.9559372,osm_only,NA,4353673933,NA,NA,NA,https://geodata.ucdavis.edu/gadm/gadm4.1/shp/gadm41_THA_shp.zip,11:00-20:00
The Coffee Work,18.7898842,98.9568865,osm_only,NA,4353683213,NA,NA,NA,https://geodata.ucdavis.edu/gadm/gadm4.1/shp/gadm41_THA_shp.zip,NA
Coffee Love,18.8066293,98.9795641,osm_only,NA,4353876797,NA,NA,NA,https://www.facebook.com/pages/ฮักจักคอฟฟี่-Coffeelove/279444105766066,Mo-Sa 08:00-18:00; Su 08:00-17:00
Inbox Coffee,18.7879081,98.9625954,osm_only,NA,4358605082,NA,NA,NA,https://geodata.ucdavis.edu/gadm/gadm4.1/shp/gadm41_THA_shp.zip,NA
ร้านกาแฟสังคม,18.7897088,98.9558212,osm_only,NA,4358611169,NA,NA,NA,https://geodata.ucdavis.edu/gadm/gadm4.1/shp/gadm41_THA_shp.zip,NA
โตและสด,18.7897503,98.9642986,osm_only,NA,4358616613,NA,NA,NA,https://geodata.ucdavis.edu/gadm/gadm4.1/shp/gadm41_THA_shp.zip,NA
NA,18.7907398,98.9877289,osm_only,NA,4358697789,NA,NA,NA,https://geodata.ucdavis.edu/gadm/gadm4.1/shp/gadm41_THA_shp.zip,Mo-Su 09:00-19:00
ร้านกาแฟสังคม,18.7913413,98.9592688,osm_only,NA,4358831080,NA,NA,NA,https://geodata.ucdavis.edu/gadm/gadm4.1/shp/gadm41_THA_shp.zip,NA
ร้านกาแฟสังคม,18.7912179,98.9593836,osm_only,NA,4358843115,NA,NA,NA,https://geodata.ucdavis.edu/gadm/gadm4.1/shp/gadm41_THA_shp.zip,NA
กูโรตี,18.8076083,98.9949979,osm_only,NA,4359154584,NA,NA,NA,https://geodata.ucdavis.edu/gadm/gadm4.1/shp/gadm41_THA_shp.zip,NA
ตี๋นมสด,18.8083879,98.9955056,osm_only,NA,4359158922,NA,NA,NA,https://geodata.ucdavis.edu/gadm/gadm4.1/shp/gadm41_THA_shp.zip,NA
ร้านนมมน,18.7901255,98.9626977,osm_only,NA,4360053466,NA,NA,NA,https://geodata.ucdavis.edu/gadm/gadm4.1/shp/gadm41_THA_shp.zip,NA
กาแฟดีนาน,18.7896621,98.964807,osm_only,NA,4360075278,NA,NA,NA,https://geodata.ucdavis.edu/gadm/gadm4.1/shp/gadm41_THA_shp.zip,NA
Smile Milk Uniserv CMU,18.7935525,98.9675145,osm_only,NA,4360106566,NA,NA,NA,https://geodata.ucdavis.edu/gadm/gadm4.1/shp/gadm41_THA_shp.zip,NA
D-Milk ไมโลดิบ,18.79184,98.9580416,osm_only,NA,4360574586,NA,NA,NA,https://geodata.ucdavis.edu/gadm/gadm4.1/shp/gadm41_THA_shp.zip,11:00-23:00
ชาชิมิ,18.7925164,98.9559727,osm_only,NA,4362621673,NA,NA,NA,https://geodata.ucdavis.edu/gadm/gadm4.1/shp/gadm41_THA_shp.zip,NA
เฟื่องฟ้า คาเฟ่,18.790517,98.9901654,osm_only,NA,4364338694,NA,NA,NA,https://geodata.ucdavis.edu/gadm/gadm4.1/shp/gadm41_THA_shp.zip,NA
NA,18.6979568,98.8943567,osm_only,NA,4393404919,NA,NA,NA,https://geodata.ucdavis.edu/gadm/gadm4.1/shp/gadm41_THA_shp.zip,NA
NA,18.6980198,98.8944137,osm_only,NA,4393404921,NA,NA,NA,https://geodata.ucdavis.edu/gadm/gadm4.1/shp/gadm41_THA_shp.zip,NA
NA,18.6980407,98.8942535,osm_only,NA,4393404923,NA,NA,NA,https://geodata.ucdavis.edu/gadm/gadm4.1/shp/gadm41_THA_shp.zip,NA
NA,18.6981037,98.8943105,osm_only,NA,4393404926,NA,NA,NA,https://geodata.ucdavis.edu/gadm/gadm4.1/shp/gadm41_THA_shp.zip,NA
NA,18.8067597,98.9643976,osm_only,NA,4400645707,NA,NA,NA,https://geodata.ucdavis.edu/gadm/gadm4.1/shp/gadm41_THA_shp.zip,NA
NA,18.8068749,98.9644197,osm_only,NA,4400645710,NA,NA,NA,https://geodata.ucdavis.edu/gadm/gadm4.1/shp/gadm41_THA_shp.zip,NA
NA,18.8068403,98.9646208,osm_only,NA,4400645716,NA,NA,NA,https://geodata.ucdavis.edu/gadm/gadm4.1/shp/gadm41_THA_shp.zip,NA
๑Coffee,18.7992289,98.9619579,osm_only,NA,4401581689,NA,NA,NA,https://geodata.ucdavis.edu/gadm/gadm4.1/shp/gadm41_THA_shp.zip,Mo-Sa 10:00-17:45
NA,18.8087695,98.9554012,osm_only,NA,4401581789,NA,NA,NA,https://geodata.ucdavis.edu/gadm/gadm4.1/shp/gadm41_THA_shp.zip,Mo-Sa 19:00-22:45
NA,18.8059508,98.9671688,osm_only,NA,4402185591,NA,NA,NA,https://geodata.ucdavis.edu/gadm/gadm4.1/shp/gadm41_THA_shp.zip,NA
NA,19.730273,99.1400803,osm_only,NA,4410956792,NA,NA,NA,https://geodata.ucdavis.edu/gadm/gadm4.1/shp/gadm41_THA_shp.zip,NA
Cafe Amazon,18.807375,98.957054,osm_only,NA,4413425463,NA,NA,NA,https://geodata.ucdavis.edu/gadm/gadm4.1/shp/gadm41_THA_shp.zip,NA
NA,18.8153727,98.9825004,osm_only,NA,4414391690,NA,NA,NA,https://geodata.ucdavis.edu/gadm/gadm4.1/shp/gadm41_THA_shp.zip,NA
Black coffee smile,18.7994235,99.0169489,osm_only,NA,4416236897,NA,NA,NA,https://geodata.ucdavis.edu/gadm/gadm4.1/shp/gadm41_THA_shp.zip,Mo-Su 07:00-20:00
NA,18.9226729,98.975082,osm_only,NA,4416282984,NA,NA,NA,https://geodata.ucdavis.edu/gadm/gadm4.1/shp/gadm41_THA_shp.zip,NA
NA,18.9226921,98.9750031,osm_only,NA,4416282985,NA,NA,NA,https://geodata.ucdavis.edu/gadm/gadm4.1/shp/gadm41_THA_shp.zip,NA
NA,18.9228097,98.9751193,osm_only,NA,4416282987,NA,NA,NA,https://geodata.ucdavis.edu/gadm/gadm4.1/shp/gadm41_THA_shp.zip,NA
NA,18.9228289,98.9750404,osm_only,NA,4416282988,NA,NA,NA,https://geodata.ucdavis.edu/gadm/gadm4.1/shp/gadm41_THA_shp.zip,NA
NA,18.8011418,98.8309385,osm_only,NA,4417073216,NA,NA,NA,https://geodata.ucdavis.edu/gadm/gadm4.1/shp/gadm41_THA_shp.zip,NA
NA,18.8825685,98.9793738,osm_only,NA,4418737565,NA,NA,NA,https://geodata.ucdavis.edu/gadm/gadm4.1/shp/gadm41_THA_shp.zip,NA
NA,18.8881539,98.9833268,osm_only,NA,4419748789,NA,NA,NA,https://geodata.ucdavis.edu/gadm/gadm4.1/shp/gadm41_THA_shp.zip,NA
NA,18.8868687,99.2650327,osm_only,NA,4425991230,NA,NA,NA,https://geodata.ucdavis.edu/gadm/gadm4.1/shp/gadm41_THA_shp.zip,NA
NA,18.8865949,99.2655146,osm_only,NA,4425991232,NA,NA,NA,https://geodata.ucdavis.edu/gadm/gadm4.1/shp/gadm41_THA_shp.zip,NA
NA,18.8857954,99.2651317,osm_only,NA,4425991572,NA,NA,NA,https://geodata.ucdavis.edu/gadm/gadm4.1/shp/gadm41_THA_shp.zip,NA
NA,18.8858978,99.2650875,osm_only,NA,4425991574,NA,NA,NA,https://geodata.ucdavis.edu/gadm/gadm4.1/shp/gadm41_THA_shp.zip,NA
NA,18.885923,99.2649424,osm_only,NA,4425991576,NA,NA,NA,https://geodata.ucdavis.edu/gadm/gadm4.1/shp/gadm41_THA_shp.zip,NA
Uncle Lee Coffee,18.8339498,99.2020273,osm_only,NA,4426152917,NA,NA,NA,https://geodata.ucdavis.edu/gadm/gadm4.1/shp/gadm41_THA_shp.zip,NA
Wake You Up,18.7993332,99.0246617,osm_only,NA,4427268749,NA,NA,NA,https://geodata.ucdavis.edu/gadm/gadm4.1/shp/gadm41_THA_shp.zip,NA
NA,18.7040717,99.0404185,osm_only,NA,4433825762,NA,NA,NA,https://geodata.ucdavis.edu/gadm/gadm4.1/shp/gadm41_THA_shp.zip,NA
Taa Peng Cat,18.7875454,98.9825295,osm_only,NA,4440847089,NA,NA,NA,https://geodata.ucdavis.edu/gadm/gadm4.1/shp/gadm41_THA_shp.zip,Mo-Su 08:00-17:00
Moom la Moon Café,18.8026863,98.9823069,osm_only,NA,4441486862,NA,NA,NA,https://geodata.ucdavis.edu/gadm/gadm4.1/shp/gadm41_THA_shp.zip,08:00-20:00
NA,19.2075274,98.6705925,osm_only,NA,4444964090,NA,NA,NA,https://geodata.ucdavis.edu/gadm/gadm4.1/shp/gadm41_THA_shp.zip,NA
NA,18.7268529,99.1228529,osm_only,NA,4445298675,NA,NA,NA,https://geodata.ucdavis.edu/gadm/gadm4.1/shp/gadm41_THA_shp.zip,NA
Lanna Cafe,18.8551345,98.9996688,osm_only,NA,4446821271,NA,NA,NA,https://geodata.ucdavis.edu/gadm/gadm4.1/shp/gadm41_THA_shp.zip,Mo-Su 08:00-17:00
ลุงปุ๊ด-ป้าเป็ง,18.8653286,99.3506892,osm_only,NA,4458563051,NA,NA,NA,https://www.facebook.com/people/%E0%B8%A5%E0%B8%B8%E0%B8%87%E0%B8%9B%E0%B8%B8%E0%B9%8A%E0%B8%94-%E0%B8%9B%E0%B9%89%E0%B8%B2%E0%B9%80%E0%B8%9B%E0%B9%87%E0%B8%87-Coffee-%E0%B9%81%E0%B8%A1%E0%B9%88%E0%B8%81%E0%B8%B3%E0%B8%9B%E0%B8%AD%E0%B8%87/100070914617505,Mon-Sun 08:00-18:00
Doi Taeng Coffee,18.8254172,99.0112918,osm_only,NA,4460077989,NA,NA,NA,https://geodata.ucdavis.edu/gadm/gadm4.1/shp/gadm41_THA_shp.zip,NA
NA,18.8674315,99.325458,osm_only,NA,4461682613,NA,NA,NA,https://geodata.ucdavis.edu/gadm/gadm4.1/shp/gadm41_THA_shp.zip,NA
Ted Du Coffee,18.8651504,99.3474222,osm_only,NA,4461682615,NA,NA,NA,https://geodata.ucdavis.edu/gadm/gadm4.1/shp/gadm41_THA_shp.zip,NA
NA,18.7827396,99.0163643,osm_only,NA,4466102294,NA,NA,NA,https://geodata.ucdavis.edu/gadm/gadm4.1/shp/gadm41_THA_shp.zip,Mo-Sa 09:00-18:00
NA,18.8034904,98.9797918,osm_only,NA,4466102295,NA,NA,NA,https://geodata.ucdavis.edu/gadm/gadm4.1/shp/gadm41_THA_shp.zip,Fr-We 11:00-18:00
NA,18.7855344,98.9701323,osm_only,NA,4466115796,NA,NA,NA,https://geodata.ucdavis.edu/gadm/gadm4.1/shp/gadm41_THA_shp.zip,Mo-Su 10:00-22:00
NA,19.0592626,99.3618259,osm_only,NA,4472295644,NA,NA,NA,https://geodata.ucdavis.edu/gadm/gadm4.1/shp/gadm41_THA_shp.zip,NA
NA,18.7948406,98.9867921,osm_only,NA,4476187491,NA,NA,NA,https://geodata.ucdavis.edu/gadm/gadm4.1/shp/gadm41_THA_shp.zip,Mo-Su 09:00-20:00
Black Ground,18.7950112,98.9654459,osm_only,NA,4496361990,NA,NA,NA,https://geodata.ucdavis.edu/gadm/gadm4.1/shp/gadm41_THA_shp.zip,NA
Ombra Cafe,18.7990458,98.9742433,osm_only,NA,4505551231,NA,NA,NA,https://geodata.ucdavis.edu/gadm/gadm4.1/shp/gadm41_THA_shp.zip,Mo-Su 08:00-22:00
NA,18.7886123,98.9903276,osm_only,NA,4511392791,NA,NA,NA,https://geodata.ucdavis.edu/gadm/gadm4.1/shp/gadm41_THA_shp.zip,NA
NA,18.1954842,98.6112863,osm_only,NA,4513838495,NA,NA,NA,https://geodata.ucdavis.edu/gadm/gadm4.1/shp/gadm41_THA_shp.zip,NA
NA,19.373772,98.9645599,osm_only,NA,4515254090,NA,NA,NA,https://geodata.ucdavis.edu/gadm/gadm4.1/shp/gadm41_THA_shp.zip,NA
Oasis Café,18.7963603,98.9931056,osm_only,NA,4535975015,NA,NA,NA,https://geodata.ucdavis.edu/gadm/gadm4.1/shp/gadm41_THA_shp.zip,NA
Salotto Coffee,18.8002826,98.9942556,osm_only,NA,4536303338,NA,NA,NA,https://geodata.ucdavis.edu/gadm/gadm4.1/shp/gadm41_THA_shp.zip,NA
Yin Dee,18.7910966,98.995256,osm_only,NA,4537983761,NA,NA,NA,https://geodata.ucdavis.edu/gadm/gadm4.1/shp/gadm41_THA_shp.zip,NA
NA,18.7907555,98.9948496,osm_only,NA,4537994000,NA,NA,NA,https://geodata.ucdavis.edu/gadm/gadm4.1/shp/gadm41_THA_shp.zip,NA
NA,18.8496899,99.0445532,osm_only,NA,4538974693,NA,NA,NA,https://geodata.ucdavis.edu/gadm/gadm4.1/shp/gadm41_THA_shp.zip,NA
Hana Zono,18.7874716,98.9689572,osm_only,NA,4539213080,NA,NA,NA,https://geodata.ucdavis.edu/gadm/gadm4.1/shp/gadm41_THA_shp.zip,NA
Uncle Coffee,18.7865633,98.9686558,osm_only,NA,4539213084,NA,NA,NA,https://geodata.ucdavis.edu/gadm/gadm4.1/shp/gadm41_THA_shp.zip,NA
NA,18.8025376,98.9640579,osm_only,NA,4553840431,NA,NA,NA,https://geodata.ucdavis.edu/gadm/gadm4.1/shp/gadm41_THA_shp.zip,NA
Near Mom Cafe,18.7594747,99.1395894,osm_only,NA,4554412845,NA,NA,NA,https://geodata.ucdavis.edu/gadm/gadm4.1/shp/gadm41_THA_shp.zip,NA
Coffactry,18.7535083,99.1293606,osm_only,NA,4556047500,NA,NA,NA,https://geodata.ucdavis.edu/gadm/gadm4.1/shp/gadm41_THA_shp.zip,NA
GRASP 1981 Espresso Bar,18.790623,98.9932418,osm_only,NA,4557856199,NA,NA,NA,https://www.facebook.com/graspespressobar?mibextid=ZbWKwL,Mo-Su 07:00-16:00
NA,18.78106,98.9861874,osm_only,NA,4558018790,NA,NA,NA,https://geodata.ucdavis.edu/gadm/gadm4.1/shp/gadm41_THA_shp.zip,NA
NA,19.0811182,98.3343761,osm_only,NA,4558046189,NA,NA,NA,https://geodata.ucdavis.edu/gadm/gadm4.1/shp/gadm41_THA_shp.zip,NA
Come on coffe,18.7923413,98.990186,osm_only,NA,4559427489,NA,NA,NA,https://geodata.ucdavis.edu/gadm/gadm4.1/shp/gadm41_THA_shp.zip,NA
NA,18.7992119,98.9672118,osm_only,NA,4564569789,NA,NA,NA,https://geodata.ucdavis.edu/gadm/gadm4.1/shp/gadm41_THA_shp.zip,Mo-Su 09:30-01:30
NA,18.7932185,98.9777894,osm_only,NA,4567971766,NA,NA,NA,https://geodata.ucdavis.edu/gadm/gadm4.1/shp/gadm41_THA_shp.zip,NA
NA,18.793215,98.9779309,osm_only,NA,4567971767,NA,NA,NA,https://geodata.ucdavis.edu/gadm/gadm4.1/shp/gadm41_THA_shp.zip,NA
NA,18.7930552,98.9779081,osm_only,NA,4567971769,NA,NA,NA,https://geodata.ucdavis.edu/gadm/gadm4.1/shp/gadm41_THA_shp.zip,NA
NA,18.7930427,98.9778857,osm_only,NA,4567971770,NA,NA,NA,https://geodata.ucdavis.edu/gadm/gadm4.1/shp/gadm41_THA_shp.zip,NA
NA,18.7930367,98.9778601,osm_only,NA,4567971775,NA,NA,NA,https://geodata.ucdavis.edu/gadm/gadm4.1/shp/gadm41_THA_shp.zip,NA
NA,18.7930383,98.9777882,osm_only,NA,4567971776,NA,NA,NA,https://geodata.ucdavis.edu/gadm/gadm4.1/shp/gadm41_THA_shp.zip,NA
Tom N Toms,18.8002027,99.0188286,osm_only,NA,4586086268,NA,NA,NA,https://geodata.ucdavis.edu/gadm/gadm4.1/shp/gadm41_THA_shp.zip,24/7
Wawee Coffee,18.8000906,99.0183907,osm_only,NA,4586086270,NA,NA,NA,https://geodata.ucdavis.edu/gadm/gadm4.1/shp/gadm41_THA_shp.zip,NA
Ma-Chill,18.7811736,98.994126,osm_only,NA,4586796889,NA,NA,NA,https://machillespressochiangmaithailand.wordpress.com/,Th-Tu 08:00-15:00
เดอดอยหล่อ,18.4829561,98.8022128,osm_only,NA,4591854123,NA,NA,NA,https://geodata.ucdavis.edu/gadm/gadm4.1/shp/gadm41_THA_shp.zip,NA
NA,18.4511373,98.720505,osm_only,NA,4591854134,NA,NA,NA,https://geodata.ucdavis.edu/gadm/gadm4.1/shp/gadm41_THA_shp.zip,NA
NA,18.4515509,98.7205224,osm_only,NA,4591854137,NA,NA,NA,https://geodata.ucdavis.edu/gadm/gadm4.1/shp/gadm41_THA_shp.zip,NA
NA,18.4511407,98.7204154,osm_only,NA,4591854138,NA,NA,NA,https://geodata.ucdavis.edu/gadm/gadm4.1/shp/gadm41_THA_shp.zip,NA
NA,18.4102947,98.674459,osm_only,NA,4591854141,NA,NA,NA,https://geodata.ucdavis.edu/gadm/gadm4.1/shp/gadm41_THA_shp.zip,NA
พอใจค็อฟฟี่,18.9095933,99.0169576,osm_only,NA,4592642581,NA,NA,NA,https://geodata.ucdavis.edu/gadm/gadm4.1/shp/gadm41_THA_shp.zip,Mo-Su 10:00-18:00; We off
กาแฟโบราณ,18.9119197,99.017138,osm_only,NA,4592959931,NA,NA,NA,https://geodata.ucdavis.edu/gadm/gadm4.1/shp/gadm41_THA_shp.zip,NA
Love@Rimrin,18.9739052,98.945863,osm_only,NA,4594757865,NA,NA,NA,https://geodata.ucdavis.edu/gadm/gadm4.1/shp/gadm41_THA_shp.zip,NA
Cat's Coffee,19.026098,98.9445179,osm_only,NA,4594764320,NA,NA,NA,https://geodata.ucdavis.edu/gadm/gadm4.1/shp/gadm41_THA_shp.zip,NA
Chusin Coffee,19.1445792,98.9998024,osm_only,NA,4595116409,NA,NA,NA,https://geodata.ucdavis.edu/gadm/gadm4.1/shp/gadm41_THA_shp.zip,NA
NA,18.9157541,98.9602357,osm_only,NA,4595198827,NA,NA,NA,https://geodata.ucdavis.edu/gadm/gadm4.1/shp/gadm41_THA_shp.zip,NA
Hug a Cup,18.7993676,98.9640928,osm_only,NA,4596241378,NA,NA,NA,https://geodata.ucdavis.edu/gadm/gadm4.1/shp/gadm41_THA_shp.zip,NA
Flapping Duck,18.8009515,98.9636755,osm_only,NA,4596241387,NA,NA,NA,https://geodata.ucdavis.edu/gadm/gadm4.1/shp/gadm41_THA_shp.zip,NA
Frenchie Cafe,18.795028,98.9636922,osm_only,NA,4596413944,NA,NA,NA,https://geodata.ucdavis.edu/gadm/gadm4.1/shp/gadm41_THA_shp.zip,NA
October,18.7950562,98.9635741,osm_only,NA,4596413946,NA,NA,NA,https://geodata.ucdavis.edu/gadm/gadm4.1/shp/gadm41_THA_shp.zip,NA
Shaker House,18.7968375,98.9659345,osm_only,NA,4596413947,NA,NA,NA,https://geodata.ucdavis.edu/gadm/gadm4.1/shp/gadm41_THA_shp.zip,NA
NA,19.0940917,98.9354435,osm_only,NA,4597671889,NA,NA,NA,https://geodata.ucdavis.edu/gadm/gadm4.1/shp/gadm41_THA_shp.zip,Mo-Su 09:00-18:00
ดอกสนคาเฟ่,18.1466994,98.3484916,osm_only,NA,4601037990,NA,NA,NA,https://www.facebook.com/pages/%E0%B8%94%E0%B8%AD%E0%B8%81%E0%B8%AA%E0%B8%99-%E0%B8%84%E0%B8%B2%E0%B9%80%E0%B8%9F%E0%B9%88-Dokson-Cafe/382796662062629,Mo-Su 07:00-18:00
Pronto Café,18.8780938,99.1252246,osm_only,NA,4602601056,NA,NA,NA,https://geodata.ucdavis.edu/gadm/gadm4.1/shp/gadm41_THA_shp.zip,Mo-Su 09:00-19:00
The Chef,18.7930512,98.9894928,osm_only,NA,4608105020,NA,NA,NA,https://geodata.ucdavis.edu/gadm/gadm4.1/shp/gadm41_THA_shp.zip,NA
Aleenta Coffea,18.8439377,99.0181119,osm_only,NA,4608389285,NA,NA,NA,https://geodata.ucdavis.edu/gadm/gadm4.1/shp/gadm41_THA_shp.zip,NA
Bonbon Cafe,18.8419431,99.0707681,osm_only,NA,4608589190,NA,NA,NA,https://geodata.ucdavis.edu/gadm/gadm4.1/shp/gadm41_THA_shp.zip,NA
SP Coffee,18.7477872,99.0673899,osm_only,NA,4609472603,NA,NA,NA,https://geodata.ucdavis.edu/gadm/gadm4.1/shp/gadm41_THA_shp.zip,NA
NA,19.31573,99.1905384,osm_only,NA,4619028589,NA,NA,NA,https://geodata.ucdavis.edu/gadm/gadm4.1/shp/gadm41_THA_shp.zip,NA
Kati breakfast & brunch,18.7880558,98.9886072,osm_only,NA,4623096989,NA,NA,NA,https://geodata.ucdavis.edu/gadm/gadm4.1/shp/gadm41_THA_shp.zip,NA
มิ่งมิตร,18.8294278,99.012661,osm_only,NA,4627695092,NA,NA,NA,http://www.mingmitrcoffee.com,Mo-Su 07:00-17:00
NA,18.8291441,99.0197995,osm_only,NA,4636526079,NA,NA,NA,https://geodata.ucdavis.edu/gadm/gadm4.1/shp/gadm41_THA_shp.zip,NA
Es'satto Coffee,18.7617185,99.0417346,osm_only,NA,4636802719,NA,NA,NA,https://geodata.ucdavis.edu/gadm/gadm4.1/shp/gadm41_THA_shp.zip,Mo-Su 09:00-18:00
NA,18.913979,98.823491,osm_only,NA,4641230899,NA,NA,NA,https://geodata.ucdavis.edu/gadm/gadm4.1/shp/gadm41_THA_shp.zip,NA
ชีวิตคนธรรมดา,18.7944598,98.9733225,osm_only,NA,4641683190,NA,NA,NA,https://geodata.ucdavis.edu/gadm/gadm4.1/shp/gadm41_THA_shp.zip,Mo-Su 09:00-23:15
NA,18.792297,98.977919,osm_only,NA,4646472290,NA,NA,NA,https://geodata.ucdavis.edu/gadm/gadm4.1/shp/gadm41_THA_shp.zip,Mo-Su 08:30-18:00
Rakuda,18.7906661,98.984241,osm_only,NA,4655307491,NA,NA,NA,https://www.ponganes.com/,NA
NA,18.7449205,98.9287298,osm_only,NA,4662980402,NA,NA,NA,https://geodata.ucdavis.edu/gadm/gadm4.1/shp/gadm41_THA_shp.zip,NA
NA,18.5320086,98.5215321,osm_only,NA,4670270897,NA,NA,NA,https://geodata.ucdavis.edu/gadm/gadm4.1/shp/gadm41_THA_shp.zip,NA
NA,18.817899,98.9699694,osm_only,NA,4670339990,NA,NA,NA,https://geodata.ucdavis.edu/gadm/gadm4.1/shp/gadm41_THA_shp.zip,NA
NA,18.8096337,98.9626333,osm_only,NA,4679783297,NA,NA,NA,https://geodata.ucdavis.edu/gadm/gadm4.1/shp/gadm41_THA_shp.zip,NA
NA,18.7611758,99.0047839,osm_only,NA,4681230189,NA,NA,NA,https://geodata.ucdavis.edu/gadm/gadm4.1/shp/gadm41_THA_shp.zip,NA
NA,18.7357634,99.0807853,osm_only,NA,4681803918,NA,NA,NA,https://geodata.ucdavis.edu/gadm/gadm4.1/shp/gadm41_THA_shp.zip,NA
NA,18.7357229,99.080764,osm_only,NA,4681803919,NA,NA,NA,https://geodata.ucdavis.edu/gadm/gadm4.1/shp/gadm41_THA_shp.zip,NA
NA,18.735743,99.080721,osm_only,NA,4681803920,NA,NA,NA,https://geodata.ucdavis.edu/gadm/gadm4.1/shp/gadm41_THA_shp.zip,NA
NA,18.7357836,99.0807423,osm_only,NA,4681803921,NA,NA,NA,https://geodata.ucdavis.edu/gadm/gadm4.1/shp/gadm41_THA_shp.zip,NA
NA,18.7736557,98.9463603,osm_only,NA,4681878090,NA,NA,NA,https://geodata.ucdavis.edu/gadm/gadm4.1/shp/gadm41_THA_shp.zip,NA
NA,18.7900688,98.9732606,osm_only,NA,4683133293,NA,NA,NA,https://geodata.ucdavis.edu/gadm/gadm4.1/shp/gadm41_THA_shp.zip,NA
NA,18.7900701,98.973154,osm_only,NA,4683170026,NA,NA,NA,https://geodata.ucdavis.edu/gadm/gadm4.1/shp/gadm41_THA_shp.zip,NA
NA,18.7899841,98.9731534,osm_only,NA,4683170027,NA,NA,NA,https://geodata.ucdavis.edu/gadm/gadm4.1/shp/gadm41_THA_shp.zip,NA
NA,18.789948,98.9731957,osm_only,NA,4683170028,NA,NA,NA,https://geodata.ucdavis.edu/gadm/gadm4.1/shp/gadm41_THA_shp.zip,NA
NA,18.7899472,98.9732595,osm_only,NA,4683170029,NA,NA,NA,https://geodata.ucdavis.edu/gadm/gadm4.1/shp/gadm41_THA_shp.zip,NA
NA,18.7715996,98.9413639,osm_only,NA,4683209389,NA,NA,NA,https://geodata.ucdavis.edu/gadm/gadm4.1/shp/gadm41_THA_shp.zip,NA
NA,18.7962514,98.9678356,osm_only,NA,4693233989,NA,NA,NA,https://geodata.ucdavis.edu/gadm/gadm4.1/shp/gadm41_THA_shp.zip,NA
NA,18.7945267,98.9888978,osm_only,NA,4706095492,NA,NA,NA,https://geodata.ucdavis.edu/gadm/gadm4.1/shp/gadm41_THA_shp.zip,NA
Coffee Addict,18.7922356,98.9785334,osm_only,NA,4711076389,NA,NA,NA,https://geodata.ucdavis.edu/gadm/gadm4.1/shp/gadm41_THA_shp.zip,NA
Fuel Coffee,18.7680592,98.982757,osm_only,NA,4718001135,NA,NA,NA,https://geodata.ucdavis.edu/gadm/gadm4.1/shp/gadm41_THA_shp.zip,NA
NA,18.7831568,98.9781164,osm_only,NA,4721967593,NA,NA,NA,https://geodata.ucdavis.edu/gadm/gadm4.1/shp/gadm41_THA_shp.zip,NA
Saha Coffee,18.7560812,99.0509444,osm_only,NA,4725230318,NA,NA,NA,https://geodata.ucdavis.edu/gadm/gadm4.1/shp/gadm41_THA_shp.zip,NA
NA,19.9155889,99.2106558,osm_only,NA,4728759681,NA,NA,NA,https://geodata.ucdavis.edu/gadm/gadm4.1/shp/gadm41_THA_shp.zip,NA
Thap - Rim - Than,18.8991345,98.8651892,osm_only,NA,4728841092,NA,NA,NA,https://geodata.ucdavis.edu/gadm/gadm4.1/shp/gadm41_THA_shp.zip,NA
Viya,18.7896109,98.9835572,osm_only,NA,4730080789,NA,NA,NA,https://geodata.ucdavis.edu/gadm/gadm4.1/shp/gadm41_THA_shp.zip,NA
NA,18.7838413,99.000746,osm_only,NA,4732114729,NA,NA,NA,https://geodata.ucdavis.edu/gadm/gadm4.1/shp/gadm41_THA_shp.zip,NA
Taan Joa Khun Coffee,19.9189156,99.2126883,osm_only,NA,4733771823,NA,NA,NA,https://geodata.ucdavis.edu/gadm/gadm4.1/shp/gadm41_THA_shp.zip,NA
Barefoot Café,18.8098793,98.9622803,osm_only,NA,4744942856,NA,NA,NA,https://geodata.ucdavis.edu/gadm/gadm4.1/shp/gadm41_THA_shp.zip,Mo-Su 11:00-20:00
NA,18.7903008,98.9914577,osm_only,NA,4746296408,NA,NA,NA,https://geodata.ucdavis.edu/gadm/gadm4.1/shp/gadm41_THA_shp.zip,NA
NA,18.7902941,98.991537,osm_only,NA,4746296409,NA,NA,NA,https://geodata.ucdavis.edu/gadm/gadm4.1/shp/gadm41_THA_shp.zip,NA
NA,18.7904277,98.9914718,osm_only,NA,4746296416,NA,NA,NA,https://geodata.ucdavis.edu/gadm/gadm4.1/shp/gadm41_THA_shp.zip,NA
NA,18.790421,98.9915489,osm_only,NA,4746296418,NA,NA,NA,https://geodata.ucdavis.edu/gadm/gadm4.1/shp/gadm41_THA_shp.zip,NA
NA,18.7887205,98.9903275,osm_only,NA,4746299757,NA,NA,NA,https://geodata.ucdavis.edu/gadm/gadm4.1/shp/gadm41_THA_shp.zip,NA
NA,18.7886125,98.9904306,osm_only,NA,4746299760,NA,NA,NA,https://geodata.ucdavis.edu/gadm/gadm4.1/shp/gadm41_THA_shp.zip,NA
NA,18.7887206,98.9904305,osm_only,NA,4746299762,NA,NA,NA,https://geodata.ucdavis.edu/gadm/gadm4.1/shp/gadm41_THA_shp.zip,NA
NA,18.7878945,98.9894507,osm_only,NA,4746303159,NA,NA,NA,https://geodata.ucdavis.edu/gadm/gadm4.1/shp/gadm41_THA_shp.zip,NA
NA,18.79662,98.9686724,osm_only,NA,4746868005,NA,NA,NA,https://geodata.ucdavis.edu/gadm/gadm4.1/shp/gadm41_THA_shp.zip,NA
NA,18.7966929,98.9686766,osm_only,NA,4746868131,NA,NA,NA,https://geodata.ucdavis.edu/gadm/gadm4.1/shp/gadm41_THA_shp.zip,NA
NA,18.7966274,98.9685287,osm_only,NA,4746868138,NA,NA,NA,https://geodata.ucdavis.edu/gadm/gadm4.1/shp/gadm41_THA_shp.zip,NA
Fruiturday,18.7879159,98.992679,osm_only,NA,4748011323,NA,NA,NA,https://geodata.ucdavis.edu/gadm/gadm4.1/shp/gadm41_THA_shp.zip,NA
กาแฟสดสังคม,18.8028033,98.949618,osm_only,NA,4752385436,NA,NA,NA,https://geodata.ucdavis.edu/gadm/gadm4.1/shp/gadm41_THA_shp.zip,NA
Zaap C U Cafe,18.7634561,99.0083421,osm_only,NA,4761003587,NA,NA,NA,https://geodata.ucdavis.edu/gadm/gadm4.1/shp/gadm41_THA_shp.zip,NA
Coffee & Me,18.7569838,99.0008121,osm_only,NA,4763900042,NA,NA,NA,https://geodata.ucdavis.edu/gadm/gadm4.1/shp/gadm41_THA_shp.zip,NA
ไก่ทอด​เที่ยงคืน,18.780054,98.998114,osm_only,NA,4792155522,NA,NA,NA,https://geodata.ucdavis.edu/gadm/gadm4.1/shp/gadm41_THA_shp.zip,Mo-Su 22:00-05:00
Fresher Juice Bar,18.7834859,99.0056712,osm_only,NA,4796690555,NA,NA,NA,https://geodata.ucdavis.edu/gadm/gadm4.1/shp/gadm41_THA_shp.zip,NA
Acaba Coffee Roastery,18.8590615,99.2752382,osm_only,NA,4797812722,NA,NA,NA,https://acaba-coffee.com/,NA
NA,18.8157484,98.9644235,osm_only,NA,4800200323,NA,NA,NA,https://geodata.ucdavis.edu/gadm/gadm4.1/shp/gadm41_THA_shp.zip,NA
Art Roastery Huay Kaew,18.806441,98.9574681,osm_only,NA,4811280524,NA,NA,NA,https://geodata.ucdavis.edu/gadm/gadm4.1/shp/gadm41_THA_shp.zip,Mo-Su 08:00-18:00
Vigie Sist Cafe,18.7921906,98.9901698,osm_only,NA,4820434529,NA,NA,NA,https://geodata.ucdavis.edu/gadm/gadm4.1/shp/gadm41_THA_shp.zip,Mo-Sa 08:00-17:00
NA,18.7801261,98.9515677,osm_only,NA,4828047523,NA,NA,NA,https://geodata.ucdavis.edu/gadm/gadm4.1/shp/gadm41_THA_shp.zip,NA
NA,18.7917358,99.0027198,osm_only,NA,4828059024,NA,NA,NA,https://geodata.ucdavis.edu/gadm/gadm4.1/shp/gadm41_THA_shp.zip,NA
NA,18.7606373,99.2483271,osm_only,NA,4839497784,NA,NA,NA,https://geodata.ucdavis.edu/gadm/gadm4.1/shp/gadm41_THA_shp.zip,NA
NA,18.792352,98.9914912,osm_only,NA,4848161614,NA,NA,NA,https://geodata.ucdavis.edu/gadm/gadm4.1/shp/gadm41_THA_shp.zip,NA
NA,18.7922676,98.9914683,osm_only,NA,4848161615,NA,NA,NA,https://geodata.ucdavis.edu/gadm/gadm4.1/shp/gadm41_THA_shp.zip,NA
NA,18.7922823,98.9914074,osm_only,NA,4848161616,NA,NA,NA,https://geodata.ucdavis.edu/gadm/gadm4.1/shp/gadm41_THA_shp.zip,NA
NA,18.79161,98.9916211,osm_only,NA,4848162120,NA,NA,NA,https://geodata.ucdavis.edu/gadm/gadm4.1/shp/gadm41_THA_shp.zip,NA
NA,18.7915175,98.9915863,osm_only,NA,4848162221,NA,NA,NA,https://geodata.ucdavis.edu/gadm/gadm4.1/shp/gadm41_THA_shp.zip,NA
NA,18.7915467,98.9914997,osm_only,NA,4848162222,NA,NA,NA,https://geodata.ucdavis.edu/gadm/gadm4.1/shp/gadm41_THA_shp.zip,NA
NA,18.7930042,98.986253,osm_only,NA,4848162508,NA,NA,NA,https://geodata.ucdavis.edu/gadm/gadm4.1/shp/gadm41_THA_shp.zip,NA
NA,18.7929155,98.9862525,osm_only,NA,4848162509,NA,NA,NA,https://geodata.ucdavis.edu/gadm/gadm4.1/shp/gadm41_THA_shp.zip,NA
NA,18.7929158,98.9861856,osm_only,NA,4848162510,NA,NA,NA,https://geodata.ucdavis.edu/gadm/gadm4.1/shp/gadm41_THA_shp.zip,NA
NA,18.7930045,98.9861861,osm_only,NA,4848162511,NA,NA,NA,https://geodata.ucdavis.edu/gadm/gadm4.1/shp/gadm41_THA_shp.zip,NA
NA,18.7974939,98.9900179,osm_only,NA,4867379621,NA,NA,NA,https://geodata.ucdavis.edu/gadm/gadm4.1/shp/gadm41_THA_shp.zip,NA
art du café,18.7762532,98.9994852,osm_only,NA,4870779121,NA,NA,NA,https://geodata.ucdavis.edu/gadm/gadm4.1/shp/gadm41_THA_shp.zip,NA
NA,18.8877787,98.8287277,osm_only,NA,4871575722,NA,NA,NA,https://geodata.ucdavis.edu/gadm/gadm4.1/shp/gadm41_THA_shp.zip,NA
NA,18.7881248,99.0014706,osm_only,NA,4875218066,NA,NA,NA,https://geodata.ucdavis.edu/gadm/gadm4.1/shp/gadm41_THA_shp.zip,NA
NA,18.7881819,99.0013501,osm_only,NA,4875218547,NA,NA,NA,https://geodata.ucdavis.edu/gadm/gadm4.1/shp/gadm41_THA_shp.zip,NA
NA,18.7881287,99.001322,osm_only,NA,4875220125,NA,NA,NA,https://geodata.ucdavis.edu/gadm/gadm4.1/shp/gadm41_THA_shp.zip,NA
สภากาแฟ(เจ้าเก่า),18.7683068,98.9993542,osm_only,NA,4879591522,NA,NA,NA,https://geodata.ucdavis.edu/gadm/gadm4.1/shp/gadm41_THA_shp.zip,"Mo-Th, Sa, Su 05:30-11:00"
Coffee Bee,18.7695779,98.9767251,osm_only,NA,4880216345,NA,NA,NA,https://geodata.ucdavis.edu/gadm/gadm4.1/shp/gadm41_THA_shp.zip,08:30-20:00
Coffee or Me,18.8202689,98.951235,osm_only,NA,4889011525,NA,NA,NA,https://geodata.ucdavis.edu/gadm/gadm4.1/shp/gadm41_THA_shp.zip,Mo-Su 09:30-17:00
Yellow Crafts,18.7892994,98.9644784,osm_only,NA,4893144721,NA,NA,NA,https://geodata.ucdavis.edu/gadm/gadm4.1/shp/gadm41_THA_shp.zip,Mo-Su 07:00-19:00
Fresh& Mild,18.7914797,98.9748004,osm_only,NA,4905277321,NA,NA,NA,https://geodata.ucdavis.edu/gadm/gadm4.1/shp/gadm41_THA_shp.zip,NA
NA,18.7840241,99.0038296,osm_only,NA,4911778421,NA,NA,NA,https://geodata.ucdavis.edu/gadm/gadm4.1/shp/gadm41_THA_shp.zip,Mo-Su 09:00-18:00
NA,18.7837721,98.9933801,osm_only,NA,4925330434,NA,NA,NA,https://geodata.ucdavis.edu/gadm/gadm4.1/shp/gadm41_THA_shp.zip,NA
NA,18.7852302,98.9926224,osm_only,NA,4929780921,NA,NA,NA,https://geodata.ucdavis.edu/gadm/gadm4.1/shp/gadm41_THA_shp.zip,NA
The Heart Coffee,18.8013018,98.9790563,osm_only,NA,4934602422,NA,NA,NA,https://geodata.ucdavis.edu/gadm/gadm4.1/shp/gadm41_THA_shp.zip,Mo-Sa 09:00-17:00
Brown Rice Organic Cafe,18.7884397,98.9825826,osm_only,NA,4961026130,NA,NA,NA,https://geodata.ucdavis.edu/gadm/gadm4.1/shp/gadm41_THA_shp.zip,NA
