Name,Latitude,Longitude,MatchStatus,PlaceID,OsmID,Dist_m,Rating,UserRatingsTotal,URL,OpeningHours
coffee process,18.552878,98.4801852,matched,ChIJO-HUcQAB2zARJmstqXq4FR8,262581744,10.3920660842046,4,9,https://geodata.ucdavis.edu/gadm/gadm4.1/shp/gadm41_THA_shp.zip,NA
Hug Ner Coffee,19.3786205,98.7216325,matched,ChIJ-SkVRd-d0DARTbyMb6ijx-c,868590987,2.0716349149248736,4.6,109,https://geodata.ucdavis.edu/gadm/gadm4.1/shp/gadm41_THA_shp.zip,NA
Café Amazon,19.353153,98.9639651,matched,ChIJD7jyUnmn0DARJ-p_-7CAUIQ,1012161651,2.985832795903265,3.9,21,https://geodata.ucdavis.edu/gadm/gadm4.1/shp/gadm41_THA_shp.zip,Mo-Su 07:00-19:00
Café Amazon,18.6786874,99.0494064,matched,ChIJU6pxxtYt2jARXPFF1iaUji0,1017739602,1.1881078116896286,4.3,240,https://geodata.ucdavis.edu/gadm/gadm4.1/shp/gadm41_THA_shp.zip,Mo-Su 06:30-19:00
Café Amazon,18.7217171,99.0380523,matched,ChIJZwRL7JUv2jAR_XloGK5LQC4,1029578473,4.12833125310136,4.2,170,https://geodata.ucdavis.edu/gadm/gadm4.1/shp/gadm41_THA_shp.zip,NA
Big C Hang Dong #2,18.6684192,98.9136551,matched,ChIJ8WzeXg002jARYYNNaex1eOQ,1058639339,5.116805523749523,4.1,48,https://geodata.ucdavis.edu/gadm/gadm4.1/shp/gadm41_THA_shp.zip,NA
Love is coffee time,18.7662186,99.083002,matched,ChIJDbyA6Vwv2jAR47CBqZ9zQ5s,1093720093,0.8119750139401513,4.9,45,https://geodata.ucdavis.edu/gadm/gadm4.1/shp/gadm41_THA_shp.zip,NA
Cafe de L'Amour,18.781063,99.00074,matched,ChIJw7JZ8qc62jARrSmQF4ONEoo,1101287698,6.258142520621114,4.6,429,https://m.facebook.com/lamour.chiangmai,08:30-21:00
Starbucks,18.7837905,99.0001525,matched,ChIJH2JmRKQ62jARSAPBJj8iAjg,1101288715,4.128308537855208,4.3,619,https://www.starbucks.com/,"Mo-Fr 06:30-23:00; Sa,Su 06:30-22:00"
Starbucks Nimmanhemin Soi 9,18.79752569999999,98.9668167,matched,ChIJ397BKGM62jARjFC4ar4naQ0,1127593959,12.465507662079476,4.4,971,https://www.starbucks.com/,NA
ร้าน สถานีวิจัยกาแฟ,18.8386966,98.8963676,matched,ChIJZ6u0HwA52jARB_bCfxEGOHg,1169723115,17.83709210729718,NA,NA,https://geodata.ucdavis.edu/gadm/gadm4.1/shp/gadm41_THA_shp.zip,NA
Café Amazon ปตท.พร้าว,19.3688295,99.2004166,matched,ChIJdzMnejBV1zARROLhga_heI4,1248118434,0.801940199048758,4.4,36,https://geodata.ucdavis.edu/gadm/gadm4.1/shp/gadm41_THA_shp.zip,NA
Baan Siri Coffee&Food,19.80501509999999,99.1679064,matched,ChIJY4wbJ17L0DARBAtFf5MdEBw,1348997661,4.884080863459251,4.2,29,https://geodata.ucdavis.edu/gadm/gadm4.1/shp/gadm41_THA_shp.zip,Mo-Su 07:30-18:30
Baan Yam Roll Cafe,18.7220458,99.0264582,matched,ChIJA2PGXjAu2jARfBEAxliQvvE,1377321248,2.03945059050318,4.6,427,https://geodata.ucdavis.edu/gadm/gadm4.1/shp/gadm41_THA_shp.zip,NA
Mee Jirakul orange garden & Mee Cafe,19.1214593,98.7046875,matched,ChIJ7agfwidw2jAR2tpAGWl__3M,1379206267,5.165510609677641,4.7,90,https://geodata.ucdavis.edu/gadm/gadm4.1/shp/gadm41_THA_shp.zip,NA
Café Amazon,18.7698306,99.0715678,matched,ChIJJUG3Z2Qv2jARLsbtkgwsKzs,1381345475,5.438789680849359,4.3,85,https://geodata.ucdavis.edu/gadm/gadm4.1/shp/gadm41_THA_shp.zip,NA
SAWDUST CAFÉ - ซอดัสท์คาเฟ่,18.7250562,99.1035364,matched,ChIJabACWOop2jARnIKbVPbrMQs,1388675491,6.723386180893656,4.5,169,https://geodata.ucdavis.edu/gadm/gadm4.1/shp/gadm41_THA_shp.zip,NA
Tara Cafe' Coffee and bakery,18.8746104,98.9695091,matched,ChIJ_zzQ05I72jARwUfdjmZvmOI,1460917962,1.327399404708203,4.6,78,https://geodata.ucdavis.edu/gadm/gadm4.1/shp/gadm41_THA_shp.zip,Mo-Su 08:00-14:00
Black Canyon ท่าอากาศยานเชียงใหม่ (Domestic Outside),18.7701872,98.9680138,matched,ChIJCbg2SYkw2jARR1XARZpWlHw,1474872898,35.017397998676614,3.4,150,https://geodata.ucdavis.edu/gadm/gadm4.1/shp/gadm41_THA_shp.zip,"PH,Mo-Su 06:00-23:00"
Raming Tea Estate,19.26485449999999,98.9212156,matched,ChIJPWFm_v4L2jARJUwuC24pfnk,1526074376,18.537516522133252,4.5,144,https://geodata.ucdavis.edu/gadm/gadm4.1/shp/gadm41_THA_shp.zip,NA
GORD CHIANGMAI HOTEL,18.7834763,98.9852867,matched,ChIJ5XWWiAw72jARn_YWoFpgNIo,1618868154,8.301354818419101,4.5,373,https://geodata.ucdavis.edu/gadm/gadm4.1/shp/gadm41_THA_shp.zip,NA
Hot Coffee Guest House and Resort,18.6704784,98.3782882,matched,ChIJzTsa8TT82jAROqOOKCEsK64,1761734569,5.332119169076615,4.4,236,https://geodata.ucdavis.edu/gadm/gadm4.1/shp/gadm41_THA_shp.zip,NA
Coffee Witch's House,19.2181948,98.6705737,matched,ChIJt1erMX1w2jAR_j9Q6BfLpcs,1819858250,15.343086448718093,4.3,896,https://geodata.ucdavis.edu/gadm/gadm4.1/shp/gadm41_THA_shp.zip,NA
Maple Coffee,19.8050944,99.1686494,matched,ChIJoRuCWjfL0DARksP1dcC4ujA,1985325612,34.79005799395955,4.5,67,https://geodata.ucdavis.edu/gadm/gadm4.1/shp/gadm41_THA_shp.zip,NA
Baan Suan Café,18.7595844,98.91374890000002,matched,ChIJOWUj8zc32jARxfHJqcWe6fk,2005925281,17.897043363384235,4.4,1747,https://geodata.ucdavis.edu/gadm/gadm4.1/shp/gadm41_THA_shp.zip,Mo-Su 08:00-17:00
Praw & Plean Green House Cafe,18.7602255,98.9048877,matched,ChIJFVbt5NMw2jARkOp_qFM6_OU,2005925282,32.244374655952605,4.6,140,https://geodata.ucdavis.edu/gadm/gadm4.1/shp/gadm41_THA_shp.zip,NA
Café Amazon,20.0271216,99.2851052,matched,ChIJXZbjxu0p1zARkMYXma3pe8M,2074584720,34.22141345280564,2.8,10,https://geodata.ucdavis.edu/gadm/gadm4.1/shp/gadm41_THA_shp.zip,NA
Hom Nual cafe,19.1919814,98.95876,matched,ChIJgSb-m08O2jARi4wmrqbpVb4,2183806667,15.707578066771628,4.4,67,https://geodata.ucdavis.edu/gadm/gadm4.1/shp/gadm41_THA_shp.zip,NA
DoiMek Café | ร้านกาแฟดอยเมฆ,19.4556889,98.9646979,matched,ChIJe3oKRzKk0DAR8fbE1cURugg,2195684384,9.596396145528214,4.3,82,https://geodata.ucdavis.edu/gadm/gadm4.1/shp/gadm41_THA_shp.zip,NA
Coffee House,18.856599,99.0998838,matched,ChIJyf_9M8En2jARwK5BAAk2K0Q,2417600317,2.8453990346717433,4.4,108,https://geodata.ucdavis.edu/gadm/gadm4.1/shp/gadm41_THA_shp.zip,NA
กาแฟออร์แกนิค Black Wanila Organic Coffee,18.802128,98.9502997,matched,ChIJBwpB_KQ62jARNmufGmPWDnA,2434791784,25.192530324114735,4.3,28,https://geodata.ucdavis.edu/gadm/gadm4.1/shp/gadm41_THA_shp.zip,NA
Chiang Dao in Love,19.473164,98.96169,matched,ChIJLTXt7k6k0DART7N7bSbAbFM,2521984652,12.389168929244324,4.1,152,https://geodata.ucdavis.edu/gadm/gadm4.1/shp/gadm41_THA_shp.zip,NA
Larn-Ya Coffee And Restaurant,18.9171053,98.9973481,matched,ChIJ7Rl9RNk82jARHmN08xWvpV8,2582060112,35.74498067889947,4.3,6,https://geodata.ucdavis.edu/gadm/gadm4.1/shp/gadm41_THA_shp.zip,NA
Omkoi Bean,17.7999149,98.3581416,matched,ChIJDQQqiKGD3DARpIfCcf9vOuk,2617030206,33.54603429543042,4.3,12,https://geodata.ucdavis.edu/gadm/gadm4.1/shp/gadm41_THA_shp.zip,NA
Mae Naree Coffee ผาแดง,17.6980641,98.2418463,matched,ChIJkWzGdRSb3DARK6nlniLZlLw,2618521973,48.735988999371486,NA,NA,https://geodata.ucdavis.edu/gadm/gadm4.1/shp/gadm41_THA_shp.zip,NA
U-noka,18.7990384,99.2422169,matched,ChIJPdoAdPGI2TARwewZv50r-sA,2631763471,5.672710354261039,4.5,51,https://geodata.ucdavis.edu/gadm/gadm4.1/shp/gadm41_THA_shp.zip,NA
Coffee terminal,18.8925991,99.1724624,matched,ChIJyWASNZQg2jARp3meg5HtHU0,2641942618,6.739153729556565,4.5,255,https://geodata.ucdavis.edu/gadm/gadm4.1/shp/gadm41_THA_shp.zip,Mo-Su 07:30-17:00
Kampong Coffee,18.8657494,99.3535463,matched,ChIJWUi5_-SN2TARgfCLtwBieg0,2642156470,4.1685891150980385,4.4,30,https://geodata.ucdavis.edu/gadm/gadm4.1/shp/gadm41_THA_shp.zip,NA
Doi Chaang Coffee,18.78683149999999,98.9987306,matched,ChIJj13gLaQ62jARVVf_alEiaHY,2655153486,14.985592177309346,4.5,89,https://geodata.ucdavis.edu/gadm/gadm4.1/shp/gadm41_THA_shp.zip,NA
Intanon Coffee,18.5836705,98.8852594,matched,ChIJC0fnzjLL2zAR4L6898jbSy0,2684247512,8.767832214755973,4.5,129,https://geodata.ucdavis.edu/gadm/gadm4.1/shp/gadm41_THA_shp.zip,NA
อาหารอิสลาม และบ้านพัก ทับอุสา,18.9622737,98.9139384,matched,ChIJmxlakOw92jARe8U0VYVFoW8,2773248344,22.648103617577718,4.6,14,https://geodata.ucdavis.edu/gadm/gadm4.1/shp/gadm41_THA_shp.zip,NA
SONG SEAN COFFEE,18.8119654,98.8846745,matched,ChIJwSmqy4c52jARqJOU8KwguEI,3046913649,8.316580224937827,4.7,110,https://geodata.ucdavis.edu/gadm/gadm4.1/shp/gadm41_THA_shp.zip,NA
BAAN KAFÉ at Doi Inthanon,18.5879764,98.4862224,matched,ChIJ2U2NdUmr2zARF3rgY3Sj350,3081257253,9.378473218294776,4.8,41,https://geodata.ucdavis.edu/gadm/gadm4.1/shp/gadm41_THA_shp.zip,NA
Dunkin Tea,19.0827163,98.9367424,matched,ChIJD3kZVgAR2jARvIvshzxa2QQ,3107256389,17.74566474542965,5,4,https://geodata.ucdavis.edu/gadm/gadm4.1/shp/gadm41_THA_shp.zip,NA
Café Amazon,18.80612,99.0176736,matched,ChIJe46QMjQl2jARFdaSdpnH_iM,3116053111,41.415730642206434,4.1,247,https://www.starbucks.com/,NA
Café Amazon,18.6713211,98.8878131,matched,ChIJjfcq9zY02jARNZZA6-MN0S8,3121493939,8.445484204922282,4.2,281,https://geodata.ucdavis.edu/gadm/gadm4.1/shp/gadm41_THA_shp.zip,NA
Cafe 1971,18.642391,98.84696900000002,matched,ChIJCYdW2Xk12jARhV0DOQMu3es,3121493974,6.218832925040415,4.5,17,https://geodata.ucdavis.edu/gadm/gadm4.1/shp/gadm41_THA_shp.zip,NA
ร้านเฮือนโบราณ,18.687905,98.9471982,matched,ChIJqcVD5d8z2jAR2FHZhrRrP08,3174251462,6.720004281712441,4.2,15,https://geodata.ucdavis.edu/gadm/gadm4.1/shp/gadm41_THA_shp.zip,NA
The Baristro at Jingjai Market,18.8078742,98.9950529,matched,ChIJ1zIrPcE62jARLmFY_rZZmDk,3195504333,12.373460845389921,4.7,447,https://geodata.ucdavis.edu/gadm/gadm4.1/shp/gadm41_THA_shp.zip,NA
Maajoy cafe,18.8065128,98.9645953,matched,ChIJKYxjPl462jARiqAyRG_R3jQ,3221309062,23.609432560089125,4.8,25,https://geodata.ucdavis.edu/gadm/gadm4.1/shp/gadm41_THA_shp.zip,NA
Maple Coffee,18.4919155,98.6720787,matched,ChIJH32YEIyx2zARHA2gxpXnvmc,3235711895,6.659041473541876,4.4,30,https://geodata.ucdavis.edu/gadm/gadm4.1/shp/gadm41_THA_shp.zip,NA
Black Canyon @ SuanDok Hospital,18.7894562,98.9705463,matched,ChIJwziLL4Q62jARzPUlyEAkB34,3242156461,14.924053290276836,3.9,71,https://geodata.ucdavis.edu/gadm/gadm4.1/shp/gadm41_THA_shp.zip,Mo-Su 07:00-20:00
StarWork Chiangmai,18.7963759,99.0164451,matched,ChIJy8X8b0wl2jARx4OZOpCGXTc,3242156462,36.50281662789237,4.8,130,https://geodata.ucdavis.edu/gadm/gadm4.1/shp/gadm41_THA_shp.zip,NA
Merle brew,18.9565537,98.8050555,matched,ChIJ88iVvW5B2jAR0XTLbS00WSU,3247403107,13.35789721480838,5,13,https://geodata.ucdavis.edu/gadm/gadm4.1/shp/gadm41_THA_shp.zip,NA
Oui Kaew Coffee อุ้ยแก้วกาแฟ,18.8523299,98.7328733,matched,ChIJu94bZvdE2jAR9E703rOoWMc,3247431556,20.14010747114966,4.6,179,https://geodata.ucdavis.edu/gadm/gadm4.1/shp/gadm41_THA_shp.zip,NA
Roastniyom Coffee - Esso Chang Phueak,18.8367546,98.9754093,matched,ChIJ0TTiNwQ72jARo_nDuUpgr5o,3322713453,6.19993050161941,4.3,102,https://geodata.ucdavis.edu/gadm/gadm4.1/shp/gadm41_THA_shp.zip,NA
Café Woodhouse at S*Trips,18.7809405,99.0002244,matched,ChIJhdKwjac62jARWD-k6KzmOR4,3326560622,22.795816586452496,3,2,https://geodata.ucdavis.edu/gadm/gadm4.1/shp/gadm41_THA_shp.zip,NA
ปางไฮคอฟฟี่ช็อป Panghai coffee shop,18.921977,99.3294062,matched,ChIJXQqU7huN2TARzVgmO6vnXzM,3329625277,23.591911191068696,4.4,364,https://geodata.ucdavis.edu/gadm/gadm4.1/shp/gadm41_THA_shp.zip,NA
My Secret Cafe,18.8562225,98.9869203,matched,ChIJtzAhwWs72jARkN3s2XtZT7E,3340956813,16.029510858696803,4.4,32,https://geodata.ucdavis.edu/gadm/gadm4.1/shp/gadm41_THA_shp.zip,Tu-Su 10:30-17:00
Café Amazon,18.8755508,99.0147355,matched,ChIJRSTdDFUj2jARXvQsb5p29wM,3340982844,7.63975612518899,4.6,116,https://geodata.ucdavis.edu/gadm/gadm4.1/shp/gadm41_THA_shp.zip,NA
Chill Chill Cup,18.9124254,98.9377168,matched,ChIJXcGThDo82jAR6dUakFPqjKg,3341012238,9.15399048624377,4.6,8,https://geodata.ucdavis.edu/gadm/gadm4.1/shp/gadm41_THA_shp.zip,NA
Coffee World - Central Chiangmai (Common Area),18.7694951,98.9754133,matched,ChIJJ__HuGQw2jAREu9d7xaiCBQ,3347631779,12.223095203697568,4.1,61,https://geodata.ucdavis.edu/gadm/gadm4.1/shp/gadm41_THA_shp.zip,"Mo-Fr 11:00-2:00; Sa,Su 10:00-21:00"
Starbucks,18.7697824,98.975176,matched,ChIJM80_8F4w2jARgnfpHDFEfig,3347633205,3.2664575078500766,4.3,416,www.starbuckscard.in.th,"Mo-Fr 11:00-21:00; Sa,Su 10:00-21:00"
Wawee Coffee,18.8998343,98.8756032,matched,ChIJDWiJaCE_2jARBR-6DyupiHI,3355620168,4.020171092714545,4.2,13,https://geodata.ucdavis.edu/gadm/gadm4.1/shp/gadm41_THA_shp.zip,NA
Khagee,18.7861733,99.0052306,matched,ChIJJ3futa462jARRveEt-Gqpm4,3395080851,1.1272818343733657,4.5,931,https://geodata.ucdavis.edu/gadm/gadm4.1/shp/gadm41_THA_shp.zip,NA
Porwa Pizza & drip coffee,19.0715391,98.3033964,matched,ChIJ_bLQnd-T2jARsDNJaKDH3w0,3397737973,31.374001002534815,4.9,71,https://geodata.ucdavis.edu/gadm/gadm4.1/shp/gadm41_THA_shp.zip,NA
Subway - Sandwich Restaurants Burger ร้านอาหาร นิมมาน,18.7963814,98.9659491,matched,ChIJ4Vkg_mI62jARt2iooxOh7XE,3400287976,19.46459935590201,4.3,423,https://geodata.ucdavis.edu/gadm/gadm4.1/shp/gadm41_THA_shp.zip,NA
The Volcano II,18.772353,98.9782543,matched,ChIJdT6-8How2jARbv0nRcoZQ2Q,3401322096,8.554132454150468,4.3,345,https://geodata.ucdavis.edu/gadm/gadm4.1/shp/gadm41_THA_shp.zip,NA
สภากาแฟ89,18.7521719,99.0090675,matched,ChIJIV2eFSEw2jARAffUmlJm8x0,3412153328,17.428592638133594,4.4,96,https://geodata.ucdavis.edu/gadm/gadm4.1/shp/gadm41_THA_shp.zip,NA
Hug Coffee Shop,18.7555804,99.0180908,matched,ChIJ_86vA94v2jARRAB8VAGeXKY,3412153330,11.847837408817213,4.4,32,https://geodata.ucdavis.edu/gadm/gadm4.1/shp/gadm41_THA_shp.zip,NA
Cafe17,18.7948881,98.9703231,matched,ChIJkw4Ca4g62jAR7ag3ow6NtqY,3421207456,25.814086411197472,3,1,https://geodata.ucdavis.edu/gadm/gadm4.1/shp/gadm41_THA_shp.zip,NA
Mingmitr Coffee,18.7939558,98.9706782,matched,ChIJ-cbsW4g62jARMRjlbu4QH1I,3421254993,23.900582458509543,4.4,319,https://geodata.ucdavis.edu/gadm/gadm4.1/shp/gadm41_THA_shp.zip,NA
RK Cafe x Looper&Co.,18.7967851,98.9683367,matched,ChIJN-OJfmI62jARqY4XvAKSYo8,3421308392,22.698725616754082,4.3,19,https://geodata.ucdavis.edu/gadm/gadm4.1/shp/gadm41_THA_shp.zip,NA
Manifreshto Cafe & Restaurant,18.798603,98.9686445,matched,ChIJYTQSCGI62jARvTTnbHS2sX0,3426400071,7.066270276840254,4.5,1167,https://geodata.ucdavis.edu/gadm/gadm4.1/shp/gadm41_THA_shp.zip,NA
PLAYWORKS SHOP&CAFE,18.8013159,98.96725750000002,matched,ChIJey3kv2E62jAR3VrFAB7vPhg,3426430299,13.018392411593004,4.3,382,https://geodata.ucdavis.edu/gadm/gadm4.1/shp/gadm41_THA_shp.zip,NA
บ้านกาแฟ,18.7172091,99.0383842,matched,ChIJcc6TUEYu2jARE39E1od2hN4,3426798762,5.205574031144464,4.3,45,https://geodata.ucdavis.edu/gadm/gadm4.1/shp/gadm41_THA_shp.zip,NA
ซุ้ม​กาแฟ​ฮอด​ฮิต,18.1973607,98.6120056,matched,ChIJgxiku_2Z2zARvUZJax7PCjQ,3442281015,35.357102005892656,NA,NA,https://geodata.ucdavis.edu/gadm/gadm4.1/shp/gadm41_THA_shp.zip,NA
นัดพบ เพลย์,18.9147325,99.0830282,matched,ChIJNe4bWAAj2jARaXgMrYTlWrs,3453468996,13.762062747385073,5,2,https://geodata.ucdavis.edu/gadm/gadm4.1/shp/gadm41_THA_shp.zip,NA
Eurana Cafe & Restaurant,18.7920411,98.9922688,matched,ChIJ_____-852jAROT66xa178ys,3456825435,27.042225866650867,4.6,197,https://geodata.ucdavis.edu/gadm/gadm4.1/shp/gadm41_THA_shp.zip,NA
Chiang Mai Rice Life,18.7961743,99.0475538,matched,ChIJ3XLCGXIl2jARK3vBDz4Ji9k,3461566102,7.415669307995494,4.5,426,https://geodata.ucdavis.edu/gadm/gadm4.1/shp/gadm41_THA_shp.zip,NA
Café Amazon,18.7846357,98.959198,matched,ChIJPQZzNXg62jAR08hG4UicLWQ,3498459991,1.948289960781401,4.3,75,https://geodata.ucdavis.edu/gadm/gadm4.1/shp/gadm41_THA_shp.zip,NA
Ninecool Coffee & Cake,19.9173436,99.2107348,matched,ChIJHSWjwWwt1zARpj0HyRDeYk8,3509493642,12.653785448830009,4.5,181,https://geodata.ucdavis.edu/gadm/gadm4.1/shp/gadm41_THA_shp.zip,Mo-Su 08:00-18:00
Inthada restaurant and cafe by coffee de candle,18.7261046,98.9601826,matched,ChIJs29YAAUx2jAR6Fp68kOddx8,3650359131,6.19434448603326,4.2,345,https://geodata.ucdavis.edu/gadm/gadm4.1/shp/gadm41_THA_shp.zip,NA
Café Amazon,18.7694002,99.0298038,matched,ChIJp6ali_Ev2jARPWN1COy61jY,3699353873,3.3412545844425536,4,226,https://geodata.ucdavis.edu/gadm/gadm4.1/shp/gadm41_THA_shp.zip,NA
"Ramino Coffee Club, ร้านกาแฟ รามิโน่คอฟฟี่คลับ",18.7620918,99.0301825,matched,ChIJv5hvEOwv2jAR3oiOGSDcd9Y,3699435615,6.343812978897366,4.5,142,https://geodata.ucdavis.edu/gadm/gadm4.1/shp/gadm41_THA_shp.zip,NA
Hop Chafe สาขาหน้าโรงเรียนพร้าว,19.3399124,99.1949527,matched,ChIJZfwVSQBV1zARdim5L4mq6gY,3701046289,19.929942820404197,NA,NA,https://geodata.ucdavis.edu/gadm/gadm4.1/shp/gadm41_THA_shp.zip,NA
Maetang River view cafe and wine bar,19.1980335,98.8852846,matched,ChIJ-2BytzYN2jARJnUV_dtRqc0,3790932533,6.499184228497816,4,2,https://geodata.ucdavis.edu/gadm/gadm4.1/shp/gadm41_THA_shp.zip,NA
De Aerng Boutique Hotel,18.4581873,98.7748452,matched,ChIJUwm0tBi32zARms7zyAFzXRs,3801722889,24.57848124490783,4.3,143,https://geodata.ucdavis.edu/gadm/gadm4.1/shp/gadm41_THA_shp.zip,NA
ร้านแกะดำฉำฉา,18.6550392,98.8650832,matched,ChIJ27-JvPg12jARdgK1uaxYU_s,3832005201,29.74893995301482,4.3,109,https://geodata.ucdavis.edu/gadm/gadm4.1/shp/gadm41_THA_shp.zip,NA
Bon Doi Coffee View,19.05736959999999,99.3581334,matched,ChIJE09bMuXx2TAROyTwmZ60XFg,3835193169,1.3039322870023662,4.4,214,https://geodata.ucdavis.edu/gadm/gadm4.1/shp/gadm41_THA_shp.zip,NA
Baan Chiangroong,18.87140969999999,99.1257938,matched,ChIJS07NqTUh2jARjztbJCEY3yo,3851468855,24.390618023453406,4.5,351,https://geodata.ucdavis.edu/gadm/gadm4.1/shp/gadm41_THA_shp.zip,NA
Café Amazon,19.6879014,99.1485925,matched,ChIJ9735g9y10DARUd9i09RVLJU,3854066930,1.134063013398861,3.7,83,https://geodata.ucdavis.edu/gadm/gadm4.1/shp/gadm41_THA_shp.zip,NA
Café Amazon,18.193639,98.6071604,matched,ChIJSal2OP6Z2zARnva8xquPNYg,3880114766,12.718798804974691,3.5,15,https://geodata.ucdavis.edu/gadm/gadm4.1/shp/gadm41_THA_shp.zip,NA
Tatonyon Coffee&Cafe',18.4876046,98.8073874,matched,ChIJUcG3FGm22zARMr8ykXHb1sg,3880114855,17.460250699758063,4.4,384,https://geodata.ucdavis.edu/gadm/gadm4.1/shp/gadm41_THA_shp.zip,NA
กาแฟอมก๋อย,17.8356875,98.3721875,matched,ChIJu7JbB0eC3DAReZOKXcvlvi4,3883288647,32.93687517896324,4.4,131,https://geodata.ucdavis.edu/gadm/gadm4.1/shp/gadm41_THA_shp.zip,NA
Huangfulong,18.8050715,98.9729118,matched,ChIJ3wuFTIs62jARtDslNjMQ2as,3897763600,33.28677910933311,4.6,32,https://geodata.ucdavis.edu/gadm/gadm4.1/shp/gadm41_THA_shp.zip,NA
Pong Yeang Berry-Windyhill,18.9116358,98.8259911,matched,ChIJRwD875lA2jARWZa-DzoQLEw,3912487220,17.090978807264175,4.5,312,https://geodata.ucdavis.edu/gadm/gadm4.1/shp/gadm41_THA_shp.zip,NA
Samudlanna,18.7980862,98.9736185,matched,ChIJW3stTok62jARRbNgG4vLarI,3927203453,17.020767662691885,4.6,1000,https://geodata.ucdavis.edu/gadm/gadm4.1/shp/gadm41_THA_shp.zip,Mo-Su 07:00-17:00
Ying yui cafe,19.2002005,98.8878034,matched,ChIJGemYEK8N2jARs5GwiQxwxVc,3930110086,21.32465956562868,4.7,15,https://geodata.ucdavis.edu/gadm/gadm4.1/shp/gadm41_THA_shp.zip,NA
Kaffeine coffee คาเฟอีน,18.7448606,98.9902301,matched,ChIJKZiBBUgw2jARV0yEd9bwn_8,4049924460,37.76540532649951,4.4,20,https://geodata.ucdavis.edu/gadm/gadm4.1/shp/gadm41_THA_shp.zip,NA
วังตาลคาเฟ่ (Wangtan Cafe),18.732797,98.974372,matched,ChIJkzFIFwAx2jARtDKnKZiK6TM,4052303895,18.80931031563631,4.8,46,https://www.facebook.com/profile.php?id=61555823392603,Mo-Su 8:30-20:00
The Maewin Coffee,18.67057939999999,98.6464103,matched,ChIJy4zuVG5S2jARpO99ptfqFN4,4081186033,7.754124348397188,4.6,155,https://geodata.ucdavis.edu/gadm/gadm4.1/shp/gadm41_THA_shp.zip,NA
สตรอเบอร์รี่ สวนชาวดินอินทนนท์ กม.21,18.5431443,98.5919275,matched,ChIJi-WS-Wqs2zARWKPuS5v29wA,4099934306,41.962167933813674,4.1,33,https://geodata.ucdavis.edu/gadm/gadm4.1/shp/gadm41_THA_shp.zip,NA
Ban Por Piang Chiang Dao,19.4484926,98.9830831,matched,ChIJsRi0t9ul0DARwREChQx5FOo,4203872790,3.162809945102447,4.6,193,https://geodata.ucdavis.edu/gadm/gadm4.1/shp/gadm41_THA_shp.zip,NA
95 Coffee,20.0600676,99.3612018,matched,ChIJmaBSEywp1zARSO4_7FstU5M,4206129189,8.362629072994975,4.5,31,https://geodata.ucdavis.edu/gadm/gadm4.1/shp/gadm41_THA_shp.zip,Mo-Su 08:00-17:00
Cottontree,18.8042646,98.9678921,matched,ChIJ898yEWA62jARgaE_MHll7sA,4265515989,3.7672974397952115,4.6,453,https://geodata.ucdavis.edu/gadm/gadm4.1/shp/gadm41_THA_shp.zip,We-Mo 08:00-16:00
Tiger Ted Cafe,18.802287,98.9664678,matched,ChIJD1IUsWE62jARq75oRHCnEq8,4333425791,1.3610628689624786,4.6,304,https://geodata.ucdavis.edu/gadm/gadm4.1/shp/gadm41_THA_shp.zip,NA
Mint cafe,19.0638902,98.9393276,matched,ChIJl2NXwDkX2jARIEyOJ5b014M,4362261291,10.195415733429424,5,1,https://geodata.ucdavis.edu/gadm/gadm4.1/shp/gadm41_THA_shp.zip,Mo-Su 06:00-20:00
Blue Cafe and Apartment service,18.7989249,99.0245161,matched,ChIJ58u6p-Uv2jAROXC_WsrwwAg,4427268751,11.926631392625522,4.2,250,https://m.facebook.com/Blue-Cafe-Chiang-mai-933362510162726/,Mo-Fr 08:00-20:00; Sa-Su 08:00-18:00
Roast8ry Coffee Lab,18.7988945,98.9686558,matched,ChIJAzODB2I62jARfrOZvzaVTwM,4438545289,7.695290352875669,4.4,2630,https://www.roast8ry.com/,NA
"Cafe Kantary, Chiang Mai",18.795897,98.9656126,matched,ChIJVQiXHGM62jAROg5x8rR-oWg,4476976180,18.377356524067057,4.3,209,https://geodata.ucdavis.edu/gadm/gadm4.1/shp/gadm41_THA_shp.zip,NA
Bee & Rose Cafe,18.8978061,99.25975900000002,matched,ChIJf1HR0ZmL2TARZUNC1srU8rA,4488066283,9.291074259990676,4.4,284,https://geodata.ucdavis.edu/gadm/gadm4.1/shp/gadm41_THA_shp.zip,Sa-Su ; weekday off
Hug Him Doi Thai Coffee,18.7948315,98.9334438,matched,ChIJ_wo6LgU62jARwu0xzeh-Ri4,4496869589,18.094117488054074,4.4,67,https://geodata.ucdavis.edu/gadm/gadm4.1/shp/gadm41_THA_shp.zip,NA
mosaic coffee,18.7957605,99.0082091,matched,ChIJ8WK-jK062jAR_BfMU6-YWdE,4504644390,48.19250467715008,4.4,83,https://geodata.ucdavis.edu/gadm/gadm4.1/shp/gadm41_THA_shp.zip,Mo-Sa 07:00-19:00; Su 08:00-19:00
Good Vibes Cafe,18.740443,98.974414,matched,ChIJm7OcVVEw2jARh9XC5Z0dMsY,4506585926,16.009124385889915,4.6,450,https://geodata.ucdavis.edu/gadm/gadm4.1/shp/gadm41_THA_shp.zip,NA
Inthanin Coffee and Restaurant,18.431068,98.6838358,matched,ChIJ-WX7MXy62zARdq99rixeprM,4513838300,32.59174171486073,5,1,https://geodata.ucdavis.edu/gadm/gadm4.1/shp/gadm41_THA_shp.zip,NA
ใจกลางดอย,18.1510025,98.2451246,matched,ChIJh0AT0dRv2zARVK2j8yZ2Hk0,4513838582,4.2046211021958735,4.9,16,https://geodata.ucdavis.edu/gadm/gadm4.1/shp/gadm41_THA_shp.zip,NA
Mix Kaffee,18.7909113,98.9785009,matched,ChIJSfGI-Y862jARyOLnaqsqD4c,4514610993,8.324915978355492,4.8,227,https://geodata.ucdavis.edu/gadm/gadm4.1/shp/gadm41_THA_shp.zip,Mo-Su 10:00-15:00
Gedhawa coffee สาขา ร.พ.นครพิงค์,18.8522297,98.9670673,matched,ChIJV8ZWcwA72jARarXlaMMgQkk,4522532754,9.598432655839758,NA,NA,https://geodata.ucdavis.edu/gadm/gadm4.1/shp/gadm41_THA_shp.zip,NA
Cup of Hobby by เพลินจิต,18.7943477,98.9902935,matched,ChIJZ0Jd3Jc62jAR9JBSq2IHRss,4552503190,23.047430858084528,4.4,5,https://geodata.ucdavis.edu/gadm/gadm4.1/shp/gadm41_THA_shp.zip,NA
Mind Coffee,19.1738833,99.0300909,matched,ChIJJbOZpA4F2jARmEQRkeDT3vM,4553735161,31.406578598088167,4.5,2,https://geodata.ucdavis.edu/gadm/gadm4.1/shp/gadm41_THA_shp.zip,NA
Asama Coffee & Roastery,18.7650239,98.9531644,matched,ChIJN9kSX5Ew2jAR9mn7yVwVPo0,4555359051,4.443066436517543,4.5,867,https://geodata.ucdavis.edu/gadm/gadm4.1/shp/gadm41_THA_shp.zip,Mo-Su 08:00-17:00
บ้านจ๊างกาแฟ Elephants coffee house,18.7223974,99.1164422,matched,ChIJN713HDMp2jAR8K4ikDOGCLg,4579341189,10.935987355871825,4.7,18,https://geodata.ucdavis.edu/gadm/gadm4.1/shp/gadm41_THA_shp.zip,NA
Tiger Hill Coffee,19.5177704,98.7569878,matched,ChIJk9VMJ-SZ0DARIjPuRopLNBQ,4582334489,21.7896020454359,4.8,6,https://geodata.ucdavis.edu/gadm/gadm4.1/shp/gadm41_THA_shp.zip,NA
ร้านกาแฟ มาลองคอฟฟี่,18.4514964,98.7202634,matched,ChIJ83kMZcKx2zARVSysdmSbJ7w,4591854136,18.992615029990755,5,2,https://geodata.ucdavis.edu/gadm/gadm4.1/shp/gadm41_THA_shp.zip,NA
The Larder Cafe & Bar,18.79906799999999,98.966128,matched,ChIJhZLPLWI62jARkfYqJJsDaFA,4596223590,43.60763008383237,3.2,1366,https://geodata.ucdavis.edu/gadm/gadm4.1/shp/gadm41_THA_shp.zip,Mo-Su 09:00-21:00
Seng Coffee & Beverage,18.8407739,98.9016354,matched,ChIJrdwL2Qw52jARkSK_xd9r2r8,4628433289,16.11053617640123,4.9,22,https://geodata.ucdavis.edu/gadm/gadm4.1/shp/gadm41_THA_shp.zip,NA
GreenCup by Boonsom Farm,18.7656177,98.991966,matched,ChIJ054rIhMw2jARk9CMb3c2YU4,4691707613,12.067463116404173,4.5,42,https://geodata.ucdavis.edu/gadm/gadm4.1/shp/gadm41_THA_shp.zip,NA
กึดเติงกาแฟ (Kud-Teing Kafe’),18.1293246,98.6485827,matched,ChIJLZCLKRua2zAR_HNfwpVCBiI,4694513489,21.198288247492737,4.6,16,https://geodata.ucdavis.edu/gadm/gadm4.1/shp/gadm41_THA_shp.zip,NA
More Fresh Coffee & Salads,18.730006,99.1095554,matched,ChIJiwTJD8Uo2jARCNQzozQXHCs,4694698200,7.378904573558777,4.3,55,https://geodata.ucdavis.edu/gadm/gadm4.1/shp/gadm41_THA_shp.zip,NA
บ้านกาแฟสะเมิง,18.8474943,98.7318574,matched,ChIJQ4s_SjFE2jARg1LbfRrAGXE,4719575095,19.03819272485582,4.5,13,https://geodata.ucdavis.edu/gadm/gadm4.1/shp/gadm41_THA_shp.zip,NA
Payak Coffee,18.49437709999999,98.3748627,matched,ChIJudRwVwAF2zARtlgWWpZl4WE,4753990622,4.970082745582682,4.9,13,https://geodata.ucdavis.edu/gadm/gadm4.1/shp/gadm41_THA_shp.zip,Mo-Su 09:00-17:00
Moca Coffee,19.1057116,98.9367905,matched,ChIJZU7Jv3AR2jARJ5mRKwv5NOI,4786026322,2.758319106884993,4.4,208,https://geodata.ucdavis.edu/gadm/gadm4.1/shp/gadm41_THA_shp.zip,Mo-Su 08:00-18:00
ดอยม่อนล้าน AKHA Coffee,19.3682951,99.2094961,matched,ChIJiZGZkC1V1zARypAA_WNkeTE,4851164530,9.31115581176111,4.8,39,https://geodata.ucdavis.edu/gadm/gadm4.1/shp/gadm41_THA_shp.zip,Mo-Su 07:00-21:00
Huan Hom Rada,18.644891,98.6975544,matched,ChIJ3dj0YwRN2jARoIZD6GqzVTo,4867436723,19.55696018407758,4.4,180,https://geodata.ucdavis.edu/gadm/gadm4.1/shp/gadm41_THA_shp.zip,Mo-Su 08:00-19:00
8 o'clock coffee,18.864652800000002,99.171451,matched,ChIJQ2skFksn2jAR7uG2NUx7pTo,4871575721,8.15434224683023,4.4,139,https://geodata.ucdavis.edu/gadm/gadm4.1/shp/gadm41_THA_shp.zip,Mo-Su 08:00-18:00
De Nawarat Chiangmai Boutique Apartment,18.7880707,99.0014079,matched,ChIJ5W5cjqU62jARX0f1R_keQf4,4875218548,3.6440464712038234,3.9,38,https://geodata.ucdavis.edu/gadm/gadm4.1/shp/gadm41_THA_shp.zip,NA
RabBrits Café,18.7894247,98.9662142,matched,ChIJSdm-tX062jARTAqXQHQObHI,4915032523,12.861175203303233,4,1,https://geodata.ucdavis.edu/gadm/gadm4.1/shp/gadm41_THA_shp.zip,"Su-Tu, Th-Fr 12:00-17:00"
Eightpercentloading,18.7338303,98.9570598,matched,ChIJg-5hXbYx2jAR7yvNil_Yzoo,4963189664,18.06217231987412,4.2,5,https://bonbon.cafe,Mo-Sa 08:30-18:00
Natwat Home Café,18.7995,99.0042994,matched,ChIJ2czzHrc62jAR1c3x8aQBSzk,5023530126,1.0796482221531223,4.6,520,https://geodata.ucdavis.edu/gadm/gadm4.1/shp/gadm41_THA_shp.zip,Tu-Su 08:00-17:00
อ้อมกอดเขา แคมป์ปิ้ง,19.2254063,98.8151548,matched,ChIJr7pTzvtz2jARfcPE4Wipe5g,5187642722,33.76680420238526,4.5,2,https://geodata.ucdavis.edu/gadm/gadm4.1/shp/gadm41_THA_shp.zip,NA
Taste Cafe,18.7951532,98.9630932,matched,ChIJUTG_o2Q62jARhwAExQdn8S4,5202076922,1.520000972514268,4.5,652,https://geodata.ucdavis.edu/gadm/gadm4.1/shp/gadm41_THA_shp.zip,Mo-Su 08:00-18:00
Painter Art Coffee,18.8145032,99.1371213,matched,ChIJYaq_1VAm2jARDigg7R0gxEI,5203405621,18.089591141487347,4.4,39,https://geodata.ucdavis.edu/gadm/gadm4.1/shp/gadm41_THA_shp.zip,NA
ฮิลล์คอฟฟ์ Hillkoff Learning Space,18.7609645,99.0181168,matched,ChIJvcOQUuEv2jARY4XHQZRhccQ,5207438911,25.37652667812766,4.8,280,https://geodata.ucdavis.edu/gadm/gadm4.1/shp/gadm41_THA_shp.zip,Mo-Su 08:00-17:30
ฟาร์มฮัก แม่โจ้ เชียงใหม่,18.9162056,99.0233006,matched,ChIJyZDYmygj2jARC_Q0x6Tee5I,5245145221,23.031114193591076,4,39,https://geodata.ucdavis.edu/gadm/gadm4.1/shp/gadm41_THA_shp.zip,NA
Gafre Café,19.9209032,99.2127676,matched,ChIJgVdXZWot1zARvoq40CE8e_g,5269068736,4.043241993379326,4.5,443,https://geodata.ucdavis.edu/gadm/gadm4.1/shp/gadm41_THA_shp.zip,NA
Cafe De Mountain,18.85438,98.700275,matched,ChIJ5RLXaPdE2jARs7gj9YuEs6o,5272840682,3.72355098360429,4.6,114,https://geodata.ucdavis.edu/gadm/gadm4.1/shp/gadm41_THA_shp.zip,NA
Chai cafe,19.3976078,98.9302215,matched,ChIJ4XmeC9am0DAREZeULG-BHRA,5273131423,13.786636288880048,4.8,295,https://geodata.ucdavis.edu/gadm/gadm4.1/shp/gadm41_THA_shp.zip,NA
Cocoa and steakhouse,18.7204807,99.0415259,matched,ChIJxyKjeQwv2jAR6xLcigbwS0A,5277373426,4.052406435149133,5,1,https://geodata.ucdavis.edu/gadm/gadm4.1/shp/gadm41_THA_shp.zip,NA
Smile House Coffee,18.7215067,99.0867502,matched,ChIJ15iAt9su2jARjbA1FKuH7A8,5307634590,41.07248697542679,4.9,7,https://geodata.ucdavis.edu/gadm/gadm4.1/shp/gadm41_THA_shp.zip,NA
Need Café,18.7189747,99.1789867,matched,ChIJ40I3AdIp2jAR6Q9cjH6UYJU,5314598744,10.555441630393876,4.4,572,https://geodata.ucdavis.edu/gadm/gadm4.1/shp/gadm41_THA_shp.zip,NA
DOPE​ CAFE​'IN,18.9108413,98.9216124,matched,ChIJSeFEkVk72jARXC_zVDtCi68,5327328688,2.311049619134996,4.8,25,https://geodata.ucdavis.edu/gadm/gadm4.1/shp/gadm41_THA_shp.zip,NA
Café Amazon,18.8462221,99.0792199,matched,ChIJ8byAB0Ak2jARX2CeFdJ4QzQ,5338188740,2.106439913593745,4.3,28,https://geodata.ucdavis.edu/gadm/gadm4.1/shp/gadm41_THA_shp.zip,NA
AQUILA COFFEE,19.6094789,98.9573718,matched,ChIJnwIN3ce70DAR2ApNw7Pc8oM,5362750627,17.77640163001907,4.3,10,https://geodata.ucdavis.edu/gadm/gadm4.1/shp/gadm41_THA_shp.zip,NA
Maiyom coffee,18.6648,98.835748,matched,ChIJP08z7zlL2jARo0NkSBC1_QQ,5372322922,25.34751367007464,4.6,9,https://geodata.ucdavis.edu/gadm/gadm4.1/shp/gadm41_THA_shp.zip,NA
ร้านสภากาแฟ,19.3414772,98.9600319,matched,ChIJHVbTaAAJ2jARbPdq5VP2zr8,5385230108,13.567175605822202,5,1,https://geodata.ucdavis.edu/gadm/gadm4.1/shp/gadm41_THA_shp.zip,08:00-17:00
Black Canyon รพ.กรุงเทพ เชียงใหม่,18.7891522,99.025565,matched,ChIJUZpXolol2jAR7KUNa0bWwbg,5405123023,20.843385987458763,4.3,129,https://geodata.ucdavis.edu/gadm/gadm4.1/shp/gadm41_THA_shp.zip,NA
บ้านนก Coffee,18.6343342,98.854722,matched,ChIJ21WXx_w12jARxmq5XfdaydU,5430635021,17.74390823783498,4.5,29,https://geodata.ucdavis.edu/gadm/gadm4.1/shp/gadm41_THA_shp.zip,NA
T-TEN Cafe & Restaurant,18.80712189999999,98.9567459,matched,ChIJPQzUu0I62jARLM_EUxxisnQ,5436937744,21.749130333815298,4.5,162,https://geodata.ucdavis.edu/gadm/gadm4.1/shp/gadm41_THA_shp.zip,NA
Rock and Loft Cafe & Resort,18.7203676,99.1533072,matched,ChIJISORcLIp2jARHIA9nH6IXBs,5444250499,13.664981553534966,4.1,323,https://geodata.ucdavis.edu/gadm/gadm4.1/shp/gadm41_THA_shp.zip,08:00-22:00
TRUCK COFFEE,18.5384798,98.8643863,matched,ChIJ-asoW1vK2zARk7dyC3dW6f4,5456990122,7.43140485429056,4.4,90,https://geodata.ucdavis.edu/gadm/gadm4.1/shp/gadm41_THA_shp.zip,NA
Lamdee Coffee,18.7808262,99.0394669,matched,ChIJuS0qhWEl2jARnUTAvKa86DY,5561163722,0.22853466950804727,4.4,90,https://www.facebook.com/coffeelamdeecm,Mo-Su 08:00-17:30
The Horse Barn Cafe,18.7465981,98.8863666,matched,ChIJK-SgPAQ32jAR22jqOKk6euY,5583840796,13.100746297196334,4.4,34,https://geodata.ucdavis.edu/gadm/gadm4.1/shp/gadm41_THA_shp.zip,NA
กาแฟสะพานแขวน @เขื่อนแม่กวง,18.9513678,99.1372435,matched,ChIJhV2hNNAh2jARGpKYYwDN6hw,5603454796,11.295977017266665,4,81,https://geodata.ucdavis.edu/gadm/gadm4.1/shp/gadm41_THA_shp.zip,NA
Chertam Coffee (กาแฟสดออบหลวง),18.2225575,98.4820191,matched,ChIJa7sAg6t12zARtk_zY7OenyU,5824770353,20.02396344291278,4.6,5,https://geodata.ucdavis.edu/gadm/gadm4.1/shp/gadm41_THA_shp.zip,NA
เชียงดาวคอฟฟี่ แอนด์ ที (Chiang Dao Coffee&Tea),19.4641314,98.9643618,matched,ChIJO3cH6zWk0DARoVB6UvLBEbk,5867147588,12.110100544909614,4.5,114,https://www.chaodoicoffee.com/,NA
Young Folk Bean & Brew,18.4151452,98.681412,matched,ChIJZQsNzqG62zARZF7PCv-kKI4,5925629983,26.71060313943512,4.6,313,https://geodata.ucdavis.edu/gadm/gadm4.1/shp/gadm41_THA_shp.zip,Mo-Su 07:30-17:30
The Barisotel by The Baristro,18.7976753,98.9679288,matched,ChIJdQvIxYk62jARrz-yRMao2h4,5933370530,4.759255101320939,4.7,676,https://geodata.ucdavis.edu/gadm/gadm4.1/shp/gadm41_THA_shp.zip,NA
Mainichi,18.7896926,98.9627033,matched,ChIJS7T7jHs62jARuTi3aStwuII,5933370532,34.46903425864821,4.6,92,https://geodata.ucdavis.edu/gadm/gadm4.1/shp/gadm41_THA_shp.zip,NA
Johoney Ice Cream,18.7891743,99.0108678,matched,ChIJDREvr6462jARu_3XwhiObgs,5950919672,21.85584593091232,4.7,422,https://geodata.ucdavis.edu/gadm/gadm4.1/shp/gadm41_THA_shp.zip,NA
Maetha Organic Cafe,18.5873564,99.2641512,matched,ChIJAbd7UOSB2TARmbgM2KrTC4Q,6021255324,4.038372671826258,4.5,93,https://geodata.ucdavis.edu/gadm/gadm4.1/shp/gadm41_THA_shp.zip,Mo-Su 10:00-17:00
Chan Coffee,19.0728338,98.3037113,matched,ChIJyTQ2-oOT2jARm-FvguI6zQk,6038344685,7.23899819167051,5,41,https://geodata.ucdavis.edu/gadm/gadm4.1/shp/gadm41_THA_shp.zip,NA
Issara coffee samoeng,18.8613215,98.7033092,matched,ChIJKbxekPVE2jARnY9S7FOzArc,6038521585,32.63021889589943,4.3,105,https://geodata.ucdavis.edu/gadm/gadm4.1/shp/gadm41_THA_shp.zip,NA
Between Cafe. บีทวีนคาเฟ่,18.9074375,98.9038125,matched,ChIJ5YGrwZQ-2jARd0G9gvuVftg,6062515601,3.12634322773201,4.5,188,https://geodata.ucdavis.edu/gadm/gadm4.1/shp/gadm41_THA_shp.zip,NA
VAN'S COFFEE,18.9194213,98.9144437,matched,ChIJvVE8GyA_2jARB8kuQKR-G3c,6062541948,41.36241402817104,4.6,37,https://geodata.ucdavis.edu/gadm/gadm4.1/shp/gadm41_THA_shp.zip,NA
Iron32 Hotel Bar and Bistro,18.7843524,99.0029055,matched,ChIJrccjlKg62jARzD3bSWaGM3U,6163744786,9.88127876631732,4.5,79,https://geodata.ucdavis.edu/gadm/gadm4.1/shp/gadm41_THA_shp.zip,NA
Nasheh coffee barn,19.2585856,98.9227474,matched,ChIJvVHmsbAL2jARXix_x0TkA7c,6183630217,5.524422001494025,5,2,https://geodata.ucdavis.edu/gadm/gadm4.1/shp/gadm41_THA_shp.zip,NA
มา เมืองวิน,18.6615267,98.6612676,matched,ChIJI54I_G5N2jARS7W-STft6u8,6194386786,29.889409126510618,4.9,47,https://geodata.ucdavis.edu/gadm/gadm4.1/shp/gadm41_THA_shp.zip,NA
แชมป์กาแฟ น้ำค้าง,19.0902375,98.8873697,matched,ChIJkx0_6pgT2jAR8KhU3Sa4v5w,6197390785,3.059961934758752,4.5,11,https://geodata.ucdavis.edu/gadm/gadm4.1/shp/gadm41_THA_shp.zip,NA
Cafe Leng Doi Pui,18.817005,98.884931,matched,ChIJM1LSw7M52jARrIDFBy_KcUU,6198545886,4.430025233405978,4.8,109,https://geodata.ucdavis.edu/gadm/gadm4.1/shp/gadm41_THA_shp.zip,NA
รื่นอารมย์ Ruen-A-Rom,18.7848421,98.9531884,matched,ChIJCSlYb3Y62jARDZxYBCdjZLo,6203233287,26.364583539334788,4.7,34,https://m.facebook.com/RuenARomchiangmai?ref=br_rs,Tu-Su 09:30-17:00
ซุ้มกาแฟริมจันทร์,19.0794149,98.3349931,matched,ChIJcUywx0KN2jARTwAZV1lqfWs,6207335685,0.730401110398825,5,4,https://geodata.ucdavis.edu/gadm/gadm4.1/shp/gadm41_THA_shp.zip,Mo-Su 09:00-18:00
Café Amazon คาเฟ่ อเมซอน ปตท.พรีเมี่ยมสารภี,18.6691788,99.0523635,matched,ChIJwV8-zs0t2jARlCv8B4S0HiE,6213176284,4.259490413301291,3.9,47,https://geodata.ucdavis.edu/gadm/gadm4.1/shp/gadm41_THA_shp.zip,NA
The Hill Tribe Coffee,18.7076324,98.2619887,matched,ChIJK24p2pzj2jARoLCXh9oVWDQ,6231644386,21.22874265076677,4.1,29,https://geodata.ucdavis.edu/gadm/gadm4.1/shp/gadm41_THA_shp.zip,NA
C.U. CORNER Bar and Cafe,18.7830365,98.9915995,matched,ChIJ_____-852jAR_45KSONU5Bo,6265198592,19.70825089950742,4.6,88,https://geodata.ucdavis.edu/gadm/gadm4.1/shp/gadm41_THA_shp.zip,NA
บ้านร้านเค้ก by นมแจ่มคาเฟ่,18.5115195,98.3587781,matched,ChIJ_aU2osEF2zARVNjc5clzVAI,6284137785,9.673152687687775,5,5,https://geodata.ucdavis.edu/gadm/gadm4.1/shp/gadm41_THA_shp.zip,NA
กาแฟหน้าวัด est.2018,18.5804839,98.95317,matched,ChIJeYiQJmbN2zAR7xgNQCjzoHc,6290385385,26.568823382941083,4.3,52,https://geodata.ucdavis.edu/gadm/gadm4.1/shp/gadm41_THA_shp.zip,NA
Doi Taeng Coffee,19.200855,98.7984362,matched,ChIJBSjdl_ly2jARUjNJCaF6PaE,6312527153,11.860570681551016,4.6,165,https://geodata.ucdavis.edu/gadm/gadm4.1/shp/gadm41_THA_shp.zip,NA
Doi Khom Cafe - กาแฟดอยกอม,18.7602722,98.9139268,matched,ChIJcdqP89Qx2jAR2pMlPcFUsHM,6326963011,37.39039276062377,5,29,https://geodata.ucdavis.edu/gadm/gadm4.1/shp/gadm41_THA_shp.zip,9:30-19:30
พุทธรักษา แกลอรี คอฟฟี,18.4952617,98.8147417,matched,ChIJH9zXVg222zARfn7a0xRCZy8,6330472004,13.302065636812372,4.7,53,https://geodata.ucdavis.edu/gadm/gadm4.1/shp/gadm41_THA_shp.zip,NA
Senses Cafe & restaurant,18.4869332,98.6722032,matched,ChIJ7zJpywKx2zARi5sJXvs1riE,6330472006,13.200088527209848,4.5,46,https://geodata.ucdavis.edu/gadm/gadm4.1/shp/gadm41_THA_shp.zip,NA
กาแฟสด @ริมแจ่ม,18.2768664,98.3849006,matched,ChIJTw6ReZAM2zAR2DluacYqTCs,6330520461,47.584840343901014,3.9,29,https://geodata.ucdavis.edu/gadm/gadm4.1/shp/gadm41_THA_shp.zip,NA
SHADE GROW COFFEE,18.9230541,99.3338959,matched,ChIJfUpo_hmN2TARRk3qERzemvA,6371396585,15.93890039676819,4.8,24,https://geodata.ucdavis.edu/gadm/gadm4.1/shp/gadm41_THA_shp.zip,24/7
Khim's Kitchen,18.6345767,98.8561435,matched,ChIJYXnaG0E12jAR51QoP9HdibQ,6379770685,5.502185740114108,4.9,36,https://geodata.ucdavis.edu/gadm/gadm4.1/shp/gadm41_THA_shp.zip,NA
Thong Na Coffee,18.6462401,98.8791367,matched,ChIJF47cowY12jARTfnZ_yzN094,6379770785,7.539285214515197,4.7,70,https://geodata.ucdavis.edu/gadm/gadm4.1/shp/gadm41_THA_shp.zip,"Tu, Th-Su 09:00-17:00; We 09:00-15:00"
Green Moon Cafe & Bistro,18.7276554,99.1814117,matched,ChIJF7-siGIp2jARXL6O46cCL8o,6388546807,5.953915924159578,4.8,300,https://geodata.ucdavis.edu/gadm/gadm4.1/shp/gadm41_THA_shp.zip,Tu-Su 10:00-19:00
จวน กิ๋น จา : chuankincha,18.8073115,98.9575847,matched,ChIJv04GtUI62jARd-GvhC0Zp_Y,6388713888,19.147390826966554,5,1,https://geodata.ucdavis.edu/gadm/gadm4.1/shp/gadm41_THA_shp.zip,NA
Coffee hut,18.5385331,98.5474956,matched,ChIJ6bkCp8Gr2zAR15AjblMhCB4,6615843787,20.748514454663244,4.6,318,https://geodata.ucdavis.edu/gadm/gadm4.1/shp/gadm41_THA_shp.zip,NA
Rimthan Coffee อนุรักษ์พันธุ์ปลา,18.541052,98.5465493,matched,ChIJlVHUa2qr2zARppTzxq7YoPA,6615843890,24.45633338521202,4.6,12,https://geodata.ucdavis.edu/gadm/gadm4.1/shp/gadm41_THA_shp.zip,NA
Maechaem White house,18.5003772,98.3624481,matched,ChIJIXJpFAAF2zARmAP0aMf66R0,6616699485,21.380615129219564,5,1,https://geodata.ucdavis.edu/gadm/gadm4.1/shp/gadm41_THA_shp.zip,NA
Tn coffee club,18.7453773,98.2143969,matched,ChIJP4wjc6Lm2jARFzNk_5C8Udc,6618613102,22.028293857914367,4.8,6,https://geodata.ucdavis.edu/gadm/gadm4.1/shp/gadm41_THA_shp.zip,NA
พยัคฆ์คอฟฟี่สาขาบ้านช่างเคิ่งบน,18.500966,98.361636,matched,ChIJS8M6BwAF2zARdPZb6NCmcu0,6618614597,27.204639879447782,NA,NA,https://geodata.ucdavis.edu/gadm/gadm4.1/shp/gadm41_THA_shp.zip,NA
Makhampom Art Space Chiang Dao,19.3660007,98.9764898,matched,ChIJzaxVQHSn0DARAWM5fVPxdPs,6647609510,7.835936592764234,4.6,111,https://geodata.ucdavis.edu/gadm/gadm4.1/shp/gadm41_THA_shp.zip,NA
Cafe de Kemrex,18.7479701,98.9476445,matched,ChIJ06MuDOgw2jARz28Ffcf_Mu4,6787899013,3.1230183372239098,4.2,118,https://geodata.ucdavis.edu/gadm/gadm4.1/shp/gadm41_THA_shp.zip,NA
Charin Pie,18.7949181,98.9682072,matched,ChIJU2aso2I62jARBtNgMlnRtKM,6788691585,12.537790568256703,4.5,1362,https://geodata.ucdavis.edu/gadm/gadm4.1/shp/gadm41_THA_shp.zip,Mo off; Tu-Su 08:00-16:00
Pati non โรงคั่วกาแฟบ้านแม่กลางหลวง,18.5381409,98.5468446,matched,ChIJoxwu5Sir2zARPcRfGfwa2uA,6796226397,11.788877421519866,4.6,168,https://geodata.ucdavis.edu/gadm/gadm4.1/shp/gadm41_THA_shp.zip,NA
Villa de View Cafe,19.406431,98.9253486,matched,ChIJi3ffTQCn0DARIO3cCuMjnoU,6859889323,11.758582432748995,4.8,12,https://geodata.ucdavis.edu/gadm/gadm4.1/shp/gadm41_THA_shp.zip,NA
Chomdoi Coffee,19.441284,98.9662103,matched,ChIJ9Uxd2IKn0DARzJk7YhGqmyM,6862640196,15.683875287358445,4,1,https://geodata.ucdavis.edu/gadm/gadm4.1/shp/gadm41_THA_shp.zip,NA
The Place with No Name,19.3667053,98.929181,matched,ChIJZ-rQ0hKn0DARZ98WttE09x8,6875120271,17.648187282573716,5,19,https://geodata.ucdavis.edu/gadm/gadm4.1/shp/gadm41_THA_shp.zip,NA
Pearly​ Tea​,18.4358685,98.68757920000002,matched,ChIJbw3CeMix2zARBhZr-OS-vu8,6881655355,12.736252570579584,5,4,https://geodata.ucdavis.edu/gadm/gadm4.1/shp/gadm41_THA_shp.zip,NA
Café Amazon,18.5540991,98.848622,matched,ChIJK-aki5fL2zARSUSN1HdcSuA,6881872755,3.669975483811053,4.4,115,https://geodata.ucdavis.edu/gadm/gadm4.1/shp/gadm41_THA_shp.zip,NA
Black Bears Cafe Chiangdao,19.3946984,98.9578116,matched,ChIJ96hzhfan0DARd1sJAhnjSZo,6907787585,24.06629806091038,4.1,251,https://geodata.ucdavis.edu/gadm/gadm4.1/shp/gadm41_THA_shp.zip,NA
Coffee In The Garden,19.1167359,98.7299794,matched,ChIJd1IAc4xu2jARGRK1wXtw1VA,6950957217,10.467763058509583,4.5,90,https://geodata.ucdavis.edu/gadm/gadm4.1/shp/gadm41_THA_shp.zip,NA
Yippi Cha Kadnad Inter (Inter flea market)|ยิปปี้ ชา กาดนัดอินเตอร์,19.9218926,99.2190207,matched,ChIJxfbAovkt1zARbmcVQjeriRg,7023601394,5.852900084915664,5,1,https://geodata.ucdavis.edu/gadm/gadm4.1/shp/gadm41_THA_shp.zip,NA
ฮักโฮม คาเฟ่ - Hug Home Cafe',19.0923966,98.858259,matched,ChIJuyZqhqgT2jARZj9N2LpZTv4,7103957585,7.009724758400861,4.9,163,https://geodata.ucdavis.edu/gadm/gadm4.1/shp/gadm41_THA_shp.zip,NA
Jungle De Cafe กื๊ดช้าง,19.219749,98.8464812,matched,ChIJy3C7ZFEN2jARAxOVZejKu7c,7107398583,28.3318078366293,4.3,442,https://geodata.ucdavis.edu/gadm/gadm4.1/shp/gadm41_THA_shp.zip,Mo-Su 08:30-17:30
The Govinda Farm,19.027842,98.8691222,matched,ChIJQSIoWuMU2jARujVMVjuksOs,7108411315,3.1206579497169686,4.6,40,https://geodata.ucdavis.edu/gadm/gadm4.1/shp/gadm41_THA_shp.zip,NA
Slope motion studio&cafe,18.7911763,98.9531191,matched,ChIJD9e3c3E62jARoHHyKP045o8,7131241185,29.870209133679506,4.6,77,https://geodata.ucdavis.edu/gadm/gadm4.1/shp/gadm41_THA_shp.zip,NA
Midrak coffee * มิตรรัก คอฟฟี่*,18.6808152,99.0424802,matched,ChIJT9Mk2sUt2jARYVYM5u7ksKA,7142705125,13.65722306338172,5,6,https://geodata.ucdavis.edu/gadm/gadm4.1/shp/gadm41_THA_shp.zip,NA
อบอุ่น Coffee อินทนนท์,18.54012389999999,98.5491148,matched,ChIJs3qyDQCr2zAR_tO4nTq0IGI,7157162914,26.76300976405678,NA,NA,https://geodata.ucdavis.edu/gadm/gadm4.1/shp/gadm41_THA_shp.zip,NA
Mae Klang Luang Coffee House,18.5393038,98.5475608,matched,ChIJaWy1VcGr2zAR37iyBvcFur4,7157162916,32.007352734035244,4.6,119,https://geodata.ucdavis.edu/gadm/gadm4.1/shp/gadm41_THA_shp.zip,NA
ร้านกาแฟ พาตินนท์ บ้านแม่กลางหลวง ดอยอินทนนท์,18.5400226,98.5472097,matched,ChIJn-RsgQer2zARcovRzqnio2w,7157162918,46.964881348809435,4.5,123,https://geodata.ucdavis.edu/gadm/gadm4.1/shp/gadm41_THA_shp.zip,NA
咖啡店,19.7243598,99.0996579,matched,ChIJrUiJTXbJ0DARMuZ2XgOsFKc,7170845485,4.237874579699396,5,6,https://geodata.ucdavis.edu/gadm/gadm4.1/shp/gadm41_THA_shp.zip,NA
Care coffee,19.0876193,98.9015152,matched,ChIJRyGwPsYT2jARtqm5zwkvYB8,7171992285,15.709861047981587,4.5,61,https://geodata.ucdavis.edu/gadm/gadm4.1/shp/gadm41_THA_shp.zip,NA
ตถตา คาเฟ่ - TaTaTa café,18.9415287,98.9286279,matched,ChIJZaNwP9k92jARP_NJPD-PlW8,7183624485,3.4324934612945284,4.8,164,https://geodata.ucdavis.edu/gadm/gadm4.1/shp/gadm41_THA_shp.zip,Fr-We 09:00-17:00
Maison de la fleur,18.77244589999999,98.8620979,matched,ChIJaa03XU4x2jARyJ-dyqiziO0,7189617385,29.745762730884667,5,14,https://geodata.ucdavis.edu/gadm/gadm4.1/shp/gadm41_THA_shp.zip,NA
Rabiang View Maekampong,18.8656033,99.3555487,matched,ChIJhTKWD_yN2TARGrZuYhwQGC4,7221644985,7.298801505119867,4.6,1396,https://www.facebook.com/ระเบียงวิวแม่กำปอง-329392457823396/,Mo-Su 08:00-17:00
กาแฟสวนสน coffee&rest,18.1554182,98.3860351,matched,ChIJq3B-riFp2zAR3FCRMuJOlo0,7249039589,16.7934827492426,4.6,65,https://geodata.ucdavis.edu/gadm/gadm4.1/shp/gadm41_THA_shp.zip,NA
ฮิมสน คาเฟ่,18.1555203,98.3861477,matched,ChIJT9nv4epz2zARPKB1_P-IST4,7249086185,6.077939158028281,4.3,4,https://geodata.ucdavis.edu/gadm/gadm4.1/shp/gadm41_THA_shp.zip,Mo-Su 07:00-17:00
Hinoki Coffee,19.6559199,99.1497254,matched,ChIJr8e27Ua10DARrzfn0aXN_R0,7273867615,28.36440495718323,4.5,30,https://geodata.ucdavis.edu/gadm/gadm4.1/shp/gadm41_THA_shp.zip,NA
ชาล้านถัง ชาแฟริมทาง,19.7232254,99.1409828,matched,ChIJnR2lBADL0DARlC2rezV7Edw,7274163627,48.02232089513648,NA,NA,https://geodata.ucdavis.edu/gadm/gadm4.1/shp/gadm41_THA_shp.zip,NA
Nasama's garden,18.8680886,99.3312003,matched,ChIJa5tQs9GN2TARpP6PRsKCWF8,7282613488,42.1068471940155,4.2,15,https://geodata.ucdavis.edu/gadm/gadm4.1/shp/gadm41_THA_shp.zip,NA
Inthanon Coffee Road,18.4182375,98.6776546,matched,ChIJr-9Do6C62zARHIaArvEBBgA,7284389586,6.088641911187573,4.7,43,https://geodata.ucdavis.edu/gadm/gadm4.1/shp/gadm41_THA_shp.zip,NA
Riverside อมขูด กาแฟสด,18.2773154,98.3834423,matched,ChIJYcEzZx8N2zAR5QX-YWssl_Q,7294301985,34.655990038666765,4.4,18,https://geodata.ucdavis.edu/gadm/gadm4.1/shp/gadm41_THA_shp.zip,NA
Banlek coffee,19.8631038,99.0516682,matched,ChIJqTM8ORrP0DARzSJeIV0edc8,7393925563,4.972988413665338,5,3,https://geodata.ucdavis.edu/gadm/gadm4.1/shp/gadm41_THA_shp.zip,NA
Ban Lung Ma Coffee & Cafe,19.7509174,99.3624353,matched,ChIJ8aYfFMw31zARe_pnCEs1cvk,7553078591,9.185941970205148,4.6,233,https://geodata.ucdavis.edu/gadm/gadm4.1/shp/gadm41_THA_shp.zip,NA
กาแฟสดรักจัง,19.251223800000002,98.6384095,matched,ChIJA8fi_RV62jARHyfWNlSM_us,7726168885,4.225699641844121,4.2,95,https://geodata.ucdavis.edu/gadm/gadm4.1/shp/gadm41_THA_shp.zip,NA
Rom-D Brunch & Coffee,18.7949243,98.9818564,matched,ChIJwROrXJA62jARJJ4OWg_g_04,7794425963,5.067214132476981,4.9,46,https://geodata.ucdavis.edu/gadm/gadm4.1/shp/gadm41_THA_shp.zip,Mo-Sa 07:00-19:00; Su 07:00-17:00
Papa's Home & Rabbit Cafe',18.4506796,98.7110471,matched,ChIJRzhL6PCw2zARyTt7hCXhDbY,7889643385,24.5896822921257,4.4,220,https://geodata.ucdavis.edu/gadm/gadm4.1/shp/gadm41_THA_shp.zip,Mo-Su 07:00-20:00
異域孤軍故事屋/雲之南咖啡,19.7223961,99.0966807,matched,ChIJbzhoqwPJ0DARGWrkCmm-uPU,7921952451,14.707636493940418,4.9,19,https://geodata.ucdavis.edu/gadm/gadm4.1/shp/gadm41_THA_shp.zip,NA
View Suai Coffee,18.8412263,98.901993,matched,ChIJBQ0AKQ052jARW3vgNgM2hY8,7933208877,5.07702315856722,4.6,276,https://geodata.ucdavis.edu/gadm/gadm4.1/shp/gadm41_THA_shp.zip,NA
หนองสามขา,18.9059836,99.036152,matched,ChIJabK3ZAAj2jAR30R5kaDhetA,7967799894,41.376098001505085,5,2,https://geodata.ucdavis.edu/gadm/gadm4.1/shp/gadm41_THA_shp.zip,NA
Inthanin @ปั๊มน้ำมันบางจาก ดอยหล่อ เชียงใหม่,18.4516031,98.7521912,matched,ChIJmfWLfnC32zAR1vZlxvM_aWE,8039665341,46.34423955401201,4.3,13,https://geodata.ucdavis.edu/gadm/gadm4.1/shp/gadm41_THA_shp.zip,NA
Coffee A Cup,18.5419133,98.523105,matched,ChIJo15oWUSr2zARx8y5L_MA4Oc,8169236778,10.05431136602579,4,7,https://geodata.ucdavis.edu/gadm/gadm4.1/shp/gadm41_THA_shp.zip,NA
อินท์ไหล่เขา,18.5460227,98.5216977,matched,ChIJPRZDmfCr2zARrb3q7Sn-S1w,8169808436,11.409892506387916,4.6,321,https://geodata.ucdavis.edu/gadm/gadm4.1/shp/gadm41_THA_shp.zip,NA
บุหลัน Bu - Lhaan cafe' and Thai Dessert,19.9243016,99.2187527,matched,ChIJBwkaa4Yt1zARZAnsVnh9ayM,8209596894,40.970438168849114,4.5,38,https://geodata.ucdavis.edu/gadm/gadm4.1/shp/gadm41_THA_shp.zip,NA
กาแฟหน้าวัด est.2019 สาขาหน้าวัดสบปะ,18.5878571,98.9565131,matched,ChIJp6sKOPzN2zAR05Oylzn4rjs,8253470417,0.5169670184145478,4.4,203,https://geodata.ucdavis.edu/gadm/gadm4.1/shp/gadm41_THA_shp.zip,NA
บ้านเหนือเมฆ Pizza&coffee ทางขึ้นรีสอร์ท,19.2837712,98.9681301,matched,ChIJoc38Tt8J2jAR3gEa1bZlwrg,8375535046,38.21085132135785,4.7,56,https://geodata.ucdavis.edu/gadm/gadm4.1/shp/gadm41_THA_shp.zip,NA
ฮักเมืองคอง คาเฟ่ (Hugmueangkhong Café),19.378996,98.721223,matched,ChIJ1c_oRlOd0DARQ3Atts_zm6Q,8568750910,16.69187684366942,4.5,50,https://geodata.ucdavis.edu/gadm/gadm4.1/shp/gadm41_THA_shp.zip,Mo-Su 08:00-17:00
ทุ่งนากาแฟ at เชียงใหม่,18.7324623,99.1957067,matched,ChIJLYBAK4SH2TARKlfGArxArdQ,8631974048,31.788768708900562,4.2,138,https://geodata.ucdavis.edu/gadm/gadm4.1/shp/gadm41_THA_shp.zip,NA
Naive Cafe,18.7419796,99.2153589,matched,ChIJ5-Mgib6H2TARz8PNHxlLNGc,8649726664,34.851315359286716,4.6,39,https://geodata.ucdavis.edu/gadm/gadm4.1/shp/gadm41_THA_shp.zip,NA
Mingmitr Coffee,18.7998565,99.0128804,matched,ChIJM4cz07Q62jARfVEKXSBE42o,8712823742,5.1437486090495685,4.5,483,https://geodata.ucdavis.edu/gadm/gadm4.1/shp/gadm41_THA_shp.zip,NA
Forest Bake,18.7922558,99.0048844,matched,ChIJ35MC27E62jARhFKsJ0G99SU,8805729717,26.856426895948058,4.2,976,https://geodata.ucdavis.edu/gadm/gadm4.1/shp/gadm41_THA_shp.zip,Mo-Su 08:00-17:00
Innocent Cafe,18.84669,99.1469432,matched,ChIJMz9Fi8gn2jARZEmhlHB71jY,8845953280,6.850010772824936,4.7,44,https://geodata.ucdavis.edu/gadm/gadm4.1/shp/gadm41_THA_shp.zip,Mo-Su 08:00-17:00
Srinehru Schoo,18.8411233,98.905582,matched,ChIJI618DQA52jAR3xANF5dT8Ds,8863648117,36.33568594773592,4.9,7,https://geodata.ucdavis.edu/gadm/gadm4.1/shp/gadm41_THA_shp.zip,NA
หมูน้อย Coffee & Bar @กิ่วดอย 7 พับ,18.8055955,98.8101293,matched,ChIJWbZUKEtH2jARb9c435ppcsk,8892200306,29.586078095583524,4.6,31,https://geodata.ucdavis.edu/gadm/gadm4.1/shp/gadm41_THA_shp.zip,"Mo,Tu,Th,Fr 07:00-20:00; Sa-Su 06:30-20:00"
eu.ca coffee slowbar,19.1320031,99.0248303,matched,ChIJy_bXO0Ib2jARrlWQb5vuCtg,8903781758,30.524102433672894,5,7,https://geodata.ucdavis.edu/gadm/gadm4.1/shp/gadm41_THA_shp.zip,NA
Kramfeine,19.131923,99.024443,matched,ChIJU-fLyxkb2jARK5x3iMWBtH8,8903781761,3.406430460252528,4.9,329,https://geodata.ucdavis.edu/gadm/gadm4.1/shp/gadm41_THA_shp.zip,NA
Wiang Haeng Coffee,19.55754109999999,98.6383754,matched,ChIJS0UkrPSP0DARHiQ3YedoDGQ,8930931800,4.281134616734679,4.3,95,https://geodata.ucdavis.edu/gadm/gadm4.1/shp/gadm41_THA_shp.zip,NA
Lee Cafe' Chiangmai,18.733255,98.9388698,matched,ChIJFRieAScx2jARB_VxQRN46Xc,8972417444,7.531664080518337,4.6,466,https://geodata.ucdavis.edu/gadm/gadm4.1/shp/gadm41_THA_shp.zip,Mo-Su 07:30-17:30
Baan Ing Dao Coffee,18.8657723,99.3555896,matched,ChIJKZzYKW-N2TARBNz1tsjWsQc,8987752967,5.359924334703855,4.7,339,https://www.facebook.com/ingdaomkp,Mo-Su 08:00-17:30
เฮือนแม่หลวง คอฟฟี่,18.8517127,99.2711738,matched,ChIJ_xZlOxiJ2TARMCe-s5Bkil4,9052831610,4.579368698031009,4.6,28,https://geodata.ucdavis.edu/gadm/gadm4.1/shp/gadm41_THA_shp.zip,NA
Wake Cup,18.990858,98.9784164,matched,ChIJi-nFX8gX2jARW8Re27mH2Jo,9266719212,32.01211766278018,4.3,33,https://geodata.ucdavis.edu/gadm/gadm4.1/shp/gadm41_THA_shp.zip,NA
112 Cafe at Home,18.9883038,99.1271549,matched,ChIJ-_UZxwkf2jARwDecTeCBoOg,9266726231,16.73296729947728,NA,NA,https://geodata.ucdavis.edu/gadm/gadm4.1/shp/gadm41_THA_shp.zip,NA
Café Amazon,18.4358921,98.6877593,matched,ChIJ38ZEVWmw2zARy__Cp2G8FXY,9290564623,1.4479256571766403,4.2,96,https://geodata.ucdavis.edu/gadm/gadm4.1/shp/gadm41_THA_shp.zip,NA
Café Amazon,18.4996657,98.3639597,matched,ChIJAZalt2kF2zARiLKzktWTr2Y,9290602348,1.2482390090172641,4.3,45,https://geodata.ucdavis.edu/gadm/gadm4.1/shp/gadm41_THA_shp.zip,NA
เจ้าดอยกาแฟ ม่อนแจ่ม Jao Doi coffee,18.9361984,98.8185963,matched,ChIJdTfAdwBB2jARqecdwBFgfWs,9314302717,8.643953965157301,NA,NA,https://m.facebook.com/MON-ING-DAO-CAF%C3%89-101605994642660/,Mo-Su 08:30-18:00
Café Amazon,18.8483554,98.970809,matched,ChIJTz6tSAo72jARDg9apXuIuFA,9316918017,11.763917001328752,3.9,32,https://geodata.ucdavis.edu/gadm/gadm4.1/shp/gadm41_THA_shp.zip,Mo-Su 06:00-18:00
Hi cafe & bistro (ไฮ คาเฟ่ แอนด์ บิสโทร)​,18.8985652,98.8539163,matched,ChIJsSKdWV4_2jARAj_I5tJHh-w,9336345917,13.602118310637598,4.9,273,https://geodata.ucdavis.edu/gadm/gadm4.1/shp/gadm41_THA_shp.zip,NA
Palore Coffee & Tea House,18.9286615,99.3422705,matched,ChIJO5MKmVqN2TARAQLY9AEnh9w,9348298817,4.345364899308533,4.5,328,https://geodata.ucdavis.edu/gadm/gadm4.1/shp/gadm41_THA_shp.zip,NA
สมศรี มีกาแฟ Somsee mee kafe,18.9228044,99.3183608,matched,ChIJ6Q0IiIiN2TARL_3D7uV0vTk,9366649140,21.081172516841157,4.4,218,https://geodata.ucdavis.edu/gadm/gadm4.1/shp/gadm41_THA_shp.zip,NA
กาแฟสด ห้วยน้ำดัง,19.3133253,98.6043971,matched,ChIJL83_txx52jARFQAs0AfZigs,9379309271,16.756190073114432,4.4,7,https://geodata.ucdavis.edu/gadm/gadm4.1/shp/gadm41_THA_shp.zip,NA
Formula Hmong Coffee,18.8421018,98.9057428,matched,ChIJjXqJ-7Q52jARhS3JEgHF26I,9404324017,10.444804451718655,4.6,31,https://www.facebook.com/Narong137.coffee/,Mo-Su 06:00-17:00
ใจ่ว่าง ม้งคอฟฟี่ hmong coffee,18.9536204,98.438908,matched,ChIJIZhvF7j12jAReYUhqBnVBtc,9422147918,21.50973010928922,4.9,17,https://geodata.ucdavis.edu/gadm/gadm4.1/shp/gadm41_THA_shp.zip,NA
ร้านทรัพย์ปัน,19.9657842,99.155978,matched,ChIJBwoR_UfT0DARcfrDfc0T7G0,9438531917,14.568668802008677,4.7,20,https://geodata.ucdavis.edu/gadm/gadm4.1/shp/gadm41_THA_shp.zip,Mo-Su 08:30-16:00
M.Kafee,19.9665126,99.1552715,matched,ChIJCylXLwDT0DARkJAFKe08BI8,9438702819,8.345449178114901,NA,NA,https://geodata.ucdavis.edu/gadm/gadm4.1/shp/gadm41_THA_shp.zip,NA
Royal Project cafe & souvenir store,19.9020769,99.0398735,matched,ChIJQVd9s2TP0DARzYW54QNbIT8,9441812217,12.58815454599043,3.7,3,https://geodata.ucdavis.edu/gadm/gadm4.1/shp/gadm41_THA_shp.zip,Mo-Su 08:00-17:00
Irin cafe',19.5916364,98.9607272,matched,ChIJB3CmzKi70DARdgiWblWUehE,9443760620,14.955454686622378,5,2,https://geodata.ucdavis.edu/gadm/gadm4.1/shp/gadm41_THA_shp.zip,Mo-Su 10:00-22:00
TIGER MOTHER CAFE,18.52502,98.853297,matched,ChIJ8ZotDbTL2zARjqDQZmR9kng,9459523417,10.844260927812849,4.4,181,https://geodata.ucdavis.edu/gadm/gadm4.1/shp/gadm41_THA_shp.zip,Mo-Su 08:00-17:00
Jungle De Cafe in Baan Tawai,18.68046559999999,98.9599858,matched,ChIJNYmfkqUz2jAROAeQIevem3k,9488787350,0.3903819405375283,4.4,1860,https://geodata.ucdavis.edu/gadm/gadm4.1/shp/gadm41_THA_shp.zip,NA
Matane Café,18.8530701,99.0911902,matched,ChIJb7LVJ-on2jARaCJw3mj77Ms,9500735168,40.18915532586789,4.8,44,https://geodata.ucdavis.edu/gadm/gadm4.1/shp/gadm41_THA_shp.zip,NA
Akha Ama Living Factory,18.9444075,98.9185954,matched,ChIJtalF83M-2jARvs1kVRVBw8s,9531353917,19.364063866323367,4.6,564,https://geodata.ucdavis.edu/gadm/gadm4.1/shp/gadm41_THA_shp.zip,NA
ต้นกล้าคอฟฟี่ ไร่ต้นกล้ากาแฟ,19.0601081,99.3644638,matched,ChIJf4gmaIrx2TAR0-N5Do-swTw,9585662055,17.357964669898795,4.6,78,https://geodata.ucdavis.edu/gadm/gadm4.1/shp/gadm41_THA_shp.zip,NA
นิยมดื่ม กาแฟเมืองฝาง,19.7929849,99.167381,matched,ChIJCzBWHT_L0DARyttly93WCSE,9620703037,12.878287889390776,5,3,https://geodata.ucdavis.edu/gadm/gadm4.1/shp/gadm41_THA_shp.zip,NA
หนุน Farm & Cafe',19.9126139,99.1914083,matched,ChIJo8ThhY8t1zARYHyWHb5cZYE,9620703043,5.115052568494184,4.7,36,https://geodata.ucdavis.edu/gadm/gadm4.1/shp/gadm41_THA_shp.zip,NA
Hop Chafe แยกกองทราย,18.7270686,99.0240668,matched,ChIJ_cxcNRUv2jAR1f4Jh3sNC24,9626362481,36.322586785943024,4.9,7,https://geodata.ucdavis.edu/gadm/gadm4.1/shp/gadm41_THA_shp.zip,NA
Rabaing Coffee,18.6743808,98.9812263,matched,ChIJN3D7wHsz2jARPpRGYibV12I,9626387824,2.3041086058274054,4.3,22,https://geodata.ucdavis.edu/gadm/gadm4.1/shp/gadm41_THA_shp.zip,NA
Nermu Coffee,19.1148996,98.710451,matched,ChIJI_0qdIBv2jAR7U0lSxOXux4,9694258389,4.876071878049441,4.9,111,https://geodata.ucdavis.edu/gadm/gadm4.1/shp/gadm41_THA_shp.zip,NA
Hmong Doi Pui Family Coffee,18.8157579,98.8848673,matched,ChIJnfIF8bM52jARFSP102z590k,9716938717,40.06386167495526,4.7,226,https://geodata.ucdavis.edu/gadm/gadm4.1/shp/gadm41_THA_shp.zip,NA
Honey Box,18.8692092,99.1273759,matched,ChIJ2VqeYYch2jARwip_2Ya7Flg,9737537217,23.89780813080136,4.8,127,https://geodata.ucdavis.edu/gadm/gadm4.1/shp/gadm41_THA_shp.zip,NA
Pink Doi Cafe,18.9194655,99.3586916,matched,ChIJ275EJRGN2TARg2bDsddm1HI,9823048889,2.9512956949533935,4.6,105,https://geodata.ucdavis.edu/gadm/gadm4.1/shp/gadm41_THA_shp.zip,NA
Black Cat Cafe,18.7402667,99.2175892,matched,ChIJwykSVQCH2TARVDW905QimFw,9824686417,15.98731592825557,NA,NA,https://geodata.ucdavis.edu/gadm/gadm4.1/shp/gadm41_THA_shp.zip,NA
Lazy Man Coffee,18.6809536,98.5500161,matched,ChIJKfvrKkBU2jARY9nrOr56iyc,9830593917,7.494190798573025,4.8,53,https://geodata.ucdavis.edu/gadm/gadm4.1/shp/gadm41_THA_shp.zip,NA
Brick Box Pool Villa & Café,18.9070752,99.23937610000002,matched,ChIJZ9DTClmL2TARlCEFyU7uG0I,9864949284,6.883780591286124,4.4,181,https://geodata.ucdavis.edu/gadm/gadm4.1/shp/gadm41_THA_shp.zip,NA
D Milk ไมโลดิบ เจ้าต้นตำหรับ,18.8029921,98.9811451,matched,ChIJW4xOg3o62jAR2fDc9l-SS8Q,9872146918,6.7769465492738465,4.4,5,https://geodata.ucdavis.edu/gadm/gadm4.1/shp/gadm41_THA_shp.zip,10:00-21:30
The Chiang Mai Cream Tea House,18.9317086,98.9294327,matched,ChIJLa0TsNY92jARPsshgQxB72c,9872648917,9.787383160413892,4.7,58,https://geodata.ucdavis.edu/gadm/gadm4.1/shp/gadm41_THA_shp.zip,NA
Rab-a-bit,18.9442909,98.9279754,matched,ChIJC3_uDQA92jARwB98wAXei_w,9873593517,1.183351010438285,4.8,340,https://geodata.ucdavis.edu/gadm/gadm4.1/shp/gadm41_THA_shp.zip,NA
Espresso Martini CNX,18.4283754,98.6813849,matched,ChIJT7vQNPSx2zARFfqMrQpv2ws,9929174717,21.982259058693888,4.7,183,https://geodata.ucdavis.edu/gadm/gadm4.1/shp/gadm41_THA_shp.zip,NA
กาแฟเกษตร มช.,18.8386809,98.8966496,matched,ChIJ6flBOQw52jARH5lP1EVq-7Q,9988555849,8.214955312523875,4.4,5,https://geodata.ucdavis.edu/gadm/gadm4.1/shp/gadm41_THA_shp.zip,NA
Small Cafe,18.8386649,98.8966486,matched,ChIJjRzjqw452jARw4wXuyswWJM,9988555850,7.202869333902967,4.8,215,https://geodata.ucdavis.edu/gadm/gadm4.1/shp/gadm41_THA_shp.zip,NA
Forte Coffee,18.721895,99.1098544,matched,ChIJcSu6BoYp2jARvx70Tevxbps,10095031626,15.796049845751863,4.4,121,https://geodata.ucdavis.edu/gadm/gadm4.1/shp/gadm41_THA_shp.zip,NA
THE​ STOVE,18.886025,99.2646001,matched,ChIJ3RsjecCL2TARX8ZxbKTdMr0,10125386638,14.80229466869891,4.7,125,https://geodata.ucdavis.edu/gadm/gadm4.1/shp/gadm41_THA_shp.zip,NA
Elefin Farm & Cafe,18.8038339,98.8196672,matched,ChIJKY9U2bpH2jARj321DKKXkjI,10127777105,10.500980102605048,4.4,1433,https://m.facebook.com/elefinfarmandcafe,NA
Boba Coffee shop ร้านกาแฟโบบา,18.8520481,98.9677576,matched,ChIJQ85nbgA72jAR6ZMZbrRS7mg,10206671832,31.318183800737838,4.5,2,https://geodata.ucdavis.edu/gadm/gadm4.1/shp/gadm41_THA_shp.zip,NA
Little Blue House Chiangmai,18.7424003,99.2204937,matched,ChIJ9yjPsniH2TARZUbeSLC44mE,10237513509,36.11596264225416,4.8,13,https://geodata.ucdavis.edu/gadm/gadm4.1/shp/gadm41_THA_shp.zip,NA
The Cocoa Tree Garden,18.7395394,99.2229228,matched,ChIJg_gUKWuH2TARtjVuauNhYqE,10237513609,48.01274894847554,4.9,66,https://geodata.ucdavis.edu/gadm/gadm4.1/shp/gadm41_THA_shp.zip,Mo-Su 09:00-16:00
Khun Pho Coffee and House,18.3788456,98.5321136,matched,ChIJdddEMUOn2zARh2q7cj7MCss,10245741610,41.16270692880152,4.8,48,https://geodata.ucdavis.edu/gadm/gadm4.1/shp/gadm41_THA_shp.zip,NA
Aiyana Café,18.5401586,98.5432551,matched,ChIJE0x5yPOr2zAR4t20Th51lhw,10281519290,11.372127408336201,4.9,11,https://www.facebook.com/aiyanacafedoiinthanon,Mo-Su 09:00-17:30
The Garden Inthanon Cafe',18.5431544,98.52286,matched,ChIJnTtZ3Pax2zARq614wsTj5nw,10307857609,18.7782334156059,5,63,https://geodata.ucdavis.edu/gadm/gadm4.1/shp/gadm41_THA_shp.zip,Mo-Su 08:00-18:00
ร้านฅนเมืองแหง,19.5804534,98.6147839,matched,ChIJ6eC0ApeP0DARbz9ZKdG-Cek,10312581420,41.42615624533789,4.6,37,https://geodata.ucdavis.edu/gadm/gadm4.1/shp/gadm41_THA_shp.zip,NA
COMPLEMENT,19.9255034,99.196504,matched,ChIJm6spnsEt1zARTPExeeP-uaM,10569706509,9.03339315602161,4.6,174,https://geodata.ucdavis.edu/gadm/gadm4.1/shp/gadm41_THA_shp.zip,NA
THE VOLCANO หลัง มช.,18.7922199,98.9560485,matched,ChIJMWTK0i072jAR09-EfkgqPFI,10620278581,20.68205350672186,4.4,555,https://geodata.ucdavis.edu/gadm/gadm4.1/shp/gadm41_THA_shp.zip,Mo-Su 12:00-22:00
NICE COFFEE SELECTION,18.4331794,98.6780623,matched,ChIJ7cQhjPux2zARt1iMUaGcn2c,10715951005,6.536288719533917,4.7,65,https://geodata.ucdavis.edu/gadm/gadm4.1/shp/gadm41_THA_shp.zip,Mo-Sa 07:30-16:00
TwinsCoffee Doitao,17.9837038,98.6868687,matched,ChIJZ7c3-g2P2zARuZbFKoUI5r8,10767528380,6.377795580345972,4.3,23,https://geodata.ucdavis.edu/gadm/gadm4.1/shp/gadm41_THA_shp.zip,NA
Kacha & Creme,18.863514,99.2994473,matched,ChIJOZJM9vyN2TARTN1-UIwx9f0,10774485522,29.218972299590643,4.3,6,https://geodata.ucdavis.edu/gadm/gadm4.1/shp/gadm41_THA_shp.zip,NA
bays coffee co.,18.8061342,98.9613899,matched,ChIJcfzCi1062jARLtfChfkqHPY,10836941005,24.899693083895055,4.6,121,https://www.facebook.com/Food4ThoughtCM,NA
ปังกลมๆ กะ นมเน้นๆ,18.8051265,98.9775959,matched,ChIJVUT10vI62jAReGQdxrsGUR0,10865484490,20.94007606659092,5,2,https://geodata.ucdavis.edu/gadm/gadm4.1/shp/gadm41_THA_shp.zip,NA
Ni-cha food&drink,18.6898646,98.9456981,matched,ChIJNcf4718x2jARqob-phUJ9eU,11032795792,24.47124678317014,4.6,17,https://geodata.ucdavis.edu/gadm/gadm4.1/shp/gadm41_THA_shp.zip,Mo-Su 08:30-17:00
Chae-Ger Coffee,20.0763965,99.2689016,matched,ChIJlde_50TV1jAReIzCFV6VNVc,11116250807,11.144722493723103,4.4,23,https://geodata.ucdavis.edu/gadm/gadm4.1/shp/gadm41_THA_shp.zip,NA
ขุนดง ลอดจ์ คอฟฟี่ แอนด์ บิสโทร,18.7315579,99.2007178,matched,ChIJ6dCuG9WH2TARB7u5B5394hs,11228514395,19.46850456531547,4.6,11,https://geodata.ucdavis.edu/gadm/gadm4.1/shp/gadm41_THA_shp.zip,Mo-Su 09:00-21:00
Ba-Ra-Me Cafe,18.7326478,99.1998517,matched,ChIJMx3e2VeH2TARXH3ZyuaBRac,11228592765,9.875343057754936,4.8,37,https://geodata.ucdavis.edu/gadm/gadm4.1/shp/gadm41_THA_shp.zip,NA
Long time farm stay (Slow bar &​ Organic farm)​ ร้านกาแฟแม่แตง,19.1665866,99.0043623,matched,ChIJrbIjEzcP2jAR9AtEx8w87IE,11244900888,8.717029907980702,4.8,180,https://geodata.ucdavis.edu/gadm/gadm4.1/shp/gadm41_THA_shp.zip,NA
BA RUNG บาหรั่ง,18.841957,98.9053622,matched,ChIJNVokkvQ52jAR_Ji8OwWl_KY,11249892977,2.64677816723087,4.9,46,https://geodata.ucdavis.edu/gadm/gadm4.1/shp/gadm41_THA_shp.zip,NA
Po Mue Nor Cafe,18.5402926,98.4396015,matched,ChIJ7eUHDwAB2zARbd9r4tS1Xww,11273509969,21.074375559102066,NA,NA,https://geodata.ucdavis.edu/gadm/gadm4.1/shp/gadm41_THA_shp.zip,NA
ขุนวินคอฟฟี่,18.7425256,98.6933623,matched,ChIJC0glIgBP2jARP145qYFAiBs,11410071072,9.682602442930165,4.7,3,https://geodata.ucdavis.edu/gadm/gadm4.1/shp/gadm41_THA_shp.zip,NA
BBHQ Café,19.4363983,98.9473335,matched,ChIJ6YMVOOqn0DARavKCoUbvWjQ,11413834853,0.283093280015619,5,36,https://geodata.ucdavis.edu/gadm/gadm4.1/shp/gadm41_THA_shp.zip,Mo-Su 10:00-18:00
สวนนกยูงลุงพงศ์ - UNCLE PONG PEACOCK FARM,18.9224209,98.9233064,matched,ChIJIegL8iw_2jAR9ppcGkIqW04,11477703412,16.61772223292967,4.5,64,https://geodata.ucdavis.edu/gadm/gadm4.1/shp/gadm41_THA_shp.zip,NA
Uncle Pong Mini Zoo and Cafe - สวนลุงพงศ์มินิซูแอนด์คาเฟ่,18.922755,98.9231844,matched,ChIJZ0A7TwA_2jARmD8nSfs2cAM,11477703415,25.084433236481775,4.6,107,https://geodata.ucdavis.edu/gadm/gadm4.1/shp/gadm41_THA_shp.zip,NA
𝟭𝟮𝗙𝗘𝗕 𝗛𝗼𝗺𝗲𝘆 𝗖𝗮𝗳𝗲,18.731644,98.9174,matched,ChIJX5z3BX832jARt0ggNjWDeSQ,11508095574,18.782967241367363,4.8,329,https://geodata.ucdavis.edu/gadm/gadm4.1/shp/gadm41_THA_shp.zip,NA
ARK Coffee,19.0258982,99.3170051,matched,ChIJdedtfLXz2TARFmefD405xs0,11555438605,30.902591400190307,4.7,163,https://geodata.ucdavis.edu/gadm/gadm4.1/shp/gadm41_THA_shp.zip,NA
ร้านกาแฟสดระเบียงไม้,18.6261979,98.9557142,matched,ChIJR45zObkz2jAReiCpmAoM9Bs,11676292677,2.208391683283686,4.7,14,https://geodata.ucdavis.edu/gadm/gadm4.1/shp/gadm41_THA_shp.zip,NA
The Extraction พืชสวนโลก,18.729112400000002,98.9114822,matched,ChIJDQqiB6k32jAR_fKrZBAOq4k,11726764476,24.320881978054242,4.7,103,https://geodata.ucdavis.edu/gadm/gadm4.1/shp/gadm41_THA_shp.zip,Mo-Su 07:00-17:00
Coffee Hut,18.541705,98.5993191,matched,ChIJi-gHykCs2zARRuXn-bmkhUc,11729468222,9.258015200127364,3.7,34,https://geodata.ucdavis.edu/gadm/gadm4.1/shp/gadm41_THA_shp.zip,NA
Tanita Coffee House,18.7930208,99.0019605,matched,ChIJFYPGDrA62jARg-UlBxBSXi4,11806453091,28.554101042297262,4.7,220,https://geodata.ucdavis.edu/gadm/gadm4.1/shp/gadm41_THA_shp.zip,08:30-17:00
Lhong Chiang Dao glamping (หลงเชียงดาว แกล้มปิง),19.3263823,98.9336028,matched,ChIJgZxXJwAJ2jARYJUR7z9udWE,12111894384,32.346430277287375,4.7,33,https://geodata.ucdavis.edu/gadm/gadm4.1/shp/gadm41_THA_shp.zip,NA
ชาไข่มุกดอทคอม (สาขาดอนแก้ว),18.8702853,98.9669198,matched,ChIJp_IqOAA72jAR77BLh__jbK0,12222135666,4.823121870526602,5,2,https://geodata.ucdavis.edu/gadm/gadm4.1/shp/gadm41_THA_shp.zip,NA
Inthanin สาขาปั้มบางจาก ดอยสะเก็ด,18.8759307,99.1390686,matched,ChIJu2s43y4h2jARoBs6-xp2-sI,12345599501,7.324868472713869,3.9,17,https://geodata.ucdavis.edu/gadm/gadm4.1/shp/gadm41_THA_shp.zip,Mo-Su 07:00-17:30
Café Amazon,18.5973844,98.8879194,matched,ChIJv8QiK9M02jAR45arTU6cJng,12350709001,3.8388488530253273,4.4,108,https://geodata.ucdavis.edu/gadm/gadm4.1/shp/gadm41_THA_shp.zip,NA
Shade of Brown Coffee Roaster,18.4721228,98.8203873,matched,ChIJz6d3vNXJ2zAR141C6z749QA,12350716263,4.193000696576702,4.9,60,https://geodata.ucdavis.edu/gadm/gadm4.1/shp/gadm41_THA_shp.zip,Mo-Su 07:30-17:30
JP Carwash Coffee & Restaurant,18.7404967,99.0450346,matched,ChIJnwVjDaov2jARqHvCGaGocbE,12389781831,1.3023798746298814,4.9,11,https://www.instagram.com/hopefullycafe/,7:30 - 16:30
Thawaan Coffee,19.2238143,99.1852144,matched,ChIJC-DC9JAD2jARQvjVqTge25I,12444046765,6.50516858875601,NA,NA,https://geodata.ucdavis.edu/gadm/gadm4.1/shp/gadm41_THA_shp.zip,NA
QSBG Coffee,18.8863831,98.8626883,matched,ChIJ7Wm0GTQ_2jARfWRvM82iZak,12503865623,9.021468840317715,4.8,4,https://geodata.ucdavis.edu/gadm/gadm4.1/shp/gadm41_THA_shp.zip,NA
Cafe Amazon PTT Maewang คาเฟ่อเมซอน ปตท.แม่วาง (บ้านกาด),18.6042126,98.8294884,matched,ChIJ_9xZNRNL2jARoQD_yEhupa8,12528710125,15.452086523931506,5,1,https://geodata.ucdavis.edu/gadm/gadm4.1/shp/gadm41_THA_shp.zip,NA
เรือนฝ้าย ด้ายงาม,19.1235276,99.1774915,matched,ChIJSzAiTzwd2jAR9HtV-duuQp0,12543258781,10.250432639560648,5,4,https://geodata.ucdavis.edu/gadm/gadm4.1/shp/gadm41_THA_shp.zip,NA
Café Amazon ปตท.แม่ปั๋ง,19.2513878,99.1854052,matched,ChIJ3cptBQAB2jARBgWr36y167c,12550162068,44.82845340816297,5,2,https://geodata.ucdavis.edu/gadm/gadm4.1/shp/gadm41_THA_shp.zip,NA
หอศิลป์ อิงกา คาเฟ่,18.929622,99.1418789,matched,ChIJg-dg6YQh2jARjnzGzCa_oHc,12570756828,8.454403717509786,5,2,https://geodata.ucdavis.edu/gadm/gadm4.1/shp/gadm41_THA_shp.zip,NA
☕Mae Kuang Cafe แม่กวง คาเฟ่,18.9300734,99.1421433,matched,ChIJr2mouV4h2jAR_KIwkx6jzOA,12570756830,25.772059662794458,4.9,19,https://geodata.ucdavis.edu/gadm/gadm4.1/shp/gadm41_THA_shp.zip,NA
เดอะ เอส คอฟฟี่,19.9830582,99.2477014,matched,ChIJwwL57ikt1zARZLq3Y1G1wWM,12704302176,3.7692812951510186,4.7,11,https://geodata.ucdavis.edu/gadm/gadm4.1/shp/gadm41_THA_shp.zip,NA
Coffee Secrets,19.1218462,98.7046919,matched,ChIJrdzB0f9u2jARqpUjuc1Sf24,12771183608,36.505869609062884,4.5,13,https://geodata.ucdavis.edu/gadm/gadm4.1/shp/gadm41_THA_shp.zip,NA
ผามกาแฟใจ๋ยอง ณ เฮือนใจ๋ยอง,18.7254624,99.1028968,matched,ChIJ-aSb-lIp2jARhy752TQfWxw,12854479436,40.474324831239926,4.5,6,https://geodata.ucdavis.edu/gadm/gadm4.1/shp/gadm41_THA_shp.zip,NA
Starbucks,18.8083378,99.018274,matched,ChIJfXvXur4w2jARcld9AjrlENQ,12864717489,44.37492526520873,4.2,613,https://geodata.ucdavis.edu/gadm/gadm4.1/shp/gadm41_THA_shp.zip,Mo-Su 09:00-22:00
Langbaan Cafe,18.5489841,98.8770691,matched,ChIJy_SKGQDL2zARR1O3PkfBUW0,12916877901,32.6025740987049,4.9,13,https://geodata.ucdavis.edu/gadm/gadm4.1/shp/gadm41_THA_shp.zip,NA
ชาวเรา slowbar coffee,18.8780151,99.0389106,matched,ChIJtaOPBgAj2jARf4FeA8EzA-8,13004478307,11.176485334485623,NA,NA,https://geodata.ucdavis.edu/gadm/gadm4.1/shp/gadm41_THA_shp.zip,Tu-Sa 07:00-13:00
Tungjai​ Coffee​ ตั้งใจกาแฟสด,18.73502389999999,99.0256736,matched,ChIJqTSm1O4v2jARGsRgvwcdXMM,13051829585,11.270715675288157,5,22,https://geodata.ucdavis.edu/gadm/gadm4.1/shp/gadm41_THA_shp.zip,NA
unh Cafe & Craft : ยุ่น คาเฟ่ แอนด์ คราฟท์,19.191985,98.9808331,matched,ChIJdad_M-0P2jARgM9Muj-1HXE,13062546004,4.2102542411427955,5,3,https://geodata.ucdavis.edu/gadm/gadm4.1/shp/gadm41_THA_shp.zip,Mo-Su 07:00-18:00
ดงธารา เทพเสด็จ - Dong-Tara Thepsadet Chiangmai,18.9242045,99.3591212,matched,ChIJAy1yJYSN2TARGjIfBLejTkM,13062872287,10.786567782763376,5,2,https://geodata.ucdavis.edu/gadm/gadm4.1/shp/gadm41_THA_shp.zip,NA
Kamisama Coffee,18.9209872,99.3308822,matched,ChIJEV0HnyWN2TARFQTGSEBp5a0,13062989622,20.32319230419445,4.9,8,https://geodata.ucdavis.edu/gadm/gadm4.1/shp/gadm41_THA_shp.zip,NA
Fae Miang Café,18.9250866,99.3398268,matched,ChIJHTsCs_yN2TAR6bUOJKkkRH4,13062989822,14.80701827043694,4.6,267,https://geodata.ucdavis.edu/gadm/gadm4.1/shp/gadm41_THA_shp.zip,NA
88 Rustic Jungle Café,18.8606537,99.0526521,matched,ChIJ98s0-aYl2jARVkVyWK8Z0pc,13092045056,4.624784469540255,4.6,158,https://geodata.ucdavis.edu/gadm/gadm4.1/shp/gadm41_THA_shp.zip,NA
พาลอร์ - Palore@Pongyang,18.858886,98.832428,matched,ChIJE7qOiJ9H2jAROWpOsr73D8s,13108414413,3.0583127786410964,5,1,https://geodata.ucdavis.edu/gadm/gadm4.1/shp/gadm41_THA_shp.zip,NA
TUNGNGRN COFFEE,19.7366168,99.1430051,matched,ChIJh-7QCwDL0DARztFWh8GA_f8,13169192501,15.921121837400046,NA,NA,https://geodata.ucdavis.edu/gadm/gadm4.1/shp/gadm41_THA_shp.zip,Mo-Fr 07:00-17:00; Sa-Su 09:00-17:00
ภูผาแดงคอฟฟี่,19.7620395,99.0124156,matched,ChIJi6rsG27H0DARJ9dvZYAkJhE,13192214401,39.83883205755333,NA,NA,https://geodata.ucdavis.edu/gadm/gadm4.1/shp/gadm41_THA_shp.zip,NA
Today's COFFEE club สภากาแฟป่าเลา,19.1131523,99.0749122,matched,ChIJ6cjWDjEb2jARs9kldoFdzBs,13236510928,3.566460688238673,5,26,https://scanfood.online/pickup/NfKgb0Fxtxg1J97pBlMq,07:00-22:00
Huai Tueng Thao Coffee,18.8724499,98.9373437,matched,ChIJiXXolxk72jAR2uKCGUuxaHk,13245032755,7.99606762414054,4.2,12,https://geodata.ucdavis.edu/gadm/gadm4.1/shp/gadm41_THA_shp.zip,NA
Hoklhong Cafe,19.3504375,98.9624375,matched,ChIJkwZ6zX2n0DARY8ZET3ntwfI,13253872602,9.120021391102377,4.7,586,https://geodata.ucdavis.edu/gadm/gadm4.1/shp/gadm41_THA_shp.zip,NA
LONG-CHONG COFFEE X ก๋วยเตี๋ยวเป็ดรสเด็ดปากทางอ่างขาง,19.8023768,99.1650437,matched,ChIJ5YLfLVrL0DARd9HnEb4_Rl0,13255562001,11.939854736743237,5,10,https://geodata.ucdavis.edu/gadm/gadm4.1/shp/gadm41_THA_shp.zip,Mo-Su 08:00-16:00
Lanna Terra,18.7360946,98.9004275,matched,ChIJ7253EwA32jAReZ21nZ1Wk_Y,13257143161,25.637812846707313,4.1,23,https://geodata.ucdavis.edu/gadm/gadm4.1/shp/gadm41_THA_shp.zip,Mo-Su 08:00-17:00
Rachel Coffee And Community @Cypress Lanes,18.7907133,98.8404066,matched,ChIJiaMXyp452jARgUwN_LG58-w,13257248680,47.79886745049415,4.5,143,https://geodata.ucdavis.edu/gadm/gadm4.1/shp/gadm41_THA_shp.zip,"Mo-We, Fr-Su 10:00-17:00"
Akha Ama Coffee ( The New Original ),18.794007,98.9925683,matched,ChIJtchymZI62jARRht1e_ZZoEI,13293742701,2.3959153033383696,4.5,1844,https://geodata.ucdavis.edu/gadm/gadm4.1/shp/gadm41_THA_shp.zip,NA
Imim Cafe. ซินหมี่,19.676149,98.7858837,matched,ChIJCx05IgCV0DARwxj-6FxjWiU,13293745101,0.14826091729859692,5,1,https://geodata.ucdavis.edu/gadm/gadm4.1/shp/gadm41_THA_shp.zip,Mo-Su 08:00-17:00
winter,19.51436069999999,98.9602249,matched,ChIJYa54SsCl0DARZqlkAmvE0Gg,13392100892,9.168752183630353,4.9,16,https://geodata.ucdavis.edu/gadm/gadm4.1/shp/gadm41_THA_shp.zip,NA
KM.31 Cafe Inthanon,18.5294559,98.5231044,matched,ChIJsb8khfir2zARjIpllO3oIY8,13401663575,19.211496662976746,4.8,6,https://geodata.ucdavis.edu/gadm/gadm4.1/shp/gadm41_THA_shp.zip,NA
