"tile_id","place_id","name","rating","user_ratings_total","status","GID_1","GID_0","COUNTRY","NAME_1","VARNAME_1","NL_NAME_1","TYPE_1","ENGTYPE_1","CC_1","HASC_1","ISO_1","lon","lat"
"1","ChIJrQLWVHPx3DARnBk3AhgFURg","Coffee master กาแฟคั่วมือ",NA,NA,"OK","THA.10_1","THA","Thailand","Chiang Mai","NA","จังหวัดเชียงใหม่","Changwat","Province","50","TH.CM","TH-50",98.33291,17.315479
"1","ChIJcTVqE9v73DARteCtS5wDvXQ","Forest Coffee beans",5,1,"OK","THA.10_1","THA","Thailand","Chiang Mai","NA","จังหวัดเชียงใหม่","Changwat","Province","50","TH.CM","TH-50",98.3483562,17.2940687
"1","ChIJyWb9jzL73DARgR2LJlcBy00","GooNoo Black Coffee",4.5,2,"OK","THA.10_1","THA","Thailand","Chiang Mai","NA","จังหวัดเชียงใหม่","Changwat","Province","50","TH.CM","TH-50",98.3539659,17.2909708
"3","ChIJfzwqpu333DARBtvQkp9HI9E","มาดามคอฟฟี่ ณ.ทีวาโกล",5,4,"OK","THA.10_1","THA","Thailand","Chiang Mai","NA","จังหวัดเชียงใหม่","Changwat","Province","50","TH.CM","TH-50",98.483606,17.376925
"3","ChIJDWYN3Uf33DARSunxm6c1bTc","โรงตาก กาแฟ",5,1,"OK","THA.10_1","THA","Thailand","Chiang Mai","NA","จังหวัดเชียงใหม่","Changwat","Province","50","TH.CM","TH-50",98.4821875,17.3664375
"3","ChIJEaBO54z33DAR3LMwgLZDBAw","มิกะ คาเฟ่ mika.cafe",5,4,"OK","THA.10_1","THA","Thailand","Chiang Mai","NA","จังหวัดเชียงใหม่","Changwat","Province","50","TH.CM","TH-50",98.46266250000001,17.3911913
"3","ChIJd-nL-fD13DARKDFKApCHhWg","Tuen Coffee",5,24,"OK","THA.10_1","THA","Thailand","Chiang Mai","NA","จังหวัดเชียงใหม่","Changwat","Province","50","TH.CM","TH-50",98.46087849999999,17.3975883
"3","ChIJ3SAy17f13DARJ_NqB6uU1cQ","หลงยุค ๙๐ คาแฟ่",5,4,"OK","THA.10_1","THA","Thailand","Chiang Mai","NA","จังหวัดเชียงใหม่","Changwat","Province","50","TH.CM","TH-50",98.46688739999999,17.4002161
"3","ChIJD0DLpt713DARkMoj2CPWnCE","Country Road 1099 Cafe'",3.5,2,"OK","THA.10_1","THA","Thailand","Chiang Mai","NA","จังหวัดเชียงใหม่","Changwat","Province","50","TH.CM","TH-50",98.4578362,17.40024949999999
"3","ChIJn1gIDdz13DARAUwXqws5rdM","Nan nat bakery & coffee",4.1,22,"OK","THA.10_1","THA","Thailand","Chiang Mai","NA","จังหวัดเชียงใหม่","Changwat","Province","50","TH.CM","TH-50",98.457377,17.401821
"3","ChIJgRaRcUv13DARLk1AkgI1Yl0","ม่อนอีลู&ชาคุมะบ้านใหม่",NA,NA,"OK","THA.10_1","THA","Thailand","Chiang Mai","NA","จังหวัดเชียงใหม่","Changwat","Province","50","TH.CM","TH-50",98.4561121,17.4023799
"3","ChIJ7X4DtXr13DARJMsVl6Omw3s","ร้าน​กาแฟ​กะเจ่อ​ถิ(ตีน​ดอน)​",NA,NA,"OK","THA.10_1","THA","Thailand","Chiang Mai","NA","จังหวัดเชียงใหม่","Changwat","Province","50","TH.CM","TH-50",98.45559759999999,17.4026879
"3","ChIJrYxf2yH13DAR2Nm0dzxWUmk","ร้าน Check in เมืองตื๋น",NA,NA,"OK","THA.10_1","THA","Thailand","Chiang Mai","NA","จังหวัดเชียงใหม่","Changwat","Province","50","TH.CM","TH-50",98.4550234,17.4103296
"3","ChIJPXqd-tX13DARS2UWGaeyu-g","พอเพียงคาเฟ่",4.5,4,"OK","THA.10_1","THA","Thailand","Chiang Mai","NA","จังหวัดเชียงใหม่","Changwat","Province","50","TH.CM","TH-50",98.456706,17.4141239
"7","ChIJ6x2tBatf3DARGmAY6TmkL9E","เก๊าบะขามคาเฟ่",NA,NA,"OK","THA.10_1","THA","Thailand","Chiang Mai","NA","จังหวัดเชียงใหม่","Changwat","Province","50","TH.CM","TH-50",98.5344118,17.4300834
"8","ChIJ87wGTUCL3DAR5e7kacZ-j5s","เก่อชอวา คอฟฟี่",NA,NA,"OK","THA.10_1","THA","Thailand","Chiang Mai","NA","จังหวัดเชียงใหม่","Changwat","Province","50","TH.CM","TH-50",98.4838145,17.4997563
"8","ChIJ6RVvKzRf3DARQAnpYYGKfxQ","หม่าวี่โจcoffee@homestay",5,7,"OK","THA.10_1","THA","Thailand","Chiang Mai","NA","จังหวัดเชียงใหม่","Changwat","Province","50","TH.CM","TH-50",98.4848861,17.4960638
"10","ChIJRfJEUwBh3DARxrECiHk7oJs","ลูกเขยดอย coffee",5,2,"OK","THA.10_1","THA","Thailand","Chiang Mai","NA","จังหวัดเชียงใหม่","Changwat","Province","50","TH.CM","TH-50",98.522539,17.572276
"10","ChIJCbXHCZNh3DARHQnbpPchLKw","Napee por coffee",NA,NA,"OK","THA.10_1","THA","Thailand","Chiang Mai","NA","จังหวัดเชียงใหม่","Changwat","Province","50","TH.CM","TH-50",98.523619,17.569218
"12","ChIJkWc0HgCD3DARMkd3LyeUxio","คอฟฉะโฮมคาเฟ่",NA,NA,"OK","THA.10_1","THA","Thailand","Chiang Mai","NA","จังหวัดเชียงใหม่","Changwat","Province","50","TH.CM","TH-50",98.44035699999999,17.630099
"12","ChIJ81GuvSuJ3DAR7n_83VMlSqU","คอฟฉะโฮมคาเฟ่",NA,NA,"OK","THA.10_1","THA","Thailand","Chiang Mai","NA","จังหวัดเชียงใหม่","Changwat","Province","50","TH.CM","TH-50",98.4403573,17.6300994
"14","ChIJkWzGdRSb3DARK6nlniLZlLw","Mae Naree Coffee ผาแดง",NA,NA,"OK","THA.10_1","THA","Thailand","Chiang Mai","NA","จังหวัดเชียงใหม่","Changwat","Province","50","TH.CM","TH-50",98.24184629999999,17.6980641
"15","ChIJ8wyvLyyD3DAREYRckrc8lG0","ร้าน พอใจกาแฟ",NA,NA,"OK","THA.10_1","THA","Thailand","Chiang Mai","NA","จังหวัดเชียงใหม่","Changwat","Province","50","TH.CM","TH-50",98.3570646,17.7980298
"15","ChIJOQCw1vwF2zARgc72X2VuJ4E","ร้านฮักกั๋นกาแฟสด",4.9,17,"OK","THA.10_1","THA","Thailand","Chiang Mai","NA","จังหวัดเชียงใหม่","Changwat","Province","50","TH.CM","TH-50",98.357768,17.7980291
"15","ChIJSTg3O6uD3DARIPmW9Bpquy0","ร้านกาแฟไก่ไข่ อมก๋อย",5,2,"OK","THA.10_1","THA","Thailand","Chiang Mai","NA","จังหวัดเชียงใหม่","Changwat","Province","50","TH.CM","TH-50",98.3571291,17.7989556
"15","ChIJp3q1dwCD3DAROxnLKN-9f9I","หน้าบ้านกาแฟสด",NA,NA,"OK","THA.10_1","THA","Thailand","Chiang Mai","NA","จังหวัดเชียงใหม่","Changwat","Province","50","TH.CM","TH-50",98.3581566,17.7980116
"15","ChIJrVYFHCqD3DARaCHInVS-o6k","บ้านนมชัยโชติ",NA,NA,"OK","THA.10_1","THA","Thailand","Chiang Mai","NA","จังหวัดเชียงใหม่","Changwat","Province","50","TH.CM","TH-50",98.3586672,17.79789539999999
"15","ChIJwS7i_F6D3DARoghgRCGlwUQ","กาแฟทีคี บ้านหลวง",NA,NA,"OK","THA.10_1","THA","Thailand","Chiang Mai","NA","จังหวัดเชียงใหม่","Changwat","Province","50","TH.CM","TH-50",98.3617986,17.79199
"15","ChIJDQQqiKGD3DARpIfCcf9vOuk","Omkoi Bean",4.3,12,"OK","THA.10_1","THA","Thailand","Chiang Mai","NA","จังหวัดเชียงใหม่","Changwat","Province","50","TH.CM","TH-50",98.35814160000001,17.7999149
"15","ChIJ52kkSaKD3DARx6m0lGe8MtU","BabyBoom Cafeine",3.5,4,"OK","THA.10_1","THA","Thailand","Chiang Mai","NA","จังหวัดเชียงใหม่","Changwat","Province","50","TH.CM","TH-50",98.3597874,17.8004042
"15","ChIJc0OlWaKD3DARydgnZJ_8Kbw","โฮงรถคาเฟ่",4.8,29,"OK","THA.10_1","THA","Thailand","Chiang Mai","NA","จังหวัดเชียงใหม่","Changwat","Province","50","TH.CM","TH-50",98.36065640000001,17.8000106
"15","ChIJq8l8dgB92zARSR9K_tfsiQs","หน้าบ้านป้าลี",NA,NA,"OK","THA.10_1","THA","Thailand","Chiang Mai","NA","จังหวัดเชียงใหม่","Changwat","Province","50","TH.CM","TH-50",98.36085039999999,17.799811299999998
"15","ChIJ0YpE7KKD3DARzg-utieQzQc","Coffee Cill",3.5,2,"OK","THA.10_1","THA","Thailand","Chiang Mai","NA","จังหวัดเชียงใหม่","Changwat","Province","50","TH.CM","TH-50",98.36178869999999,17.7996105
"15","ChIJ6SLgAKOD3DAR4GJ8aS32dzY","ณ อมก๋อย",4.6,9,"OK","THA.10_1","THA","Thailand","Chiang Mai","NA","จังหวัดเชียงใหม่","Changwat","Province","50","TH.CM","TH-50",98.3610571,17.8010191
"15","ChIJXfjU_6KD3DARAQ8yjxDLKo8","เฮือนข้าวแฟ",4.2,19,"OK","THA.10_1","THA","Thailand","Chiang Mai","NA","จังหวัดเชียงใหม่","Changwat","Province","50","TH.CM","TH-50",98.3613756,17.8006094
"15","ChIJSezUZQCD3DARbU7QdtjH9UU","ร้านกาแฟอมก๋อยบีนส์ Omkoi beans",5,2,"OK","THA.10_1","THA","Thailand","Chiang Mai","NA","จังหวัดเชียงใหม่","Changwat","Province","50","TH.CM","TH-50",98.3624121,17.799066
"15","ChIJtTFodgCD3DARNW7EZHEH4F0","บ้านยายคาเฟ่",5,1,"OK","THA.10_1","THA","Thailand","Chiang Mai","NA","จังหวัดเชียงใหม่","Changwat","Province","50","TH.CM","TH-50",98.36307509999999,17.7994663
"15","ChIJfZGKKUWD3DARJ-Ngths5AN0","ร้านกาแฟฮิมดง",3.8,4,"OK","THA.10_1","THA","Thailand","Chiang Mai","NA","จังหวัดเชียงใหม่","Changwat","Province","50","TH.CM","TH-50",98.3656977,17.7984352
"15","ChIJk1dFr3qD3DARi9ghj06ASxg","Good morning omkoi",4.7,70,"OK","THA.10_1","THA","Thailand","Chiang Mai","NA","จังหวัดเชียงใหม่","Changwat","Province","50","TH.CM","TH-50",98.36368139999999,17.8049515
"15","ChIJ6e_HIQCD3DARYesMYwmW12w","คอฟฟี่คา",NA,NA,"OK","THA.10_1","THA","Thailand","Chiang Mai","NA","จังหวัดเชียงใหม่","Changwat","Province","50","TH.CM","TH-50",98.3214551,17.8219994
"15","ChIJTfTKLg2D3DAR7u9l0L3dfBE","Sopa's Estate Plantation",5,1,"OK","THA.10_1","THA","Thailand","Chiang Mai","NA","จังหวัดเชียงใหม่","Changwat","Province","50","TH.CM","TH-50",98.36752589999999,17.8026739
"15","ChIJ3-INZgCD3DARo7szZQsWwOc","มิตติ้งพอยต์คาเฟ่อมก๋อย Meeting point Cafe Omkoi",4.7,3,"OK","THA.10_1","THA","Thailand","Chiang Mai","NA","จังหวัดเชียงใหม่","Changwat","Province","50","TH.CM","TH-50",98.3640966,17.8078899
"15","ChIJ70FzJvOD3DARB9nW-As8IzE","Yangpao cafe - ร้านกาแฟโรงเรียนบ้านยางเปา",NA,NA,"OK","THA.10_1","THA","Thailand","Chiang Mai","NA","จังหวัดเชียงใหม่","Changwat","Province","50","TH.CM","TH-50",98.3188457,17.8235562
"16","ChIJIUeFISaD3DAR1d4ln4booKk","Dong Coffee De Omkoi",4.9,12,"OK","THA.10_1","THA","Thailand","Chiang Mai","NA","จังหวัดเชียงใหม่","Changwat","Province","50","TH.CM","TH-50",98.372846,17.8054333
"16","ChIJKV4zHLiD3DARrG0I3c71ofg","Nermu Coffee Omkoi",5,1,"OK","THA.10_1","THA","Thailand","Chiang Mai","NA","จังหวัดเชียงใหม่","Changwat","Province","50","TH.CM","TH-50",98.36505299999999,17.8113889
"17","ChIJNd0dcA9_3DARtGI7J1jJt08","ร้านHugnaCoffee",5,2,"OK","THA.10_1","THA","Thailand","Chiang Mai","NA","จังหวัดเชียงใหม่","Changwat","Province","50","TH.CM","TH-50",98.496876,17.776038
"19","ChIJHSe-DF-d3DAR8f29zorLNd0","วิวไร่คาเฟ่",NA,NA,"OK","THA.10_1","THA","Thailand","Chiang Mai","NA","จังหวัดเชียงใหม่","Changwat","Province","50","TH.CM","TH-50",98.30320619999999,17.8705597
"19","ChIJu7JbB0eC3DAReZOKXcvlvi4","กาแฟอมก๋อย",4.4,131,"OK","THA.10_1","THA","Thailand","Chiang Mai","NA","จังหวัดเชียงใหม่","Changwat","Province","50","TH.CM","TH-50",98.3721875,17.8356875
"21","ChIJUdG6FQCJ2zARUA6FcoyWDew","Palmmoy Coffee and tea 2",5,3,"OK","THA.10_1","THA","Thailand","Chiang Mai","NA","จังหวัดเชียงใหม่","Changwat","Province","50","TH.CM","TH-50",98.747732,17.8520745
"21","ChIJRRilMQCJ2zARjn7bBOd-E7Q","ชารินคิณ Charinkin🧋",NA,NA,"OK","THA.10_1","THA","Thailand","Chiang Mai","NA","จังหวัดเชียงใหม่","Changwat","Province","50","TH.CM","TH-50",98.7258851,17.878812
"21","ChIJp4DmLACJ2zARulQMfwuRjZg","1000Mai cafe",NA,NA,"OK","THA.10_1","THA","Thailand","Chiang Mai","NA","จังหวัดเชียงใหม่","Changwat","Province","50","TH.CM","TH-50",98.742084,17.891302
"21","ChIJ4WRoIwyH2zARv0RUtvIaIJQ","1000 Mai Cafe",5,1,"OK","THA.10_1","THA","Thailand","Chiang Mai","NA","จังหวัดเชียงใหม่","Changwat","Province","50","TH.CM","TH-50",98.7420212,17.8913051
"21","ChIJ7RrAtLWJ2zART6TwPMNnDZo","The Doitao Coffee Rider",4.8,4,"OK","THA.10_1","THA","Thailand","Chiang Mai","NA","จังหวัดเชียงใหม่","Changwat","Province","50","TH.CM","TH-50",98.7262161,17.8852456
"21","ChIJlfjSq0uJ2zARGok29B2je7M","ปั่นมั่ว",4.3,4,"OK","THA.10_1","THA","Thailand","Chiang Mai","NA","จังหวัดเชียงใหม่","Changwat","Province","50","TH.CM","TH-50",98.74235619999999,17.8921314
"21","ChIJOXsZV0uJ2zARAIOnpTXXn7Y","PANMOUR (ปั่นมั่ว)",NA,NA,"OK","THA.10_1","THA","Thailand","Chiang Mai","NA","จังหวัดเชียงใหม่","Changwat","Province","50","TH.CM","TH-50",98.74229129999999,17.8922235
"23","ChIJDWWvIg1_2zARtu4yiSpigUo","เก๊าเกี๊ยะ Cafe",4.6,10,"OK","THA.10_1","THA","Thailand","Chiang Mai","NA","จังหวัดเชียงใหม่","Changwat","Province","50","TH.CM","TH-50",98.4104728,17.9055907
"23","ChIJIaLRWnB_2zARwbcPmOM4N-c","กาแฟรักษ์ป่าอมก๋อย SOFT Coffee",5,22,"OK","THA.10_1","THA","Thailand","Chiang Mai","NA","จังหวัดเชียงใหม่","Changwat","Province","50","TH.CM","TH-50",98.40930089999999,17.90286859999999
"24","ChIJ73HzEwCJ2zARLm_2tZd2ZTQ","กล้วยทอดกระทะยักษ์บ้านถิ่นสำราญ",NA,NA,"OK","THA.10_1","THA","Thailand","Chiang Mai","NA","จังหวัดเชียงใหม่","Changwat","Province","50","TH.CM","TH-50",98.7093269,17.9233939
"24","ChIJzRPgQzeJ2zAR9vJx1kLPr1A","กาแฟครูเกจ",3,2,"OK","THA.10_1","THA","Thailand","Chiang Mai","NA","จังหวัดเชียงใหม่","Changwat","Province","50","TH.CM","TH-50",98.7105697,17.9228975
"24","ChIJMZrR_2qJ2zARhU_APpJZd8A","ร้านเก๊าบะโจ้ก kaobajoke",5,1,"OK","THA.10_1","THA","Thailand","Chiang Mai","NA","จังหวัดเชียงใหม่","Changwat","Province","50","TH.CM","TH-50",98.6941896,17.9466292
"24","ChIJk3wbSwCP2zARsC1H7oH6EIw","ร้านน้ำปั่นน้องต้นหนาว",NA,NA,"OK","THA.10_1","THA","Thailand","Chiang Mai","NA","จังหวัดเชียงใหม่","Changwat","Province","50","TH.CM","TH-50",98.681607,17.9498647
"24","ChIJATpeZNeP2zARro8ZUTk0wXY","ระมิงค์ คอฟฟี่",4,2,"OK","THA.10_1","THA","Thailand","Chiang Mai","NA","จังหวัดเชียงใหม่","Changwat","Province","50","TH.CM","TH-50",98.6946497,17.94783709999999
"24","ChIJN5xEgNWP2zARHYXJw3hO0-k","ฮ่อมหน้อย คาเฟ่ Hom Noi Cafe",4.7,7,"OK","THA.10_1","THA","Thailand","Chiang Mai","NA","จังหวัดเชียงใหม่","Changwat","Province","50","TH.CM","TH-50",98.69031100000001,17.949394
"24","ChIJT8AWQDiJ2zARJU650PNi244","Long Ma Jim ลองมาจิม",3,1,"OK","THA.10_1","THA","Thailand","Chiang Mai","NA","จังหวัดเชียงใหม่","Changwat","Province","50","TH.CM","TH-50",98.7067318,17.9409509
"24","ChIJWZemdZuH2zARAW3Q69uRwWE","CHEEVA COFFEE",4.7,6,"OK","THA.10_1","THA","Thailand","Chiang Mai","NA","จังหวัดเชียงใหม่","Changwat","Province","50","TH.CM","TH-50",98.7068694,17.9409034
"24","ChIJPwMOn0uN2zARaajzlz7g0_A","SURANUN Café",4.9,12,"OK","THA.10_1","THA","Thailand","Chiang Mai","NA","จังหวัดเชียงใหม่","Changwat","Province","50","TH.CM","TH-50",98.69012289999999,17.9495872
"24","ChIJ6wLRbQCP2zARcDYseEFZ1dg","Coffee in Doitao By Khun Pui",NA,NA,"OK","THA.10_1","THA","Thailand","Chiang Mai","NA","จังหวัดเชียงใหม่","Changwat","Province","50","TH.CM","TH-50",98.68471509999999,17.9522861
"24","ChIJ2asKc66P2zARW6J-9HFHedA","โคซี่ บราวน์ คาเฟ่ Cozy Brown Café",5,33,"OK","THA.10_1","THA","Thailand","Chiang Mai","NA","จังหวัดเชียงใหม่","Changwat","Province","50","TH.CM","TH-50",98.6847385,17.9523478
"24","ChIJGd7mVgCP2zARW797StHiDDk","รสชาแฟ Coffee car",NA,NA,"OK","THA.10_1","THA","Thailand","Chiang Mai","NA","จังหวัดเชียงใหม่","Changwat","Province","50","TH.CM","TH-50",98.6835222,17.953359
"24","ChIJ5RDNfzGP2zARPjsy_XZSBv8","Bandin in the Doi",4.8,26,"OK","THA.10_1","THA","Thailand","Chiang Mai","NA","จังหวัดเชียงใหม่","Changwat","Province","50","TH.CM","TH-50",98.6900665,17.9536163
"24","ChIJsUsCQ9mP2zARkPNUck5dpWQ","เอื้องดอยคาเฟ่",4.1,7,"OK","THA.10_1","THA","Thailand","Chiang Mai","NA","จังหวัดเชียงใหม่","Changwat","Province","50","TH.CM","TH-50",98.67229619999999,17.953242500000002
"24","ChIJLQzZJQCJ2zARVFcWdyWmULg","บ้านบ้านคาเฟ่ BannBannCafe",4.8,13,"OK","THA.10_1","THA","Thailand","Chiang Mai","NA","จังหวัดเชียงใหม่","Changwat","Province","50","TH.CM","TH-50",98.72215399999999,17.9244105
"24","ChIJMZ138fqJ2zARdQcgbOejB0w","Nature Cafe",4.5,30,"OK","THA.10_1","THA","Thailand","Chiang Mai","NA","จังหวัดเชียงใหม่","Changwat","Province","50","TH.CM","TH-50",98.7203189,17.9388146
"24","ChIJn9eDNGmJ2zARr39pEGZM3HY","บ้านลมหายใจ",5,4,"OK","THA.10_1","THA","Thailand","Chiang Mai","NA","จังหวัดเชียงใหม่","Changwat","Province","50","TH.CM","TH-50",98.7279392,17.9276175
"27","ChIJO6nBwQR72zARqDad8hSvqdc","ไร่คานาอันโฮมคาเฟ่",4.9,19,"OK","THA.10_1","THA","Thailand","Chiang Mai","NA","จังหวัดเชียงใหม่","Changwat","Province","50","TH.CM","TH-50",98.33749499999999,18.0035246
"27","ChIJs7luInZ92zARM2LWH3lhRWw","ร้านมะดอขายน้ำ",2,1,"OK","THA.10_1","THA","Thailand","Chiang Mai","NA","จังหวัดเชียงใหม่","Changwat","Province","50","TH.CM","TH-50",98.35452389999999,17.9586215
"27","ChIJY8IZEjV92zARnTsqIMdOyPo","กาแฟรอเก้อออ",4.5,2,"OK","THA.10_1","THA","Thailand","Chiang Mai","NA","จังหวัดเชียงใหม่","Changwat","Province","50","TH.CM","TH-50",98.35961209999999,17.9578957
"27","ChIJVSvc91WD3DARiyeAwxNahFE","หน้าบ้าน HnaBanCafe (ป้าลี)",NA,NA,"OK","THA.10_1","THA","Thailand","Chiang Mai","NA","จังหวัดเชียงใหม่","Changwat","Province","50","TH.CM","TH-50",98.36002510000002,17.9580174
"28","ChIJZ7c3-g2P2zARuZbFKoUI5r8","TwinsCoffee Doitao",4.3,23,"OK","THA.10_1","THA","Thailand","Chiang Mai","NA","จังหวัดเชียงใหม่","Changwat","Province","50","TH.CM","TH-50",98.6868687,17.9837038
"28","ChIJ097KGQCP2zARKSgWXgwcnNk","ร้านฟองจันทร์",NA,NA,"OK","THA.10_1","THA","Thailand","Chiang Mai","NA","จังหวัดเชียงใหม่","Changwat","Province","50","TH.CM","TH-50",98.689246,17.9877958
"28","ChIJn0br3omP2zARBIrtQPCVquE","Chubby coffee caké",NA,NA,"OK","THA.10_1","THA","Thailand","Chiang Mai","NA","จังหวัดเชียงใหม่","Changwat","Province","50","TH.CM","TH-50",98.67250589999999,18.0078893
"28","ChIJgXnvNwCP2zARtibiw_RZeu8","Good luck cafe",NA,NA,"OK","THA.10_1","THA","Thailand","Chiang Mai","NA","จังหวัดเชียงใหม่","Changwat","Province","50","TH.CM","TH-50",98.6710603,18.007621
"28","ChIJRWRHA7-P2zARRCNCBczKjSA","ร้านน้ำปั่นป้านุช",5,1,"OK","THA.10_1","THA","Thailand","Chiang Mai","NA","จังหวัดเชียงใหม่","Changwat","Province","50","TH.CM","TH-50",98.67334299999999,18.02634
"28","ChIJ_c4aWQCP2zARg7nb8ihMOiQ","Coffee station สถานีกาแฟ",NA,NA,"OK","THA.10_1","THA","Thailand","Chiang Mai","NA","จังหวัดเชียงใหม่","Changwat","Province","50","TH.CM","TH-50",98.667991,18.026166
"29","ChIJId1AIgBx2zARk-wcaxWN0fo","สโลโม คาเฟ่",5,1,"OK","THA.10_1","THA","Thailand","Chiang Mai","NA","จังหวัดเชียงใหม่","Changwat","Province","50","TH.CM","TH-50",98.33823919999999,18.0705704
"29","ChIJu3TcDSpx2zARVapRAdm_ZGM","CHA NHA BAN ชาหน้าบ้าน",NA,NA,"OK","THA.10_1","THA","Thailand","Chiang Mai","NA","จังหวัดเชียงใหม่","Changwat","Province","50","TH.CM","TH-50",98.3609302,18.0602088
"29","ChIJGQP4fQB72zAR8XEi8MYjEbs","NF SHOP",NA,NA,"OK","THA.10_1","THA","Thailand","Chiang Mai","NA","จังหวัดเชียงใหม่","Changwat","Province","50","TH.CM","TH-50",98.36291609999999,18.0475921
"29","ChIJsbp5sPl72zARMFVF2ID31Is","ร้านสังกะสีคอฟฟี่บาร์",5,1,"OK","THA.10_1","THA","Thailand","Chiang Mai","NA","จังหวัดเชียงใหม่","Changwat","Province","50","TH.CM","TH-50",98.3631338,18.046208
"29","ChIJRT254aN72zARQipgWAjxl8s","Miracle coffe by โคนัน",NA,NA,"OK","THA.10_1","THA","Thailand","Chiang Mai","NA","จังหวัดเชียงใหม่","Changwat","Province","50","TH.CM","TH-50",98.3641573,18.0497405
"29","ChIJRfoaTAB72zAR3sZLE65eejA","โตมา คาเฟ่ Toma cafe",5,2,"OK","THA.10_1","THA","Thailand","Chiang Mai","NA","จังหวัดเชียงใหม่","Changwat","Province","50","TH.CM","TH-50",98.3645851,18.0476947
"31","ChIJsbdMPA2D2zARAZOdguT7qJE","ป่าไผ่คอฟฟี่",NA,NA,"OK","THA.10_1","THA","Thailand","Chiang Mai","NA","จังหวัดเชียงใหม่","Changwat","Province","50","TH.CM","TH-50",98.5589296,18.0514821
"31","ChIJl7GBOQCD2zARcybvVnc1NYY","กาแฟสดดอยเรือ",NA,NA,"OK","THA.10_1","THA","Thailand","Chiang Mai","NA","จังหวัดเชียงใหม่","Changwat","Province","50","TH.CM","TH-50",98.54898229999999,18.06880019999999
"32","ChIJP1Bo9smb2zARjB4OYKc1Wtg","Coffalica coffee slowbar",5,1,"OK","THA.10_1","THA","Thailand","Chiang Mai","NA","จังหวัดเชียงใหม่","Changwat","Province","50","TH.CM","TH-50",98.6357951,18.0583438
"32","ChIJRfQzGCyb2zARzvnDYlfEB4Q","ร้านฟองนม กาแฟสด",4.8,6,"OK","THA.10_1","THA","Thailand","Chiang Mai","NA","จังหวัดเชียงใหม่","Changwat","Province","50","TH.CM","TH-50",98.6362881,18.0607848
"33","ChIJP0Kt6y6R2zARj3psFyEq5C8","บาร์นม Milk bar Fresh coffee",4.5,2,"OK","THA.10_1","THA","Thailand","Chiang Mai","NA","จังหวัดเชียงใหม่","Changwat","Province","50","TH.CM","TH-50",98.7067568,18.0564732
"33","ChIJv86CSnSR2zARJNPGNenkvII","ทุ่งนา โครงการเกษตรทฤษฎีใหม่",4,1,"OK","THA.10_1","THA","Thailand","Chiang Mai","NA","จังหวัดเชียงใหม่","Changwat","Province","50","TH.CM","TH-50",98.70742109999999,18.0558029
"33","ChIJvZs6aACR2zARR92rKqGBbTE","บ้านสวนภัทร",NA,NA,"OK","THA.10_1","THA","Thailand","Chiang Mai","NA","จังหวัดเชียงใหม่","Changwat","Province","50","TH.CM","TH-50",98.69389799999999,18.083187
"35","ChIJd2xR7uNp2zARQ897TNuzDvw","โฮงเหล็กคอฟฟี่",4.7,40,"OK","THA.10_1","THA","Thailand","Chiang Mai","NA","จังหวัดเชียงใหม่","Changwat","Province","50","TH.CM","TH-50",98.2211808,18.1061706
"35","ChIJ9d3MF4tp2zARdlH7r0cYOHk","ธีร์คาเฟ่",5,1,"OK","THA.10_1","THA","Thailand","Chiang Mai","NA","จังหวัดเชียงใหม่","Changwat","Province","50","TH.CM","TH-50",98.2063623,18.0956721
"35","ChIJc-S8lKdp2zARwPTvKeY4UU0","Peko Coffee",NA,NA,"OK","THA.10_1","THA","Thailand","Chiang Mai","NA","จังหวัดเชียงใหม่","Changwat","Province","50","TH.CM","TH-50",98.20532999999999,18.09497169999999
"35","ChIJ56uj6hlp2zARrLFb0kkAQNU","Hom Doi Coffee",4,2,"OK","THA.10_1","THA","Thailand","Chiang Mai","NA","จังหวัดเชียงใหม่","Changwat","Province","50","TH.CM","TH-50",98.2043314,18.0939123
"35","ChIJu75-6sBv2zAR8PcczY7IgpA","CORN CAFE",NA,NA,"OK","THA.10_1","THA","Thailand","Chiang Mai","NA","จังหวัดเชียงใหม่","Changwat","Province","50","TH.CM","TH-50",98.22416750000001,18.1039799
"36","ChIJqTSbPZ9u2zARlqQ6WFoh8bo","ปั๊มน้ำมัน ประสงค์บริการ (Cosmo Oil)",4.3,9,"OK","THA.10_1","THA","Thailand","Chiang Mai","NA","จังหวัดเชียงใหม่","Changwat","Province","50","TH.CM","TH-50",98.2449281,18.1509987
"36","ChIJky_tKC1v2zARN0bMgAJ3wTM","ร้านหัวขัวคาเฟ่",4.9,9,"OK","THA.10_1","THA","Thailand","Chiang Mai","NA","จังหวัดเชียงใหม่","Changwat","Province","50","TH.CM","TH-50",98.2489683,18.149284
"36","ChIJTSkZawBv2zARxef4GB1ZYxc","กาแฟ&ลูกชิ้นทอด ผลไม้ตามฤดูกาล",NA,NA,"OK","THA.10_1","THA","Thailand","Chiang Mai","NA","จังหวัดเชียงใหม่","Changwat","Province","50","TH.CM","TH-50",98.24644599999999,18.1506678
"36","ChIJh0AT0dRv2zARVK2j8yZ2Hk0","ใจกลางดอย",4.9,16,"OK","THA.10_1","THA","Thailand","Chiang Mai","NA","จังหวัดเชียงใหม่","Changwat","Province","50","TH.CM","TH-50",98.2451246,18.1510025
"37","ChIJBTptyDZx2zARVGKB4res0ps","กาแฟสวนป่าดอยบ่อหลวง",3.5,4,"OK","THA.10_1","THA","Thailand","Chiang Mai","NA","จังหวัดเชียงใหม่","Changwat","Province","50","TH.CM","TH-50",98.3173711,18.1435604
"37","ChIJfyGMj2xx2zARng8BKqFgvP4","เเอ่วเพ้ Coffee",4.5,4,"OK","THA.10_1","THA","Thailand","Chiang Mai","NA","จังหวัดเชียงใหม่","Changwat","Province","50","TH.CM","TH-50",98.3162619,18.1442992
"37","ChIJo-IpTqtx2zARCeBsKhgS-4Q","ชา-ละว้า",NA,NA,"OK","THA.10_1","THA","Thailand","Chiang Mai","NA","จังหวัดเชียงใหม่","Changwat","Province","50","TH.CM","TH-50",98.34413339999999,18.1469983
"37","ChIJobYp_ZZx2zARS-c8enzZ_iY","กาแฟคาร์แคร์",4.9,10,"OK","THA.10_1","THA","Thailand","Chiang Mai","NA","จังหวัดเชียงใหม่","Changwat","Province","50","TH.CM","TH-50",98.3460982,18.146624
"37","ChIJ3zYSghxx2zARD9dUFbi6iow","คอฟฟี่ชิลด์ Coffee chill",5,7,"OK","THA.10_1","THA","Thailand","Chiang Mai","NA","จังหวัดเชียงใหม่","Changwat","Province","50","TH.CM","TH-50",98.35165889999999,18.14672
"37","ChIJbVcls4Bx2zAR8y7i9bGcXi0","เตี๋ยว เตาถ่านบ้านบ่อหลวง",5,4,"OK","THA.10_1","THA","Thailand","Chiang Mai","NA","จังหวัดเชียงใหม่","Changwat","Province","50","TH.CM","TH-50",98.3513445,18.1504951
"37","ChIJN5g_1flx2zARCVt59NO-FM4","กายสิทธิ์ คอฟฟี่,Guyyasit coffee",NA,NA,"OK","THA.10_1","THA","Thailand","Chiang Mai","NA","จังหวัดเชียงใหม่","Changwat","Province","50","TH.CM","TH-50",98.3719454,18.1064924
"38","ChIJLVueFrtx2zARD8lguRNYXzI","Manmok cafe",4.5,32,"OK","THA.10_1","THA","Thailand","Chiang Mai","NA","จังหวัดเชียงใหม่","Changwat","Province","50","TH.CM","TH-50",98.3754307,18.1099318
"38","ChIJkR-hPQBx2zAR_3ltdIsP9Dw","Coffee ชูใจ",NA,NA,"OK","THA.10_1","THA","Thailand","Chiang Mai","NA","จังหวัดเชียงใหม่","Changwat","Province","50","TH.CM","TH-50",98.3745852,18.1045711
"38","ChIJ78PF2Uxx2zARnyUd2k7Rstg","Forget Me Not Cafe",NA,NA,"OK","THA.10_1","THA","Thailand","Chiang Mai","NA","จังหวัดเชียงใหม่","Changwat","Province","50","TH.CM","TH-50",98.3731646,18.1061711
"38","ChIJH3UG6Jdx2zAR5yWS0mQmpSc","Pang-Pang",NA,NA,"OK","THA.10_1","THA","Thailand","Chiang Mai","NA","จังหวัดเชียงใหม่","Changwat","Province","50","TH.CM","TH-50",98.3706368,18.141094
"38","ChIJt5LIkp1x2zARXC43rlWylpo","กิวลมกาแฟสด",NA,NA,"OK","THA.10_1","THA","Thailand","Chiang Mai","NA","จังหวัดเชียงใหม่","Changwat","Province","50","TH.CM","TH-50",98.3706368,18.141094
"38","ChIJq3B-riFp2zAR3FCRMuJOlo0","กาแฟสวนสน coffee&rest",4.6,65,"OK","THA.10_1","THA","Thailand","Chiang Mai","NA","จังหวัดเชียงใหม่","Changwat","Province","50","TH.CM","TH-50",98.3860351,18.1554182
"38","ChIJT9nv4epz2zARPKB1_P-IST4","ฮิมสน คาเฟ่",4.3,4,"OK","THA.10_1","THA","Thailand","Chiang Mai","NA","จังหวัดเชียงใหม่","Changwat","Province","50","TH.CM","TH-50",98.3861477,18.1555203
"38","ChIJk_OxwVVz2zARaxegQEH2oKE","Tea hut",5,1,"OK","THA.10_1","THA","Thailand","Chiang Mai","NA","จังหวัดเชียงใหม่","Changwat","Province","50","TH.CM","TH-50",98.3884116,18.1568512
"39","ChIJY7k7DKab2zARoHzW0Cxxo7E","ลานกาแฟแม่จ๊อม วิวดอย",3,2,"OK","THA.10_1","THA","Thailand","Chiang Mai","NA","จังหวัดเชียงใหม่","Changwat","Province","50","TH.CM","TH-50",98.6020301,18.1328767
"39","ChIJFeP3PDib2zAROQh8uJi3Qn0","ร้านน่านั่ง'Hod Cafe",NA,NA,"OK","THA.10_1","THA","Thailand","Chiang Mai","NA","จังหวัดเชียงใหม่","Changwat","Province","50","TH.CM","TH-50",98.59157239999999,18.09975859999999
"39","ChIJnZI_kQ-a2zARIh8cLZM7aek","Punpnom&Coffee",5,1,"OK","THA.10_1","THA","Thailand","Chiang Mai","NA","จังหวัดเชียงใหม่","Changwat","Province","50","TH.CM","TH-50",98.6409888,18.1248307
"39","ChIJFddzLLWZ2zARBnzc5Bvn0Yw","จันทร์สมการค้า (อินทร์-แก้ว การ์เด้นท์)",5,2,"OK","THA.10_1","THA","Thailand","Chiang Mai","NA","จังหวัดเชียงใหม่","Changwat","Province","50","TH.CM","TH-50",98.6024602,18.150003
"39","ChIJE4N4ujmZ2zARhtVClqosHKQ","น้ำปั่นป้าน้อยแม่ทัง",4.7,7,"OK","THA.10_1","THA","Thailand","Chiang Mai","NA","จังหวัดเชียงใหม่","Changwat","Province","50","TH.CM","TH-50",98.6045364,18.1557818
"39","ChIJLZCLKRua2zAR_HNfwpVCBiI","กึดเติงกาแฟ (Kud-Teing Kafe’)",4.6,16,"OK","THA.10_1","THA","Thailand","Chiang Mai","NA","จังหวัดเชียงใหม่","Changwat","Province","50","TH.CM","TH-50",98.64858269999999,18.1293246
"39","ChIJKU3jzFyZ2zARz1bn5fIMfuA","บ้าน อ.กาแฟ บ้านแม่ทัง",4.6,20,"OK","THA.10_1","THA","Thailand","Chiang Mai","NA","จังหวัดเชียงใหม่","Changwat","Province","50","TH.CM","TH-50",98.6053635,18.1575484
"41","ChIJZRslztFt2zAR0fHA8dZj9pU","เก๊าไม้ Kaomai",NA,NA,"OK","THA.10_1","THA","Thailand","Chiang Mai","NA","จังหวัดเชียงใหม่","Changwat","Province","50","TH.CM","TH-50",98.2431747,18.1792804
"41","ChIJz5sA1pxt2zARg6HdXGoe_yk","มาหา คาเฟ่",5,1,"OK","THA.10_1","THA","Thailand","Chiang Mai","NA","จังหวัดเชียงใหม่","Changwat","Province","50","TH.CM","TH-50",98.2431747,18.1792804
"44","ChIJa7sAg6t12zARtk_zY7OenyU","Chertam Coffee (กาแฟสดออบหลวง)",4.6,5,"OK","THA.10_1","THA","Thailand","Chiang Mai","NA","จังหวัดเชียงใหม่","Changwat","Province","50","TH.CM","TH-50",98.4820191,18.2225575
"44","ChIJRwC3bACf2zARbWXPvUZhVGk","ออนเดอะเวย์ สาขาตลาดสดฮอด",NA,NA,"OK","THA.10_1","THA","Thailand","Chiang Mai","NA","จังหวัดเชียงใหม่","Changwat","Province","50","TH.CM","TH-50",98.5062007,18.1678057
"46","ChIJM2zpkBqZ2zARGtuGCDt9Zog","100%CoffeeSlowbar",5,2,"OK","THA.10_1","THA","Thailand","Chiang Mai","NA","จังหวัดเชียงใหม่","Changwat","Province","50","TH.CM","TH-50",98.61229589999999,18.1888332
"46","ChIJM0ZOLACZ2zARpXHvvX4FIHc","สมุทตี้ผลไม้ปั่น",NA,NA,"OK","THA.10_1","THA","Thailand","Chiang Mai","NA","จังหวัดเชียงใหม่","Changwat","Province","50","TH.CM","TH-50",98.6125644,18.1862966
"46","ChIJj14r6nGZ2zAR7dvXI1-pbFM","มังกี้ชา สาขาฮอด",5,1,"OK","THA.10_1","THA","Thailand","Chiang Mai","NA","จังหวัดเชียงใหม่","Changwat","Province","50","TH.CM","TH-50",98.6129424,18.1862952
"46","ChIJ1ccmZYGZ2zARc-JSOXPuVj4","ต ตีม Cafe",NA,NA,"OK","THA.10_1","THA","Thailand","Chiang Mai","NA","จังหวัดเชียงใหม่","Changwat","Province","50","TH.CM","TH-50",98.61295,18.1862917
"46","ChIJdT9elAqZ2zARMY8f8NiRqTY","ชาบะเก๋า สาขาฮอด",5,1,"OK","THA.10_1","THA","Thailand","Chiang Mai","NA","จังหวัดเชียงใหม่","Changwat","Province","50","TH.CM","TH-50",98.6123733,18.1906914
"46","ChIJRaCTFyWZ2zAR240Cr_En6bM","ร้านปะกั๋นกาแฟสด",NA,NA,"OK","THA.10_1","THA","Thailand","Chiang Mai","NA","จังหวัดเชียงใหม่","Changwat","Province","50","TH.CM","TH-50",98.6122364,18.1917046
"46","ChIJOSHzknyZ2zARBtKRzkYG3w4","Fresh Coffee กาแฟสดริมทาง",5,1,"OK","THA.10_1","THA","Thailand","Chiang Mai","NA","จังหวัดเชียงใหม่","Changwat","Province","50","TH.CM","TH-50",98.61266169999999,18.1832844
"46","ChIJnaQW8fuY2zARHxw-4OQ5tlQ","Cafe Sut Chai",NA,NA,"OK","THA.10_1","THA","Thailand","Chiang Mai","NA","จังหวัดเชียงใหม่","Changwat","Province","50","TH.CM","TH-50",98.6096535,18.1930461
"46","ChIJqUxu3w2Z2zARAaPm9PQUZeA","BEARRYCOFFEE",4.8,4,"OK","THA.10_1","THA","Thailand","Chiang Mai","NA","จังหวัดเชียงใหม่","Changwat","Province","50","TH.CM","TH-50",98.6090323,18.1929679
"46","ChIJQ8J2MACZ2zARlxRZmW0NNk0","ร้านน้ำปั่นน้องชินจัง",5,2,"OK","THA.10_1","THA","Thailand","Chiang Mai","NA","จังหวัดเชียงใหม่","Changwat","Province","50","TH.CM","TH-50",98.61271520000001,18.1829576
"46","ChIJmd-0mBiZ2zARif5goK0b1as","MIZU 24",4.8,37,"OK","THA.10_1","THA","Thailand","Chiang Mai","NA","จังหวัดเชียงใหม่","Changwat","Province","50","TH.CM","TH-50",98.6112924,18.1936613
"46","ChIJ3aZt_JeZ2zARuB3naCL8NNo","หอมกาแฟฮอด",NA,NA,"OK","THA.10_1","THA","Thailand","Chiang Mai","NA","จังหวัดเชียงใหม่","Changwat","Province","50","TH.CM","TH-50",98.608863,18.1933946
"46","ChIJxXbEkmiZ2zARsHPazpPyZMQ","Good Morning Hod",4.6,91,"OK","THA.10_1","THA","Thailand","Chiang Mai","NA","จังหวัดเชียงใหม่","Changwat","Province","50","TH.CM","TH-50",98.6074038,18.1928433
"46","ChIJdc0-UACZ2zARLHJqkjZ5UJ4","มิราเคิลตลาดสดฮอด",5,1,"OK","THA.10_1","THA","Thailand","Chiang Mai","NA","จังหวัดเชียงใหม่","Changwat","Province","50","TH.CM","TH-50",98.6118915,18.1942541
"46","ChIJzRc3EACZ2zARv4Gwz6GKYic","ออนเดอะเวย์ สาขาฮอด",5,1,"OK","THA.10_1","THA","Thailand","Chiang Mai","NA","จังหวัดเชียงใหม่","Changwat","Province","50","TH.CM","TH-50",98.6117776,18.1945822
"46","ChIJSal2OP6Z2zARnva8xquPNYg","Café Amazon",3.5,15,"OK","THA.10_1","THA","Thailand","Chiang Mai","NA","จังหวัดเชียงใหม่","Changwat","Province","50","TH.CM","TH-50",98.6071604,18.193639
"46","ChIJ5x6WMACZ2zARf7N8inUly7c","ร้านเหยิม น้ำชง รวมมิตร #TheTANA Market ฮอด",NA,NA,"OK","THA.10_1","THA","Thailand","Chiang Mai","NA","จังหวัดเชียงใหม่","Changwat","Province","50","TH.CM","TH-50",98.6124183,18.1946742
"46","ChIJlZf2lUqZ2zAR0JtHYjqkqi0","Over1199cafe",4.8,16,"OK","THA.10_1","THA","Thailand","Chiang Mai","NA","จังหวัดเชียงใหม่","Changwat","Province","50","TH.CM","TH-50",98.60803480000001,18.1945881
"46","ChIJ7baX74KZ2zARR6eT9_kw-LQ","ครัวป้าอี๊ด",4.5,8,"OK","THA.10_1","THA","Thailand","Chiang Mai","NA","จังหวัดเชียงใหม่","Changwat","Province","50","TH.CM","TH-50",98.61376109999999,18.1808997
"46","ChIJJWKi5eKZ2zARExq4K-wkwcY","ร้านเอ๋กะอิ๋ง",4.3,3,"OK","THA.10_1","THA","Thailand","Chiang Mai","NA","จังหวัดเชียงใหม่","Changwat","Province","50","TH.CM","TH-50",98.60387349999999,18.1932773
"46","ChIJgxiku_2Z2zARvUZJax7PCjQ","ซุ้ม​กาแฟ​ฮอด​ฮิต",NA,NA,"OK","THA.10_1","THA","Thailand","Chiang Mai","NA","จังหวัดเชียงใหม่","Changwat","Province","50","TH.CM","TH-50",98.61200559999999,18.1973607
"46","ChIJZ7YMCgCZ2zARBuv5Y0k_I3Y","SMILE COFFEE",5,1,"OK","THA.10_1","THA","Thailand","Chiang Mai","NA","จังหวัดเชียงใหม่","Changwat","Province","50","TH.CM","TH-50",98.6204967,18.1810346
"46","ChIJ_02JN-SY2zARegkpFaaNrHg","กาแฟสดบ้านสวน ฮอด",3.9,49,"OK","THA.10_1","THA","Thailand","Chiang Mai","NA","จังหวัดเชียงใหม่","Changwat","Province","50","TH.CM","TH-50",98.600781,18.1951719
"46","ChIJbY3X0dKZ2zAR9SFocNuDCHQ","คิดฮอดcoffee",NA,NA,"OK","THA.10_1","THA","Thailand","Chiang Mai","NA","จังหวัดเชียงใหม่","Changwat","Province","50","TH.CM","TH-50",98.61341639999999,18.20000899999999
"46","ChIJe4_QaACZ2zARQi1WrghNaS0","ญอ‘หญิงคาเฟ่",NA,NA,"OK","THA.10_1","THA","Thailand","Chiang Mai","NA","จังหวัดเชียงใหม่","Changwat","Province","50","TH.CM","TH-50",98.625103,18.1819115
"46","ChIJD5ZGc9qZ2zARB1TgUpJGEVI","ร้าน ปั่นปั่นกาแฟสด",5,1,"OK","THA.10_1","THA","Thailand","Chiang Mai","NA","จังหวัดเชียงใหม่","Changwat","Province","50","TH.CM","TH-50",98.6154176,18.2072909
"46","ChIJXWa6BQCZ2zARPbU2WQQ7gbQ","baan_sabyejai (บ้านสบายใจ)",5,42,"OK","THA.10_1","THA","Thailand","Chiang Mai","NA","จังหวัดเชียงใหม่","Changwat","Province","50","TH.CM","TH-50",98.6187514,18.2072636
"46","ChIJaQe8ZACZ2zARyN801J_GwRM","บ้านสบายใจ",5,3,"OK","THA.10_1","THA","Thailand","Chiang Mai","NA","จังหวัดเชียงใหม่","Changwat","Province","50","TH.CM","TH-50",98.61874689999999,18.2072836
"46","ChIJyUCttwiZ2zARPQ-XqgVhkTo","ร้านฮิมตาง",NA,NA,"OK","THA.10_1","THA","Thailand","Chiang Mai","NA","จังหวัดเชียงใหม่","Changwat","Province","50","TH.CM","TH-50",98.5961567,18.2031614
"46","ChIJM1khEe6Z2zAR1sMupppAwgg","ร้านกาแฟสดมิราเคิลท่าข้าม-ฮอด",4.9,7,"OK","THA.10_1","THA","Thailand","Chiang Mai","NA","จังหวัดเชียงใหม่","Changwat","Province","50","TH.CM","TH-50",98.6161012,18.2090746
"46","ChIJQbDnQLSZ2zARJT9IqEBVCtE","ริตา ชาเฟ่",NA,NA,"OK","THA.10_1","THA","Thailand","Chiang Mai","NA","จังหวัดเชียงใหม่","Changwat","Province","50","TH.CM","TH-50",98.6092037,18.165749
"46","ChIJlzw4AjGZ2zAR0mZ3aqZaIGE","No.309 cafe'",NA,NA,"OK","THA.10_1","THA","Thailand","Chiang Mai","NA","จังหวัดเชียงใหม่","Changwat","Province","50","TH.CM","TH-50",98.6131276,18.2109483
"46","ChIJcahuBm-Z2zAR9t0kysTqSKE","Coffee​ CONS.",4.5,41,"OK","THA.10_1","THA","Thailand","Chiang Mai","NA","จังหวัดเชียงใหม่","Changwat","Province","50","TH.CM","TH-50",98.615937,18.2106815
"46","ChIJQVpSQgCZ2zARMtA7LumC_bk","ร้านกาแฟสด",NA,NA,"OK","THA.10_1","THA","Thailand","Chiang Mai","NA","จังหวัดเชียงใหม่","Changwat","Province","50","TH.CM","TH-50",98.62011,18.2108317
"46","ChIJvf-_AACZ2zARFWGOtWmBwTQ","Café Amazon คาเฟ่ อเมซอน ปตท.บ้านแปะ",4.8,4,"OK","THA.10_1","THA","Thailand","Chiang Mai","NA","จังหวัดเชียงใหม่","Changwat","Province","50","TH.CM","TH-50",98.61618039999999,18.2166005
"46","ChIJvSY6zomY2zARThhxLQcwuaU","A’sey A’sey coffee",4.4,7,"OK","THA.10_1","THA","Thailand","Chiang Mai","NA","จังหวัดเชียงใหม่","Changwat","Province","50","TH.CM","TH-50",98.6156027,18.2172062
"46","ChIJgThe54mY2zARw4b8no-Ftvo","ไร่เอกเขนก",4.8,56,"OK","THA.10_1","THA","Thailand","Chiang Mai","NA","จังหวัดเชียงใหม่","Changwat","Province","50","TH.CM","TH-50",98.61560659999999,18.2172411
"46","ChIJJVIT33aZ2zARMBRnVu_1leU","Kenya Coffee & Bistro",4.8,6,"OK","THA.10_1","THA","Thailand","Chiang Mai","NA","จังหวัดเชียงใหม่","Changwat","Province","50","TH.CM","TH-50",98.6203772,18.21836
"46","ChIJ7UxiDwCZ2zARU6jjlMzXFt8","U.BAAN CAFE",5,3,"OK","THA.10_1","THA","Thailand","Chiang Mai","NA","จังหวัดเชียงใหม่","Changwat","Province","50","TH.CM","TH-50",98.623173,18.224649
"48","ChIJadqAV8hr2zARyAdBhsYanr8","Grandma Fong",4.6,16,"OK","THA.10_1","THA","Thailand","Chiang Mai","NA","จังหวัดเชียงใหม่","Changwat","Province","50","TH.CM","TH-50",98.193151,18.24995599999999
"48","ChIJ8-74agAV2zAR9YL3wkfXV6g","พักกาย ลิตเติ้ลคาเฟ่",NA,NA,"OK","THA.10_1","THA","Thailand","Chiang Mai","NA","จังหวัดเชียงใหม่","Changwat","Province","50","TH.CM","TH-50",98.2004742,18.2519298
"48","ChIJEXriRVpt2zARGavhQaM6mfw","ร้านชำ กอฮาย แมโถ",4.8,5,"OK","THA.10_1","THA","Thailand","Chiang Mai","NA","จังหวัดเชียงใหม่","Changwat","Province","50","TH.CM","TH-50",98.20056849999999,18.2519266
"49","ChIJAbIzAw8N2zARkD3FfoOdADU","ภูเสือคาเฟ่",NA,NA,"OK","THA.10_1","THA","Thailand","Chiang Mai","NA","จังหวัดเชียงใหม่","Changwat","Province","50","TH.CM","TH-50",98.3878074,18.2745984
"49","ChIJTw6ReZAM2zAR2DluacYqTCs","กาแฟสด @ริมแจ่ม",3.9,29,"OK","THA.10_1","THA","Thailand","Chiang Mai","NA","จังหวัดเชียงใหม่","Changwat","Province","50","TH.CM","TH-50",98.3849006,18.2768664
"49","ChIJYcEzZx8N2zAR5QX-YWssl_Q","Riverside อมขูด กาแฟสด",4.4,18,"OK","THA.10_1","THA","Thailand","Chiang Mai","NA","จังหวัดเชียงใหม่","Changwat","Province","50","TH.CM","TH-50",98.3834423,18.2773154
"49","ChIJEw-gWAAN2zARThqNklhjJFU","ชื่นใจคาเฟ่ แม่แจ่ม",NA,NA,"OK","THA.10_1","THA","Thailand","Chiang Mai","NA","จังหวัดเชียงใหม่","Changwat","Province","50","TH.CM","TH-50",98.3820255,18.2773634
"51","ChIJbWekEu2j2zARym5ZBLzXOMQ","กาแฟโบราณ สาขาถ้ำตอง",4.4,14,"OK","THA.10_1","THA","Thailand","Chiang Mai","NA","จังหวัดเชียงใหม่","Changwat","Province","50","TH.CM","TH-50",98.60407250000002,18.2422618
"51","ChIJM4SggBmj2zARulq0SpU3ZT0","ร้านฮิมตาง By Pack Yam",4.5,2,"OK","THA.10_1","THA","Thailand","Chiang Mai","NA","จังหวัดเชียงใหม่","Changwat","Province","50","TH.CM","TH-50",98.59519039999999,18.251643
"51","ChIJySlyC_ij2zARF_N2rDEFFMw","Klai Chan Cafe",4.7,42,"OK","THA.10_1","THA","Thailand","Chiang Mai","NA","จังหวัดเชียงใหม่","Changwat","Province","50","TH.CM","TH-50",98.6007865,18.2422589
"51","ChIJBY_qWa-j2zART7TRwEUyv-g","ช่อลดา",5,1,"OK","THA.10_1","THA","Thailand","Chiang Mai","NA","จังหวัดเชียงใหม่","Changwat","Province","50","TH.CM","TH-50",98.6060507,18.2393153
"51","ChIJyxX9T6Wj2zARZTU2tFkVzu8","White love cafe",4.9,11,"OK","THA.10_1","THA","Thailand","Chiang Mai","NA","จังหวัดเชียงใหม่","Changwat","Province","50","TH.CM","TH-50",98.60711649999999,18.2382107
"51","ChIJPYcP-Hii2zARS-TLA7-vDFs","SMILE CAFE",5,1,"OK","THA.10_1","THA","Thailand","Chiang Mai","NA","จังหวัดเชียงใหม่","Changwat","Province","50","TH.CM","TH-50",98.6078557,18.2360892
"51","ChIJe0EdEoKY2zARRt9074GHecM","กาแฟสดห้วยทราย",3.4,7,"OK","THA.10_1","THA","Thailand","Chiang Mai","NA","จังหวัดเชียงใหม่","Changwat","Province","50","TH.CM","TH-50",98.60953549999999,18.2329759
"51","ChIJGQSmyUKj2zAR-GeP_pzyvQI","ฮิลใจ 2",NA,NA,"OK","THA.10_1","THA","Thailand","Chiang Mai","NA","จังหวัดเชียงใหม่","Changwat","Province","50","TH.CM","TH-50",98.6400299,18.2897499
"51","ChIJVdr7W5ij2zARAC7Va6BEf5M","Kick off Cafe'",NA,NA,"OK","THA.10_1","THA","Thailand","Chiang Mai","NA","จังหวัดเชียงใหม่","Changwat","Province","50","TH.CM","TH-50",98.64081259999999,18.2895248
"51","ChIJw3IHPbuj2zARUkE2aPHoBe4","N & Y Love Cafe",5,3,"OK","THA.10_1","THA","Thailand","Chiang Mai","NA","จังหวัดเชียงใหม่","Changwat","Province","50","TH.CM","TH-50",98.64146459999999,18.28965
"52","ChIJoR3-x-m92zARJkulYE_AnqM","NACK MOKAPOT Coffee รอนานการกาแฟ",5,5,"OK","THA.10_1","THA","Thailand","Chiang Mai","NA","จังหวัดเชียงใหม่","Changwat","Province","50","TH.CM","TH-50",98.6616176,18.2788941
"52","ChIJj7e9v4Kj2zARO51jM_aU4Xk","ฮิมปิง คาเฟ่",4.4,10,"OK","THA.10_1","THA","Thailand","Chiang Mai","NA","จังหวัดเชียงใหม่","Changwat","Province","50","TH.CM","TH-50",98.6542422,18.2811063
"52","ChIJc3v2yPSj2zARvLDeOzA8Xa0","Dlim Coffee",5,5,"OK","THA.10_1","THA","Thailand","Chiang Mai","NA","จังหวัดเชียงใหม่","Changwat","Province","50","TH.CM","TH-50",98.6532582,18.2908036
"53","ChIJ3SABlpsN2zARRc55ZiPa6zs","Khunya coffee",4.8,48,"OK","THA.10_1","THA","Thailand","Chiang Mai","NA","จังหวัดเชียงใหม่","Changwat","Province","50","TH.CM","TH-50",98.3619689,18.3284921
"55","ChIJQ11dj8cL2zARL_fizwIZrTo","Khunpae Corner",5,1,"OK","THA.10_1","THA","Thailand","Chiang Mai","NA","จังหวัดเชียงใหม่","Changwat","Province","50","TH.CM","TH-50",98.47737389999999,18.3224309
"55","ChIJcR8psOwL2zARAvMX6Wayydw","ร้าน คีรีคอฟฟี่เฮ้าส์ Kiri Coffee House",NA,NA,"OK","THA.10_1","THA","Thailand","Chiang Mai","NA","จังหวัดเชียงใหม่","Changwat","Province","50","TH.CM","TH-50",98.4797664,18.3136251
"55","ChIJOw1ehocL2zARFfX635J7CWg","กาแฟสดร้านนายเอส",5,1,"OK","THA.10_1","THA","Thailand","Chiang Mai","NA","จังหวัดเชียงใหม่","Changwat","Province","50","TH.CM","TH-50",98.47205830000001,18.3093682
"55","ChIJu7DQ1eYL2zAR4cJKZJN7boI","Khunpae Coffee กาแฟขุนแปะ",4.9,21,"OK","THA.10_1","THA","Thailand","Chiang Mai","NA","จังหวัดเชียงใหม่","Changwat","Province","50","TH.CM","TH-50",98.4764215,18.3082639
"56","ChIJNXNhafan2zAR2774d-rA33E","Zovsiab coffee (ซอเซี๊ยะ คอฟฟี่)",5,3,"OK","THA.10_1","THA","Thailand","Chiang Mai","NA","จังหวัดเชียงใหม่","Changwat","Province","50","TH.CM","TH-50",98.5720803,18.3441272
"56","ChIJs11nzPin2zARIOyt4uD_zA8","ร้าน ล้านเล่าคาเฟ่",4,2,"OK","THA.10_1","THA","Thailand","Chiang Mai","NA","จังหวัดเชียงใหม่","Changwat","Province","50","TH.CM","TH-50",98.57114329999999,18.3471367
"56","ChIJ896UYR6l2zARkDa7bOmm4VA","ดูเมืองคาเฟ่",5,1,"OK","THA.10_1","THA","Thailand","Chiang Mai","NA","จังหวัดเชียงใหม่","Changwat","Province","50","TH.CM","TH-50",98.5721355,18.3476011
"57","ChIJr0Ou5T6j2zARoh0NFiTdg08","ร้านฮิมตาง กาแฟสด",4,2,"OK","THA.10_1","THA","Thailand","Chiang Mai","NA","จังหวัดเชียงใหม่","Changwat","Province","50","TH.CM","TH-50",98.64240269999999,18.2973707
"57","ChIJ29aCfgCl2zARj5_ijhin23g","เพียงเธอ coffee",NA,NA,"OK","THA.10_1","THA","Thailand","Chiang Mai","NA","จังหวัดเชียงใหม่","Changwat","Province","50","TH.CM","TH-50",98.62706279999999,18.3388417
"57","ChIJ4cc2eJSj2zAR1ijB4s3_MbI","Chayanan Slow bar Coffee",NA,NA,"OK","THA.10_1","THA","Thailand","Chiang Mai","NA","จังหวัดเชียงใหม่","Changwat","Province","50","TH.CM","TH-50",98.6400857,18.298121
"57","ChIJf-LVO42j2zARcKxWzdaqMrw","Thee house cafe",4.9,8,"OK","THA.10_1","THA","Thailand","Chiang Mai","NA","จังหวัดเชียงใหม่","Changwat","Province","50","TH.CM","TH-50",98.6372524,18.2933567
"57","ChIJGawJHKOj2zAROr-ncvwlW6U","APA Coffee",4.5,6,"OK","THA.10_1","THA","Thailand","Chiang Mai","NA","จังหวัดเชียงใหม่","Changwat","Province","50","TH.CM","TH-50",98.6428007,18.2948294
"57","ChIJI6hVmyaj2zARXL1mW439jJY","Cornetto Cafe' & Bistro",4.2,10,"OK","THA.10_1","THA","Thailand","Chiang Mai","NA","จังหวัดเชียงใหม่","Changwat","Province","50","TH.CM","TH-50",98.64233159999999,18.29337169999999
"57","ChIJEXnlpTmj2zARypkgo5eiTgg","ร้านชุมพรคาเฟ่ Chumphon cafe จอมทอง เชียงใหม่",5,9,"OK","THA.10_1","THA","Thailand","Chiang Mai","NA","จังหวัดเชียงใหม่","Changwat","Province","50","TH.CM","TH-50",98.6430393,18.2931031
"58","ChIJHXElF9432jARjlAmLPsUwGA","ร้าน มาย์ มิ้นท์ ขนมจีน 3️⃣น้ำ",NA,NA,"OK","THA.10_1","THA","Thailand","Chiang Mai","NA","จังหวัดเชียงใหม่","Changwat","Province","50","TH.CM","TH-50",98.67581829999999,18.3349225
"58","ChIJYVBwDwC72zARMzca7-8TieU","ใกล้ฉันคาเฟ่",NA,NA,"OK","THA.10_1","THA","Thailand","Chiang Mai","NA","จังหวัดเชียงใหม่","Changwat","Province","50","TH.CM","TH-50",98.6758885,18.3349029
"58","ChIJw2UrVbm72zARb_p4bLFdhPk","ANAN Cafe'",NA,NA,"OK","THA.10_1","THA","Thailand","Chiang Mai","NA","จังหวัดเชียงใหม่","Changwat","Province","50","TH.CM","TH-50",98.6774571,18.3394641
"58","ChIJQ8iHJwC72zARQC8sUBxYrb0","กาแฟมาดาม",4,1,"OK","THA.10_1","THA","Thailand","Chiang Mai","NA","จังหวัดเชียงใหม่","Changwat","Province","50","TH.CM","TH-50",98.6817694,18.3388974
"58","ChIJnbuKT3yj2zARAKdpuP2S2yo","Cafe’s Bar",5,1,"OK","THA.10_1","THA","Thailand","Chiang Mai","NA","จังหวัดเชียงใหม่","Changwat","Province","50","TH.CM","TH-50",98.65752429999999,18.3130995
"58","ChIJ7cPnMQC72zARiC1lAjGWIzQ","ชา-เวล Coffee",5,2,"OK","THA.10_1","THA","Thailand","Chiang Mai","NA","จังหวัดเชียงใหม่","Changwat","Province","50","TH.CM","TH-50",98.6802246,18.3469243
"58","ChIJ0eR6NNC72zARCxozXhEeX04","แฟกัน คอฟฟี่ & ส้มตำ",NA,NA,"OK","THA.10_1","THA","Thailand","Chiang Mai","NA","จังหวัดเชียงใหม่","Changwat","Province","50","TH.CM","TH-50",98.6859906,18.3477842
"58","ChIJyf6tegC72zAR6fqjcBvkTws","Z’zela Cha",NA,NA,"OK","THA.10_1","THA","Thailand","Chiang Mai","NA","จังหวัดเชียงใหม่","Changwat","Province","50","TH.CM","TH-50",98.6792009,18.352059
"58","ChIJXXaGRgC72zARb1NUc3V8jMg","พะโส coffee",NA,NA,"OK","THA.10_1","THA","Thailand","Chiang Mai","NA","จังหวัดเชียงใหม่","Changwat","Province","50","TH.CM","TH-50",98.68678399999999,18.348053
"58","ChIJB_xHfz272zARQqdRRA_37k8","ชาบ้านน้อย Cha Ban Noi",NA,NA,"OK","THA.10_1","THA","Thailand","Chiang Mai","NA","จังหวัดเชียงใหม่","Changwat","Province","50","TH.CM","TH-50",98.6901384,18.3466235
"58","ChIJHf9H3wi72zARABO77Ce4c_g","Somboonsub coffee",5,5,"OK","THA.10_1","THA","Thailand","Chiang Mai","NA","จังหวัดเชียงใหม่","Changwat","Province","50","TH.CM","TH-50",98.69140209999999,18.3471392
"58","ChIJTxjl8my72zARFbwFnhT32KY","At Here Cafe'",4.8,25,"OK","THA.10_1","THA","Thailand","Chiang Mai","NA","จังหวัดเชียงใหม่","Changwat","Province","50","TH.CM","TH-50",98.6771306,18.3597871
"58","ChIJsZJIfwC72zARFbDbNmZcbr8","ร้านชา-เวล",NA,NA,"OK","THA.10_1","THA","Thailand","Chiang Mai","NA","จังหวัดเชียงใหม่","Changwat","Province","50","TH.CM","TH-50",98.69694419999999,18.3460963
"59","ChIJeW3xTQAP2zARzncC3GNgO0A","BANDOI CAFE (บ้านดอย คาเฟ่)",5,6,"OK","THA.10_1","THA","Thailand","Chiang Mai","NA","จังหวัดเชียงใหม่","Changwat","Province","50","TH.CM","TH-50",98.3850006,18.4273632
"59","ChIJ4YkLIgAJ2zARbdKwIMI5bRE","เฮือนกาแฟ@โม่งหลวง",NA,NA,"OK","THA.10_1","THA","Thailand","Chiang Mai","NA","จังหวัดเชียงใหม่","Changwat","Province","50","TH.CM","TH-50",98.4308679,18.36261889999999
"60","ChIJJ1gfHACn2zARVgzQxN50rqI","Doi Matters coffee",NA,NA,"OK","THA.10_1","THA","Thailand","Chiang Mai","NA","จังหวัดเชียงใหม่","Changwat","Province","50","TH.CM","TH-50",98.5008762,18.3956775
"60","ChIJQZQJeVan2zARa-5i88aIkvQ","Khuntae Arabica",4.4,8,"OK","THA.10_1","THA","Thailand","Chiang Mai","NA","จังหวัดเชียงใหม่","Changwat","Province","50","TH.CM","TH-50",98.5027095,18.3940893
"60","ChIJq5ZS3HGn2zAR-tDUfVTZGVQ","ร้านกาแฟดอยขุนแตะ",4.6,8,"OK","THA.10_1","THA","Thailand","Chiang Mai","NA","จังหวัดเชียงใหม่","Changwat","Province","50","TH.CM","TH-50",98.50736549999999,18.39008
"61","ChIJdddEMUOn2zARh2q7cj7MCss","Khun Pho Coffee and House",4.8,48,"OK","THA.10_1","THA","Thailand","Chiang Mai","NA","จังหวัดเชียงใหม่","Changwat","Province","50","TH.CM","TH-50",98.5321136,18.3788456
"61","ChIJgfN_Cv2m2zARUFeWNSjJ8_Q","เฮือนกาแฟby ห้วยส้มป่อย",3.7,3,"OK","THA.10_1","THA","Thailand","Chiang Mai","NA","จังหวัดเชียงใหม่","Changwat","Province","50","TH.CM","TH-50",98.52971029999999,18.3697049
"61","ChIJJf3JIVyn2zARRHUzoXjJN6U","Zer the cafe",5,8,"OK","THA.10_1","THA","Thailand","Chiang Mai","NA","จังหวัดเชียงใหม่","Changwat","Province","50","TH.CM","TH-50",98.519481,18.3655683
"62","ChIJmf-PBgCl2zARIK9ix_LQr5o","บ้านสานฝันปันสุข Life Coffee & Cacao",5,1,"OK","THA.10_1","THA","Thailand","Chiang Mai","NA","จังหวัดเชียงใหม่","Changwat","Province","50","TH.CM","TH-50",98.6448473,18.402101
"62","ChIJKyf2g4-l2zARmc4cGIumPKs","หลงกาแฟ คาเฟ่ (แม่เตี๊ยะ)",5,2,"OK","THA.10_1","THA","Thailand","Chiang Mai","NA","จังหวัดเชียงใหม่","Changwat","Province","50","TH.CM","TH-50",98.6488838,18.4069018
"62","ChIJU73rGZ6l2zARDFyZs2bde_g","หลองข้าวคอฟฟี่ By คุณตา",5,1,"OK","THA.10_1","THA","Thailand","Chiang Mai","NA","จังหวัดเชียงใหม่","Changwat","Province","50","TH.CM","TH-50",98.6497247,18.40579439999999
"62","ChIJpSHiYQCl2zARwiXa1DUnK1E","กาแฟริมทาง",NA,NA,"OK","THA.10_1","THA","Thailand","Chiang Mai","NA","จังหวัดเชียงใหม่","Changwat","Province","50","TH.CM","TH-50",98.65115809999999,18.404027
"62","ChIJHwjuefql2zARRb9Sj4bdoLw","กาแฟ เก๊าไม้ สัก Kao Mia Sak Coffee",5,1,"OK","THA.10_1","THA","Thailand","Chiang Mai","NA","จังหวัดเชียงใหม่","Changwat","Province","50","TH.CM","TH-50",98.65266749999999,18.4074258
"63","ChIJt9EUeaa62zARBDvQgOswFsA","Cafe De Doikaeo คาเฟ่ เดอ ดอยแก้ว",4.4,22,"OK","THA.10_1","THA","Thailand","Chiang Mai","NA","จังหวัดเชียงใหม่","Changwat","Province","50","TH.CM","TH-50",98.67278850000001,18.4141707
"63","ChIJhQgxEAqw2zARS_W8ChCKMmk","NGEGGEE เง็กกี",4.5,769,"OK","THA.10_1","THA","Thailand","Chiang Mai","NA","จังหวัดเชียงใหม่","Changwat","Province","50","TH.CM","TH-50",98.67699979999999,18.4203961
"63","ChIJQUWFa3Sw2zARStaK6n-k4lQ","Darint coffee house ดารินทร์คอฟฟี่เฮาส์ ร้านกาแฟจอมทอง",4.5,26,"OK","THA.10_1","THA","Thailand","Chiang Mai","NA","จังหวัดเชียงใหม่","Changwat","Province","50","TH.CM","TH-50",98.6857814,18.4231785
"63","ChIJ-WX7MXy62zARdq99rixeprM","Inthanin Coffee and Restaurant",5,1,"OK","THA.10_1","THA","Thailand","Chiang Mai","NA","จังหวัดเชียงใหม่","Changwat","Province","50","TH.CM","TH-50",98.6838358,18.431068
"63","ChIJo9vMGBSw2zAR4K0D8WWSrUI","Kobkit Loft Coffee and Dessert",5,4,"OK","THA.10_1","THA","Thailand","Chiang Mai","NA","จังหวัดเชียงใหม่","Changwat","Province","50","TH.CM","TH-50",98.67690929999999,18.437932
"63","ChIJ_R8QoF272zARgEv-ZgYScCo","05'Coffee",5,1,"OK","THA.10_1","THA","Thailand","Chiang Mai","NA","จังหวัดเชียงใหม่","Changwat","Province","50","TH.CM","TH-50",98.6750108,18.4008314
"63","ChIJQQ7zob-62zARORooIBW8tno","กาแฟสดภูสะเรียงจอมทอง",5,1,"OK","THA.10_1","THA","Thailand","Chiang Mai","NA","จังหวัดเชียงใหม่","Changwat","Province","50","TH.CM","TH-50",98.6796279,18.396831
"63","ChIJBa_A_b272zARRRwn6tQ53uc","ชามะเก๋า@จอมทอง",4.8,4,"OK","THA.10_1","THA","Thailand","Chiang Mai","NA","จังหวัดเชียงใหม่","Changwat","Province","50","TH.CM","TH-50",98.67872899999999,18.398927
"63","ChIJa9qQ-aK72zARCZk9UryL80Q","CHA LUM DEE ชาลำดี by ตัว น. พอใจ",NA,NA,"OK","THA.10_1","THA","Thailand","Chiang Mai","NA","จังหวัดเชียงใหม่","Changwat","Province","50","TH.CM","TH-50",98.6788976,18.3885931
"63","ChIJg2xAijm72zARwbD59s_Qbwg","Monniicoffee",NA,NA,"OK","THA.10_1","THA","Thailand","Chiang Mai","NA","จังหวัดเชียงใหม่","Changwat","Province","50","TH.CM","TH-50",98.6793125,18.3885625
"63","ChIJbzUpRQC72zAR-o44983uuTI","กาแฟ M8 Coffee Road สาขา2",4.5,2,"OK","THA.10_1","THA","Thailand","Chiang Mai","NA","จังหวัดเชียงใหม่","Changwat","Province","50","TH.CM","TH-50",98.67622539999999,18.4032278
"63","ChIJm22Jcyq72zARZhWrTN4KgcI","314 Cafe CNX",4.7,3,"OK","THA.10_1","THA","Thailand","Chiang Mai","NA","จังหวัดเชียงใหม่","Changwat","Province","50","TH.CM","TH-50",98.67567969999999,18.4041865
"63","ChIJX_nQUQC72zARJTTBixyawEQ","Glam cafe and bistro",NA,NA,"OK","THA.10_1","THA","Thailand","Chiang Mai","NA","จังหวัดเชียงใหม่","Changwat","Province","50","TH.CM","TH-50",98.675326,18.405
"63","ChIJNcVoVLy72zAR01MCn5r6DuU","ชาฮิมตาง 108",NA,NA,"OK","THA.10_1","THA","Thailand","Chiang Mai","NA","จังหวัดเชียงใหม่","Changwat","Province","50","TH.CM","TH-50",98.67559999999999,18.4052832
"63","ChIJ74uhyeC72zARIEj4sUg9hsM","คอฟฟี่วิธเลิฟ",NA,NA,"OK","THA.10_1","THA","Thailand","Chiang Mai","NA","จังหวัดเชียงใหม่","Changwat","Province","50","TH.CM","TH-50",98.6748568,18.4055696
"63","ChIJR0cKkjm72zARzV7pxgUrYwA","กาแฟพันธุ์ไทย สาขาโรงพยาบาลจอมทอง",5,2,"OK","THA.10_1","THA","Thailand","Chiang Mai","NA","จังหวัดเชียงใหม่","Changwat","Province","50","TH.CM","TH-50",98.6740378,18.4066035
"63","ChIJo70ju7G72zAREs2F5cdJzTk","ฮิมเหมือง กาแฟ",4.9,15,"OK","THA.10_1","THA","Thailand","Chiang Mai","NA","จังหวัดเชียงใหม่","Changwat","Province","50","TH.CM","TH-50",98.6795868,18.405471
"63","ChIJS0Owe0ul2zART31clFvipfU","House of learning and visibility",4.7,7,"OK","THA.10_1","THA","Thailand","Chiang Mai","NA","จังหวัดเชียงใหม่","Changwat","Province","50","TH.CM","TH-50",98.65777299999999,18.401646
"63","ChIJ0RpDK_i72zARYhxPGtvH6gw","70 พาณิชย์",4.8,5,"OK","THA.10_1","THA","Thailand","Chiang Mai","NA","จังหวัดเชียงใหม่","Changwat","Province","50","TH.CM","TH-50",98.6741749,18.4111353
"63","ChIJC4l6W9y72zARvI0QE8fkOTc","Must try coffee",4.8,12,"OK","THA.10_1","THA","Thailand","Chiang Mai","NA","จังหวัดเชียงใหม่","Changwat","Province","50","TH.CM","TH-50",98.6745878,18.41288699999999
"63","ChIJB58gdQC72zARs1C7j7atcWM","ขุนแตะ อาราบิก้า",NA,NA,"OK","THA.10_1","THA","Thailand","Chiang Mai","NA","จังหวัดเชียงใหม่","Changwat","Province","50","TH.CM","TH-50",98.67365249999999,18.4133171
"63","ChIJs6dpQOe72zARK01fhCJyWB8","Vienna Coffee",NA,NA,"OK","THA.10_1","THA","Thailand","Chiang Mai","NA","จังหวัดเชียงใหม่","Changwat","Province","50","TH.CM","TH-50",98.6667324,18.4148679
"63","ChIJ3ZSHXwC72zARr-DchPzEzcY","Coff River",5,2,"OK","THA.10_1","THA","Thailand","Chiang Mai","NA","จังหวัดเชียงใหม่","Changwat","Province","50","TH.CM","TH-50",98.6696003,18.4157926
"63","ChIJW4DODwC72zARgcjxsBvaisM","พันธุ์ไทย ดอยแก้ว",4.7,3,"OK","THA.10_1","THA","Thailand","Chiang Mai","NA","จังหวัดเชียงใหม่","Changwat","Province","50","TH.CM","TH-50",98.67582809999999,18.4155125
"63","ChIJSUFRhU272zARK2cNA0UBdsM","Café Amazon สาขาข้างไปรษณีย์จอมทอง",3.7,10,"OK","THA.10_1","THA","Thailand","Chiang Mai","NA","จังหวัดเชียงใหม่","Changwat","Province","50","TH.CM","TH-50",98.67609329999999,18.4158736
"63","ChIJ1f77Qbi72zARpsM6AkPp8x0","coffee-1993",NA,NA,"OK","THA.10_1","THA","Thailand","Chiang Mai","NA","จังหวัดเชียงใหม่","Changwat","Province","50","TH.CM","TH-50",98.6882759,18.3784283
"63","ChIJZQsNzqG62zARZF7PCv-kKI4","Young Folk Bean & Brew",4.6,313,"OK","THA.10_1","THA","Thailand","Chiang Mai","NA","จังหวัดเชียงใหม่","Changwat","Province","50","TH.CM","TH-50",98.681412,18.4151452
"63","ChIJXwC66rS72zARbr5_I8yO8iw","กาแฟข้างบ้าน Next Door Cafe",4.3,4,"OK","THA.10_1","THA","Thailand","Chiang Mai","NA","จังหวัดเชียงใหม่","Changwat","Province","50","TH.CM","TH-50",98.6734551,18.417341
"63","ChIJI4hkdAC72zARSjxYCa2ov50","ชาเย็นอย่างเดียว",5,1,"OK","THA.10_1","THA","Thailand","Chiang Mai","NA","จังหวัดเชียงใหม่","Changwat","Province","50","TH.CM","TH-50",98.6784773,18.4167021
"63","ChIJTXCFMgCx2zARUg_WWEmKjXU","Erawan cannabis",NA,NA,"OK","THA.10_1","THA","Thailand","Chiang Mai","NA","จังหวัดเชียงใหม่","Changwat","Province","50","TH.CM","TH-50",98.6775012,18.4175815
"63","ChIJZSby-HO72zARInV-p_CHxG8","ต้าโป่ง Cafe'",4,8,"OK","THA.10_1","THA","Thailand","Chiang Mai","NA","จังหวัดเชียงใหม่","Changwat","Province","50","TH.CM","TH-50",98.673625,18.4184492
"63","ChIJr-9Do6C62zARHIaArvEBBgA","Inthanon Coffee Road",4.7,43,"OK","THA.10_1","THA","Thailand","Chiang Mai","NA","จังหวัดเชียงใหม่","Changwat","Province","50","TH.CM","TH-50",98.6776546,18.4182375
"63","ChIJoW3oMQC72zARyypjkHIA3-U","บ้านซอ คาเฟ่",5,2,"OK","THA.10_1","THA","Thailand","Chiang Mai","NA","จังหวัดเชียงใหม่","Changwat","Province","50","TH.CM","TH-50",98.67475619999999,18.4188507
"63","ChIJDQ6s8l-72zARYJRhMFCuKeo","M.4 Coffee Slowbar",NA,NA,"OK","THA.10_1","THA","Thailand","Chiang Mai","NA","จังหวัดเชียงใหม่","Changwat","Province","50","TH.CM","TH-50",98.6979415,18.3972735
"63","ChIJucQzhAqw2zARf3B8-lnnfYs","Coffee Garden Chom Thong",4.3,74,"OK","THA.10_1","THA","Thailand","Chiang Mai","NA","จังหวัดเชียงใหม่","Changwat","Province","50","TH.CM","TH-50",98.67995789999999,18.4193345
"63","ChIJm2z5FQCx2zARGTOUpMAs-4k","NIRIN Coffee ขนมปังปิ้ง",NA,NA,"OK","THA.10_1","THA","Thailand","Chiang Mai","NA","จังหวัดเชียงใหม่","Changwat","Province","50","TH.CM","TH-50",98.6781192,18.4204175
"63","ChIJUaylP2Ox2zARsD35OgD-itY","BANANA.STORY.CAFE",4.4,5,"OK","THA.10_1","THA","Thailand","Chiang Mai","NA","จังหวัดเชียงใหม่","Changwat","Province","50","TH.CM","TH-50",98.6768623,18.4210406
"63","ChIJYxFtRgqw2zARQp5C2SCTreg","กาแฟโบราณต๋าดำ",5,1,"OK","THA.10_1","THA","Thailand","Chiang Mai","NA","จังหวัดเชียงใหม่","Changwat","Province","50","TH.CM","TH-50",98.67822939999999,18.4209759
"63","ChIJuSpQDACx2zARwuVA8kiPEbk","ตรอก คาเฟ่",5,1,"OK","THA.10_1","THA","Thailand","Chiang Mai","NA","จังหวัดเชียงใหม่","Changwat","Province","50","TH.CM","TH-50",98.677837,18.421591
"63","ChIJB--SAaSx2zARNKbokAu3qww","nornnuea @ inthanon Hotel Hostel & Cafe",4.7,55,"OK","THA.10_1","THA","Thailand","Chiang Mai","NA","จังหวัดเชียงใหม่","Changwat","Province","50","TH.CM","TH-50",98.6782822,18.4214863
"63","ChIJj--mO7Kx2zARjacRMTrwSQ0","Nornnuea cafe",4.5,16,"OK","THA.10_1","THA","Thailand","Chiang Mai","NA","จังหวัดเชียงใหม่","Changwat","Province","50","TH.CM","TH-50",98.6782913,18.4215025
"63","ChIJe_DltdCx2zAR4tsUzBZq3rs","Viva Cafe",NA,NA,"OK","THA.10_1","THA","Thailand","Chiang Mai","NA","จังหวัดเชียงใหม่","Changwat","Province","50","TH.CM","TH-50",98.6764487,18.42266
"63","ChIJiSXmMgCx2zARKvIy71qC5wQ","On The Way Cafe",4.7,9,"OK","THA.10_1","THA","Thailand","Chiang Mai","NA","จังหวัดเชียงใหม่","Changwat","Province","50","TH.CM","TH-50",98.6789072,18.422249
"63","ChIJIfx7agCx2zAR0GpALWTS2G8","CREAMMY MATCHA",5,9,"OK","THA.10_1","THA","Thailand","Chiang Mai","NA","จังหวัดเชียงใหม่","Changwat","Province","50","TH.CM","TH-50",98.6758474,18.4231893
"63","ChIJL7HCMQCx2zART_bDTe44Qck","Duck coffee",4,1,"OK","THA.10_1","THA","Thailand","Chiang Mai","NA","จังหวัดเชียงใหม่","Changwat","Province","50","TH.CM","TH-50",98.6763503,18.4240718
"63","ChIJd8XEAH2x2zARTHtnZjf2FKc","ชามุกคิวบิ",4.8,5,"OK","THA.10_1","THA","Thailand","Chiang Mai","NA","จังหวัดเชียงใหม่","Changwat","Province","50","TH.CM","TH-50",98.6763424,18.4241031
"63","ChIJGSywVQC72zARzbEAdGdwICg","Coconut Coffee ท่าหลุก ตอมทอง",5,1,"OK","THA.10_1","THA","Thailand","Chiang Mai","NA","จังหวัดเชียงใหม่","Changwat","Province","50","TH.CM","TH-50",98.7006658,18.4055008
"63","ChIJGcP3DgC72zARXVFzl0M9u8M","NUEA COFFEE",NA,NA,"OK","THA.10_1","THA","Thailand","Chiang Mai","NA","จังหวัดเชียงใหม่","Changwat","Province","50","TH.CM","TH-50",98.70190679999999,18.4035533
"63","ChIJR1uMZKux2zARboHriqsQ1Qc","ร้านอะโวคาโดคาเฟ่ จอมทอง",NA,NA,"OK","THA.10_1","THA","Thailand","Chiang Mai","NA","จังหวัดเชียงใหม่","Changwat","Province","50","TH.CM","TH-50",98.67563829999999,18.42616
"63","ChIJN0LGow6w2zARZRRtY60YCNQ","เติมเต็มกาแฟ",5,1,"OK","THA.10_1","THA","Thailand","Chiang Mai","NA","จังหวัดเชียงใหม่","Changwat","Province","50","TH.CM","TH-50",98.6761475,18.4260865
"63","ChIJgXhmbbWx2zARKwBHTIpEMfQ","ASIA.coffee(เอเชีย)",NA,NA,"OK","THA.10_1","THA","Thailand","Chiang Mai","NA","จังหวัดเชียงใหม่","Changwat","Province","50","TH.CM","TH-50",98.6802767,18.4253767
"63","ChIJbV1NpEex2zARamhoyThDafY","ร้านอะโวคาโด้ cafe' จอมทอง",3.8,4,"OK","THA.10_1","THA","Thailand","Chiang Mai","NA","จังหวัดเชียงใหม่","Changwat","Province","50","TH.CM","TH-50",98.6759109,18.4265016
"63","ChIJqYCV1YCx2zAROuoP4q11CzU","บ้านขนมเล็กเล็ก",3.8,4,"OK","THA.10_1","THA","Thailand","Chiang Mai","NA","จังหวัดเชียงใหม่","Changwat","Province","50","TH.CM","TH-50",98.6774947,18.4267115
"63","ChIJG2VG_DOx2zARAxipSOF8Zck","Cocoa Factory",4,1,"OK","THA.10_1","THA","Thailand","Chiang Mai","NA","จังหวัดเชียงใหม่","Changwat","Province","50","TH.CM","TH-50",98.68106829999999,18.4260144
"64","ChIJW1DxCgAb2zARnAVlpGoWlxg","Sprite Cofee [สไปรท์คอฟฟี่]",5,1,"OK","THA.10_1","THA","Thailand","Chiang Mai","NA","จังหวัดเชียงใหม่","Changwat","Province","50","TH.CM","TH-50",98.30541529999999,18.4636888
"65","ChIJ9aub0DUE2zARt8lHEq6blFA","Kanom Nud",4.6,79,"OK","THA.10_1","THA","Thailand","Chiang Mai","NA","จังหวัดเชียงใหม่","Changwat","Province","50","TH.CM","TH-50",98.37666030000001,18.485044
"65","ChIJu0KEzU4G2zARZgZhPoousFA","Payak Coffee",4.5,4,"OK","THA.10_1","THA","Thailand","Chiang Mai","NA","จังหวัดเชียงใหม่","Changwat","Province","50","TH.CM","TH-50",98.4328457,18.45959019999999
"65","ChIJo4RMu8oF2zAR5M7yTRhiXRc","กาแฟสดบ้านกองแขก",4,3,"OK","THA.10_1","THA","Thailand","Chiang Mai","NA","จังหวัดเชียงใหม่","Changwat","Province","50","TH.CM","TH-50",98.39265669999999,18.4446833
"65","ChIJhTb_2WwF2zAR04XbfcFWuno","ริมทาง คาเฟ่",5,1,"OK","THA.10_1","THA","Thailand","Chiang Mai","NA","จังหวัดเชียงใหม่","Changwat","Province","50","TH.CM","TH-50",98.3925052,18.4371611
"65","ChIJT0jIs3EH2zARC1UCVh1e6gQ","บ้านสวนคำปันแม่แจ่ม(คาเฟ่ สวนอาหาร)",4.9,24,"OK","THA.10_1","THA","Thailand","Chiang Mai","NA","จังหวัดเชียงใหม่","Changwat","Province","50","TH.CM","TH-50",98.3742649,18.4798765
"65","ChIJxcLpHjgF2zAR5clGk-LGEE8","ร้านก๋วยเตี๋ยวอัมไพร @ เมาหวานกาแฟสด",5,3,"OK","THA.10_1","THA","Thailand","Chiang Mai","NA","จังหวัดเชียงใหม่","Changwat","Province","50","TH.CM","TH-50",98.3806518,18.4847241
"65","ChIJsVkyMgAF2zARlZnos8Agw1M","สถานียิ้มหวาน",NA,NA,"OK","THA.10_1","THA","Thailand","Chiang Mai","NA","จังหวัดเชียงใหม่","Changwat","Province","50","TH.CM","TH-50",98.3823233,18.48592
"65","ChIJmYljEgkF2zARq1SNkqX0AK4","Travel Hub Mae Chaem",4.8,96,"OK","THA.10_1","THA","Thailand","Chiang Mai","NA","จังหวัดเชียงใหม่","Changwat","Province","50","TH.CM","TH-50",98.3776931,18.4878998
"65","ChIJZe6EWwAF2zAR8bPnp0iNxmM","Rattanakorn Coffee House",4.8,4,"OK","THA.10_1","THA","Thailand","Chiang Mai","NA","จังหวัดเชียงใหม่","Changwat","Province","50","TH.CM","TH-50",98.3694524,18.4846176
"65","ChIJZY597DAF2zARs5v2-OrRg3k","Thetinyhousecoffeemaechaem",5,9,"OK","THA.10_1","THA","Thailand","Chiang Mai","NA","จังหวัดเชียงใหม่","Changwat","Province","50","TH.CM","TH-50",98.3759147,18.492984
"65","ChIJr_XGbAsF2zARkGFjjwvlrac","หางบ้านคาเฟ่",5,1,"OK","THA.10_1","THA","Thailand","Chiang Mai","NA","จังหวัดเชียงใหม่","Changwat","Province","50","TH.CM","TH-50",98.3666102,18.4873379
"65","ChIJgUUicAAF2zARgdlqXhTZXYw","ครัวบ้านสวน",4.5,17,"OK","THA.10_1","THA","Thailand","Chiang Mai","NA","จังหวัดเชียงใหม่","Changwat","Province","50","TH.CM","TH-50",98.3749157,18.4942077
"65","ChIJudRwVwAF2zARtlgWWpZl4WE","Payak Coffee",4.9,13,"OK","THA.10_1","THA","Thailand","Chiang Mai","NA","จังหวัดเชียงใหม่","Changwat","Province","50","TH.CM","TH-50",98.3748627,18.49437709999999
"65","ChIJzcD9y1kF2zAR8mu6_7HRm2o","มีใจ - MEJAI Cafe&Craft",4.4,8,"OK","THA.10_1","THA","Thailand","Chiang Mai","NA","จังหวัดเชียงใหม่","Changwat","Province","50","TH.CM","TH-50",98.3660044,18.4884921
"65","ChIJffLzDgAF2zARY3gdV-h8LI8","ณัฐธิชา Coffe’e",NA,NA,"OK","THA.10_1","THA","Thailand","Chiang Mai","NA","จังหวัดเชียงใหม่","Changwat","Province","50","TH.CM","TH-50",98.3805017,18.4979945
"65","ChIJiQMfEZcF2zARsBT5pkP5k3Q","panrak cafe'",NA,NA,"OK","THA.10_1","THA","Thailand","Chiang Mai","NA","จังหวัดเชียงใหม่","Changwat","Province","50","TH.CM","TH-50",98.3649908,18.4904869
"65","ChIJoaBZBXQD2zARhVBi3jjn-AQ","Yada coffee shop",5,2,"OK","THA.10_1","THA","Thailand","Chiang Mai","NA","จังหวัดเชียงใหม่","Changwat","Province","50","TH.CM","TH-50",98.37923599999999,18.48445
"67","ChIJpeZT28Gv2zARWMKeESi0KRM","กาแฟสดแม่กลางหลวง",NA,NA,"OK","THA.10_1","THA","Thailand","Chiang Mai","NA","จังหวัดเชียงใหม่","Changwat","Province","50","TH.CM","TH-50",98.616067,18.468785
"67","ChIJ_TbAT_yv2zARS6mwK9AkvwU","ร้านฮิมดอยอินท์&coffee",NA,NA,"OK","THA.10_1","THA","Thailand","Chiang Mai","NA","จังหวัดเชียงใหม่","Changwat","Province","50","TH.CM","TH-50",98.61606739999999,18.4687853
"67","ChIJK62regCv2zARDR7pXM6QUU8","ชงชา คอฟฟี่",NA,NA,"OK","THA.10_1","THA","Thailand","Chiang Mai","NA","จังหวัดเชียงใหม่","Changwat","Province","50","TH.CM","TH-50",98.59899209999999,18.4394421
"68","ChIJI6k0LcWx2zARMkkJcIyjiEQ","Chamcah Coffee Intanon km.6",4.4,16,"OK","THA.10_1","THA","Thailand","Chiang Mai","NA","จังหวัดเชียงใหม่","Changwat","Province","50","TH.CM","TH-50",98.67111949999999,18.4803993
"68","ChIJg7Zoym6x2zAR3FINUNE8Cig","Good Morning Coffee หน้าวิลัยจอมทอง",NA,NA,"OK","THA.10_1","THA","Thailand","Chiang Mai","NA","จังหวัดเชียงใหม่","Changwat","Province","50","TH.CM","TH-50",98.6756436,18.458134
"68","ChIJa_HDKkWx2zARfiN4d9ekBNw","ร้านพิงภูเขา คอฟฟี่",4.1,69,"OK","THA.10_1","THA","Thailand","Chiang Mai","NA","จังหวัดเชียงใหม่","Changwat","Province","50","TH.CM","TH-50",98.6747091,18.4501129
"68","ChIJP61_RXow2jARZ3DLBAjgbDk","T Table Inthanon",4.2,35,"OK","THA.10_1","THA","Thailand","Chiang Mai","NA","จังหวัดเชียงใหม่","Changwat","Province","50","TH.CM","TH-50",98.6756834,18.4472015
"68","ChIJ2WvlXQ2x2zARv1llN8bRLRU","Cannaweed Club Chomthong-ผักเมาตีนดอย 大麻",5,26,"OK","THA.10_1","THA","Thailand","Chiang Mai","NA","จังหวัดเชียงใหม่","Changwat","Province","50","TH.CM","TH-50",98.6757039,18.4469891
"68","ChIJl6Cahb-x2zAREP0hFBey0OQ","บ จ ร . บาร์เจริญ",NA,NA,"OK","THA.10_1","THA","Thailand","Chiang Mai","NA","จังหวัดเชียงใหม่","Changwat","Province","50","TH.CM","TH-50",98.6771623,18.4452474
"68","ChIJQcrvjF6x2zARRqpXHQPDUn0","SUNDAY CAFE",5,1,"OK","THA.10_1","THA","Thailand","Chiang Mai","NA","จังหวัดเชียงใหม่","Changwat","Province","50","TH.CM","TH-50",98.67673789999999,18.4446889
"68","ChIJkXK0WEOw2zARTZnbey6a0JQ","Cupfee or tree",4.7,49,"OK","THA.10_1","THA","Thailand","Chiang Mai","NA","จังหวัดเชียงใหม่","Changwat","Province","50","TH.CM","TH-50",98.6920524,18.4475872
"68","ChIJoUUkt9Kx2zAR4y33gCUelXU","Gawala cafe",5,2,"OK","THA.10_1","THA","Thailand","Chiang Mai","NA","จังหวัดเชียงใหม่","Changwat","Province","50","TH.CM","TH-50",98.67743720000001,18.4425468
"68","ChIJHSTpODix2zAR-a-DIxbgDcY","เก๊าข่อยกาแฟสด",NA,NA,"OK","THA.10_1","THA","Thailand","Chiang Mai","NA","จังหวัดเชียงใหม่","Changwat","Province","50","TH.CM","TH-50",98.6945351,18.4478792
"68","ChIJfdkOSzmx2zARkGqVbmNGmQo","Nakoli foundation",NA,NA,"OK","THA.10_1","THA","Thailand","Chiang Mai","NA","จังหวัดเชียงใหม่","Changwat","Province","50","TH.CM","TH-50",98.6815785,18.4414108
"68","ChIJvXwTwaex2zAReywLT7wGcX8","Tawakahve Coffee Roastery",4.8,103,"OK","THA.10_1","THA","Thailand","Chiang Mai","NA","จังหวัดเชียงใหม่","Changwat","Province","50","TH.CM","TH-50",98.69330289999999,18.4458179
"68","ChIJMVzWXgix2zARm_cCjUThi1k","Phu Pha Garden",4.4,14,"OK","THA.10_1","THA","Thailand","Chiang Mai","NA","จังหวัดเชียงใหม่","Changwat","Province","50","TH.CM","TH-50",98.6736032,18.4785061
"68","ChIJbTXVMcSx2zARyOdflyfTmJk","The Farmer coffee & farm stay",4.5,32,"OK","THA.10_1","THA","Thailand","Chiang Mai","NA","จังหวัดเชียงใหม่","Changwat","Province","50","TH.CM","TH-50",98.6612815,18.4510432
"68","ChIJIURH6qKx2zAR2Kt6imqhEts","TongLuangInthanon Cafe โต้งหลวงอินทนนท์ คาเฟ่",4.4,7,"OK","THA.10_1","THA","Thailand","Chiang Mai","NA","จังหวัดเชียงใหม่","Changwat","Province","50","TH.CM","TH-50",98.682801,18.438728
"68","ChIJdZok5A-x2zARHVXwSlr7JM0","ร้านกาแฟเก๊าบะหนุน",5,1,"OK","THA.10_1","THA","Thailand","Chiang Mai","NA","จังหวัดเชียงใหม่","Changwat","Province","50","TH.CM","TH-50",98.66738959999999,18.4785503
"68","ChIJOYnfm-6x2zARIKVbxyb9TGA","Vanlife Coffee Camp",5,3,"OK","THA.10_1","THA","Thailand","Chiang Mai","NA","จังหวัดเชียงใหม่","Changwat","Province","50","TH.CM","TH-50",98.6796059,18.4370564
"68","ChIJSY3SexSw2zARiarTZgf6lhc","Stang-สตางค์-Food Coffee Snowice",4.4,91,"OK","THA.10_1","THA","Thailand","Chiang Mai","NA","จังหวัดเชียงใหม่","Changwat","Province","50","TH.CM","TH-50",98.6789379,18.43687869999999
"68","ChIJKyxh8tCx2zARB5soTUNtGn8","LER",NA,NA,"OK","THA.10_1","THA","Thailand","Chiang Mai","NA","จังหวัดเชียงใหม่","Changwat","Province","50","TH.CM","TH-50",98.67885749999999,18.4366885
"68","ChIJHTYTi7Cx2zARHoxRzcrZR6M","Suda cafe",5,2,"OK","THA.10_1","THA","Thailand","Chiang Mai","NA","จังหวัดเชียงใหม่","Changwat","Province","50","TH.CM","TH-50",98.679597,18.4366427
"68","ChIJxVJSiBOw2zAROYRv-tfEBcA","ร้าน ภูเทียน กาแฟโคตรโบราณ",4.7,14,"OK","THA.10_1","THA","Thailand","Chiang Mai","NA","จังหวัดเชียงใหม่","Changwat","Province","50","TH.CM","TH-50",98.6785872,18.436422
"68","ChIJUb1K_nex2zARE-pfU7fOP88","Wanwaan Cafe",4.9,50,"OK","THA.10_1","THA","Thailand","Chiang Mai","NA","จังหวัดเชียงใหม่","Changwat","Province","50","TH.CM","TH-50",98.6632509,18.4785604
"68","ChIJI7SeOsi72zARzaTbFkz5zsc","กาแฟโคฮี コーヒーcoffee by kero.",4.6,57,"OK","THA.10_1","THA","Thailand","Chiang Mai","NA","จังหวัดเชียงใหม่","Changwat","Province","50","TH.CM","TH-50",98.681348,18.4352799
"68","ChIJC9RJnZGx2zARjwJd-nVyK68","กาแฟเยอะแยะ YerYae Cafe'",4.3,6,"OK","THA.10_1","THA","Thailand","Chiang Mai","NA","จังหวัดเชียงใหม่","Changwat","Province","50","TH.CM","TH-50",98.68648309999999,18.4357876
"68","ChIJbw3CeMix2zARBhZr-OS-vu8","Pearly​ Tea​",5,4,"OK","THA.10_1","THA","Thailand","Chiang Mai","NA","จังหวัดเชียงใหม่","Changwat","Province","50","TH.CM","TH-50",98.68757920000002,18.4358685
"68","ChIJ38ZEVWmw2zARy__Cp2G8FXY","Café Amazon",4.2,96,"OK","THA.10_1","THA","Thailand","Chiang Mai","NA","จังหวัดเชียงใหม่","Changwat","Province","50","TH.CM","TH-50",98.6877593,18.4358921
"68","ChIJW2_SOgix2zARLftOnqTUW8U","น้ำขม coffee",NA,NA,"OK","THA.10_1","THA","Thailand","Chiang Mai","NA","จังหวัดเชียงใหม่","Changwat","Province","50","TH.CM","TH-50",98.68203989999999,18.4342283
"68","ChIJecLov3Kx2zARpCj5gQb6gCA","Goodday cafe by dae",5,3,"OK","THA.10_1","THA","Thailand","Chiang Mai","NA","จังหวัดเชียงใหม่","Changwat","Province","50","TH.CM","TH-50",98.6851554,18.4341289
"68","ChIJ9-pM586x2zARVONmv4r4OLs","ราชากาแฟ Racha Cafe'",5,1,"OK","THA.10_1","THA","Thailand","Chiang Mai","NA","จังหวัดเชียงใหม่","Changwat","Province","50","TH.CM","TH-50",98.6846271,18.4334406
"68","ChIJkWDDYdyx2zARL1YzE4eCiTM","กาแฟหน้าร้าน",5,1,"OK","THA.10_1","THA","Thailand","Chiang Mai","NA","จังหวัดเชียงใหม่","Changwat","Province","50","TH.CM","TH-50",98.6856305,18.4335414
"68","ChIJ7cQhjPux2zARt1iMUaGcn2c","NICE COFFEE SELECTION",4.7,65,"OK","THA.10_1","THA","Thailand","Chiang Mai","NA","จังหวัดเชียงใหม่","Changwat","Province","50","TH.CM","TH-50",98.6780623,18.4331794
"68","ChIJoQyeeQCx2zARz4MYBrSU-1g","안녕 อันยองชา",NA,NA,"OK","THA.10_1","THA","Thailand","Chiang Mai","NA","จังหวัดเชียงใหม่","Changwat","Province","50","TH.CM","TH-50",98.6779607,18.4327557
"68","ChIJef64tYqx2zAR0bda3cnnyKM","คุณแม่ คอฟฟี่",NA,NA,"OK","THA.10_1","THA","Thailand","Chiang Mai","NA","จังหวัดเชียงใหม่","Changwat","Province","50","TH.CM","TH-50",98.6721219,18.4866637
"68","ChIJ7zJpywKx2zARi5sJXvs1riE","Senses Cafe & restaurant",4.5,46,"OK","THA.10_1","THA","Thailand","Chiang Mai","NA","จังหวัดเชียงใหม่","Changwat","Province","50","TH.CM","TH-50",98.6722032,18.4869332
"68","ChIJW6i7_Eex2zAR6vsrt-_RINA","AMORE COFFEE",4.8,4,"OK","THA.10_1","THA","Thailand","Chiang Mai","NA","จังหวัดเชียงใหม่","Changwat","Province","50","TH.CM","TH-50",98.6721819,18.4869309
"68","ChIJi9SgbgCx2zARkjXEF6aj2pw","จูต่งม็อก Ju-Thung-Mog",4.7,7,"OK","THA.10_1","THA","Thailand","Chiang Mai","NA","จังหวัดเชียงใหม่","Changwat","Province","50","TH.CM","TH-50",98.6739633,18.4328438
"68","ChIJh4Ba9Gux2zARJTRt94Mk4mU","ฮ่มกาแฟ",4.6,5,"OK","THA.10_1","THA","Thailand","Chiang Mai","NA","จังหวัดเชียงใหม่","Changwat","Province","50","TH.CM","TH-50",98.67835989999999,18.4321866
"68","ChIJQZbynxix2zARWaZz196HqCQ","The Pleasure Coffee",4.2,5,"OK","THA.10_1","THA","Thailand","Chiang Mai","NA","จังหวัดเชียงใหม่","Changwat","Province","50","TH.CM","TH-50",98.6697667,18.4863828
"68","ChIJ6wVkeSKx2zARytvTXIVigMI","ร้านอาหารคำปู้จู้คำเมือง (ใกล้ดอยอินทนนท์)​",4.4,5,"OK","THA.10_1","THA","Thailand","Chiang Mai","NA","จังหวัดเชียงใหม่","Changwat","Province","50","TH.CM","TH-50",98.6650695,18.43529699999999
"68","ChIJ-fWwQ22w2zARd-cVC5aUQhQ","นิ่มลีสซิ่ง สาขาแยกอินทนนท์",NA,NA,"OK","THA.10_1","THA","Thailand","Chiang Mai","NA","จังหวัดเชียงใหม่","Changwat","Province","50","TH.CM","TH-50",98.6831904,18.4314128
"68","ChIJ_X5NHNSx2zARcI0sRuHHMjU","กาแฟโรงสี",4.9,19,"OK","THA.10_1","THA","Thailand","Chiang Mai","NA","จังหวัดเชียงใหม่","Changwat","Province","50","TH.CM","TH-50",98.6785501,18.4309872
"68","ChIJPb569vax2zARQWolp5E4ZD8","Good morning coffee By Nikkie",5,1,"OK","THA.10_1","THA","Thailand","Chiang Mai","NA","จังหวัดเชียงใหม่","Changwat","Province","50","TH.CM","TH-50",98.6748811,18.4310045
"68","ChIJ-VZsY6Wx2zARtr8tThG9TsM","แก้มส้ม Kamsom Coffee",4.9,17,"OK","THA.10_1","THA","Thailand","Chiang Mai","NA","จังหวัดเชียงใหม่","Changwat","Province","50","TH.CM","TH-50",98.68286859999999,18.430184
"68","ChIJm6rGYgCx2zARtiRdZqch7As","ไก่น้อยค้างฮัง",NA,NA,"OK","THA.10_1","THA","Thailand","Chiang Mai","NA","จังหวัดเชียงใหม่","Changwat","Province","50","TH.CM","TH-50",98.67717359999999,18.4300533
"68","ChIJGW8ONCGx2zARP1QhT0bSst4","ခ်င္းမိုင္ လာ​ေဖ့",5,2,"OK","THA.10_1","THA","Thailand","Chiang Mai","NA","จังหวัดเชียงใหม่","Changwat","Province","50","TH.CM","TH-50",98.6803951,18.4298605
"68","ChIJMxQWQQCx2zARBjDZ-10mJmw","Large coffee ลาร์จคอฟฟี่ จอมอทอง",NA,NA,"OK","THA.10_1","THA","Thailand","Chiang Mai","NA","จังหวัดเชียงใหม่","Changwat","Province","50","TH.CM","TH-50",98.68117009999999,18.4296961
"68","ChIJRzhL6PCw2zARyTt7hCXhDbY","Papa's Home & Rabbit Cafe'",4.4,220,"OK","THA.10_1","THA","Thailand","Chiang Mai","NA","จังหวัดเชียงใหม่","Changwat","Province","50","TH.CM","TH-50",98.7110471,18.4506796
"68","ChIJi0uFtOyx2zARzeZLqIie7jA","Coffee like",4.5,2,"OK","THA.10_1","THA","Thailand","Chiang Mai","NA","จังหวัดเชียงใหม่","Changwat","Province","50","TH.CM","TH-50",98.67790869999999,18.4291744
"68","ChIJsUOqDACx2zARxNVULdQE55E","The Moon Coffee",NA,NA,"OK","THA.10_1","THA","Thailand","Chiang Mai","NA","จังหวัดเชียงใหม่","Changwat","Province","50","TH.CM","TH-50",98.6788336,18.4289503
"68","ChIJbzWRcQCx2zARhupwtcsItcI","นมปัง คาเฟ่ จอมทอง",NA,NA,"OK","THA.10_1","THA","Thailand","Chiang Mai","NA","จังหวัดเชียงใหม่","Changwat","Province","50","TH.CM","TH-50",98.6806198,18.428871
"68","ChIJT7vQNPSx2zARFfqMrQpv2ws","Espresso Martini CNX",4.7,183,"OK","THA.10_1","THA","Thailand","Chiang Mai","NA","จังหวัดเชียงใหม่","Changwat","Province","50","TH.CM","TH-50",98.6813849,18.4283754
"68","ChIJlwK8AACx2zARdnTYZR_V_Ns","STONE Roastery and Restaurant",4.8,32,"OK","THA.10_1","THA","Thailand","Chiang Mai","NA","จังหวัดเชียงใหม่","Changwat","Province","50","TH.CM","TH-50",98.7054016,18.4388435
"68","ChIJL35PsA2w2zAR6MuZyTy0aUY","Sweetcup",4.7,73,"OK","THA.10_1","THA","Thailand","Chiang Mai","NA","จังหวัดเชียงใหม่","Changwat","Province","50","TH.CM","TH-50",98.6785075,18.4282841
"68","ChIJ5Td91iSx2zARgjt2P998Dik","Scotland Yard Cafe'",5,4,"OK","THA.10_1","THA","Thailand","Chiang Mai","NA","จังหวัดเชียงใหม่","Changwat","Province","50","TH.CM","TH-50",98.6704857,18.4906746
"68","ChIJhc__TQCx2zAR3CASOc6Qduc","To You Cafe’ bar",NA,NA,"OK","THA.10_1","THA","Thailand","Chiang Mai","NA","จังหวัดเชียงใหม่","Changwat","Province","50","TH.CM","TH-50",98.682912,18.4281896
"68","ChIJ5XGJagCx2zARc_R9h4WGlAc","กาแฟมองดอย Montdoi",4.5,4,"OK","THA.10_1","THA","Thailand","Chiang Mai","NA","จังหวัดเชียงใหม่","Changwat","Province","50","TH.CM","TH-50",98.70879459999999,18.4423975
"69","ChIJUwm0tBi32zARms7zyAFzXRs","De Aerng Boutique Hotel",4.3,143,"OK","THA.10_1","THA","Thailand","Chiang Mai","NA","จังหวัดเชียงใหม่","Changwat","Province","50","TH.CM","TH-50",98.7748452,18.4581873
"69","ChIJdb_RFAC32zARthLGtEyBcVI","อ๊อปดอยหล่อ",NA,NA,"OK","THA.10_1","THA","Thailand","Chiang Mai","NA","จังหวัดเชียงใหม่","Changwat","Province","50","TH.CM","TH-50",98.7482728,18.4719009
"69","ChIJuejsufC32zARGwGDxOCdzQU","ศาลาน้อยกาแฟ",NA,NA,"OK","THA.10_1","THA","Thailand","Chiang Mai","NA","จังหวัดเชียงใหม่","Changwat","Province","50","TH.CM","TH-50",98.751291,18.4570775
"69","ChIJmfWLfnC32zAR1vZlxvM_aWE","Inthanin @ปั๊มน้ำมันบางจาก ดอยหล่อ เชียงใหม่",4.3,13,"OK","THA.10_1","THA","Thailand","Chiang Mai","NA","จังหวัดเชียงใหม่","Changwat","Province","50","TH.CM","TH-50",98.7521912,18.4516031
"69","ChIJP9Y9Uy232zARG3-SDPaz8WQ","ท่าลี่กาแฟสด Coffee Thali",4.1,14,"OK","THA.10_1","THA","Thailand","Chiang Mai","NA","จังหวัดเชียงใหม่","Changwat","Province","50","TH.CM","TH-50",98.7481581,18.4513387
"69","ChIJrfn47ne32zAR-nIv0RNu8MA","Joyrista Coffee",5,6,"OK","THA.10_1","THA","Thailand","Chiang Mai","NA","จังหวัดเชียงใหม่","Changwat","Province","50","TH.CM","TH-50",98.7544554,18.4511073
"69","ChIJJ6u3QQC32zARgdgangug4JY","ชาช้างไทย กาแฟสด",NA,NA,"OK","THA.10_1","THA","Thailand","Chiang Mai","NA","จังหวัดเชียงใหม่","Changwat","Province","50","TH.CM","TH-50",98.75539839999999,18.451156
"69","ChIJjwW_UwC32zARo43cDPh5H-w","ร้านกาแฟพันธ์ุไทย",NA,NA,"OK","THA.10_1","THA","Thailand","Chiang Mai","NA","จังหวัดเชียงใหม่","Changwat","Province","50","TH.CM","TH-50",98.754791,18.4507615
"69","ChIJlddelWm32zARSh1nIP8QK9U","M.8 Coffee Road",4.8,10,"OK","THA.10_1","THA","Thailand","Chiang Mai","NA","จังหวัดเชียงใหม่","Changwat","Province","50","TH.CM","TH-50",98.7567577,18.4512365
"69","ChIJZ8LrPtW32zARliYmfMocY7E","ร้านชาไทย พี่ยุ้ย",NA,NA,"OK","THA.10_1","THA","Thailand","Chiang Mai","NA","จังหวัดเชียงใหม่","Changwat","Province","50","TH.CM","TH-50",98.748162,18.4498994
"69","ChIJ_yBqfCK32zARmWVeC51wRBY","DOK JIK coffee homemade",5,1,"OK","THA.10_1","THA","Thailand","Chiang Mai","NA","จังหวัดเชียงใหม่","Changwat","Province","50","TH.CM","TH-50",98.7572521,18.4500665
"69","ChIJY7Qrby6x2zARugw61h9WgLs","JiNCOFFEE",4.6,38,"OK","THA.10_1","THA","Thailand","Chiang Mai","NA","จังหวัดเชียงใหม่","Changwat","Province","50","TH.CM","TH-50",98.7403559,18.4509365
"69","ChIJBx19JwC32zARY2-8hdIlKx8","Ma Sip Coffee",5,8,"OK","THA.10_1","THA","Thailand","Chiang Mai","NA","จังหวัดเชียงใหม่","Changwat","Province","50","TH.CM","TH-50",98.7685751,18.454092
"69","ChIJdZfqBwC32zAR2kak2jsQc4E","เติมหวาน☕",5,1,"OK","THA.10_1","THA","Thailand","Chiang Mai","NA","จังหวัดเชียงใหม่","Changwat","Province","50","TH.CM","TH-50",98.7699203,18.4554916
"69","ChIJCcbRWIq32zAR9lc2SAQkeBA","ไอซ์คอฟฟี่ โฮม",5,1,"OK","THA.10_1","THA","Thailand","Chiang Mai","NA","จังหวัดเชียงใหม่","Changwat","Province","50","TH.CM","TH-50",98.76976499999999,18.4542183
"69","ChIJFwJVQVrL2zARIFo0-2vPZTg","สถานีกาแฟ",4.5,2,"OK","THA.10_1","THA","Thailand","Chiang Mai","NA","จังหวัดเชียงใหม่","Changwat","Province","50","TH.CM","TH-50",98.76908739999999,18.4837824
"69","ChIJVZcDUAC32zARrhw12_aIPKU","ม.6 บ้านดอยหล่อ อ.ดอยหล่อ จ.เชียงใหม่",5,1,"OK","THA.10_1","THA","Thailand","Chiang Mai","NA","จังหวัดเชียงใหม่","Changwat","Province","50","TH.CM","TH-50",98.7740874,18.4525735
"69","ChIJ5_SBAACx2zARFkyhME0UeUc","2 2 7 Coffee",NA,NA,"OK","THA.10_1","THA","Thailand","Chiang Mai","NA","จังหวัดเชียงใหม่","Changwat","Province","50","TH.CM","TH-50",98.7281908,18.4518404
"69","ChIJ6xRlhIy32zARVEBuPN1TjF8","กาแฟโบราณก่อนด่านชั่ง",2.5,4,"OK","THA.10_1","THA","Thailand","Chiang Mai","NA","จังหวัดเชียงใหม่","Changwat","Province","50","TH.CM","TH-50",98.7785794,18.4610843
"69","ChIJp2SlEJO32zARRBg4XlqRZFk","ตาสว่างขาโต๊ะ& Coffee",NA,NA,"OK","THA.10_1","THA","Thailand","Chiang Mai","NA","จังหวัดเชียงใหม่","Changwat","Province","50","TH.CM","TH-50",98.7796822,18.4620637
"69","ChIJ1at3Fiq32zAR1K2L_rQRk0c","PHANSA COFFEE (พรรษา คอฟฟี่)",5,4,"OK","THA.10_1","THA","Thailand","Chiang Mai","NA","จังหวัดเชียงใหม่","Changwat","Province","50","TH.CM","TH-50",98.782929,18.4647456
"69","ChIJ83kMZcKx2zARVSysdmSbJ7w","ร้านกาแฟ มาลองคอฟฟี่",5,2,"OK","THA.10_1","THA","Thailand","Chiang Mai","NA","จังหวัดเชียงใหม่","Changwat","Province","50","TH.CM","TH-50",98.7202634,18.4514964
"69","ChIJaSGhQQS32zARHVpRMXXWyVk","Mountian guys cafe'",NA,NA,"OK","THA.10_1","THA","Thailand","Chiang Mai","NA","จังหวัดเชียงใหม่","Changwat","Province","50","TH.CM","TH-50",98.78503710000001,18.4534826
"69","ChIJaU6xawCx2zAR4pjCHoJYD0c","Phansa Coffee 3 - พรรษา คอฟฟี่ สาขา 3",5,1,"OK","THA.10_1","THA","Thailand","Chiang Mai","NA","จังหวัดเชียงใหม่","Changwat","Province","50","TH.CM","TH-50",98.78938029999999,18.4712759
"69","ChIJVWEm88ix2zARKZG-953sRE0","Land of Love - Pizza Cafe",4.7,36,"OK","THA.10_1","THA","Thailand","Chiang Mai","NA","จังหวัดเชียงใหม่","Changwat","Province","50","TH.CM","TH-50",98.7132472,18.4513223
"69","ChIJX6omW_Cw2zARSlMka2AOzzo","ร้านกาแฟข่วงเปาคอฟฟี่",3,3,"OK","THA.10_1","THA","Thailand","Chiang Mai","NA","จังหวัดเชียงใหม่","Changwat","Province","50","TH.CM","TH-50",98.7129552,18.4505821
"69","ChIJf85DV1Wx2zARcG0FjUqULOU","บ้านสรวลสุขคาเฟ่",5,3,"OK","THA.10_1","THA","Thailand","Chiang Mai","NA","จังหวัดเชียงใหม่","Changwat","Province","50","TH.CM","TH-50",98.71578060000002,18.4451283
"69","ChIJvfZqVAC32zARo54u2x1ycn0","ณอน เย็นเย็น คอฟฟี่",NA,NA,"OK","THA.10_1","THA","Thailand","Chiang Mai","NA","จังหวัดเชียงใหม่","Changwat","Province","50","TH.CM","TH-50",98.7943404,18.4562172
"69","ChIJ-wMHgJXL2zAR1HQz6ldQ5t0","Rin Gi Coffee bar รินกิ",4.9,12,"OK","THA.10_1","THA","Thailand","Chiang Mai","NA","จังหวัดเชียงใหม่","Changwat","Province","50","TH.CM","TH-50",98.79426130000002,18.4543426
"69","ChIJu_TwJQCx2zARJvQ2TdP_lZk","กาแฟฮิมปิง",NA,NA,"OK","THA.10_1","THA","Thailand","Chiang Mai","NA","จังหวัดเชียงใหม่","Changwat","Province","50","TH.CM","TH-50",98.71906849999999,18.4354223
"69","ChIJlbDBBOS32zARwhdNNn37gzk","นิ&นิ่ม​บ้านกาแฟ​",5,1,"OK","THA.10_1","THA","Thailand","Chiang Mai","NA","จังหวัดเชียงใหม่","Changwat","Province","50","TH.CM","TH-50",98.7888797,18.4899547
"70","ChIJUcG3FGm22zARMr8ykXHb1sg","Tatonyon Coffee&Cafe'",4.4,384,"OK","THA.10_1","THA","Thailand","Chiang Mai","NA","จังหวัดเชียงใหม่","Changwat","Province","50","TH.CM","TH-50",98.8073874,18.4876046
"70","ChIJdzsUe5232zARwk60Og2eVVs","ร้าน ดีดี คอฟฟี่ช็อป",3,1,"OK","THA.10_1","THA","Thailand","Chiang Mai","NA","จังหวัดเชียงใหม่","Changwat","Province","50","TH.CM","TH-50",98.8041346,18.4847343
"70","ChIJqxuZYgC32zARvboPpgfV77E","รถน้ำมะพร้าวนมปั่น",NA,NA,"OK","THA.10_1","THA","Thailand","Chiang Mai","NA","จังหวัดเชียงใหม่","Changwat","Province","50","TH.CM","TH-50",98.8047819,18.4851728
"70","ChIJuW6HegC32zARTXY0k1SdJ-w","มาจิมชา คอฟฟี่ - Majimcha Coffee",5,1,"OK","THA.10_1","THA","Thailand","Chiang Mai","NA","จังหวัดเชียงใหม่","Changwat","Province","50","TH.CM","TH-50",98.804715,18.48590429999999
"70","ChIJEdcwbn232zARW5ji2E4EWrE","ร้านHoneyกาแฟสด",NA,NA,"OK","THA.10_1","THA","Thailand","Chiang Mai","NA","จังหวัดเชียงใหม่","Changwat","Province","50","TH.CM","TH-50",98.8051153,18.4861756
"70","ChIJee5qSgC32zARueBGpBgmKFU","กาแฟสด &อาหาร by ครัวบ้านบ้าน",5,1,"OK","THA.10_1","THA","Thailand","Chiang Mai","NA","จังหวัดเชียงใหม่","Changwat","Province","50","TH.CM","TH-50",98.8074189,18.4872562
"70","ChIJz6d3vNXJ2zAR141C6z749QA","Shade of Brown Coffee Roaster",4.9,60,"OK","THA.10_1","THA","Thailand","Chiang Mai","NA","จังหวัดเชียงใหม่","Changwat","Province","50","TH.CM","TH-50",98.8203873,18.4721228
"70","ChIJtXTZDD232zARfejQWyz4uP0","ทะเลสาบดอยน้อยคอฟฟี่",NA,NA,"OK","THA.10_1","THA","Thailand","Chiang Mai","NA","จังหวัดเชียงใหม่","Changwat","Province","50","TH.CM","TH-50",98.8099683,18.4629464
"70","ChIJwdFOhFC32zAR98-7LF3OuGM","สถานีวิสกี้",4.7,3,"OK","THA.10_1","THA","Thailand","Chiang Mai","NA","จังหวัดเชียงใหม่","Changwat","Province","50","TH.CM","TH-50",98.81173030000001,18.4919155
"70","ChIJH9zXVg222zARfn7a0xRCZy8","พุทธรักษา แกลอรี คอฟฟี",4.7,53,"OK","THA.10_1","THA","Thailand","Chiang Mai","NA","จังหวัดเชียงใหม่","Changwat","Province","50","TH.CM","TH-50",98.8147417,18.4952617
"70","ChIJK7sz61C32zARsx56pXSqIPM","ยูคาCoffee",5,4,"OK","THA.10_1","THA","Thailand","Chiang Mai","NA","จังหวัดเชียงใหม่","Changwat","Province","50","TH.CM","TH-50",98.78805,18.4960231
"70","ChIJ65hbsgW32zARkv1vD3Y44V8","ร้านคาวบอยคอฟฟี่ ดอยหล่อ เชียงใหม่",4.6,60,"OK","THA.10_1","THA","Thailand","Chiang Mai","NA","จังหวัดเชียงใหม่","Changwat","Province","50","TH.CM","TH-50",98.8230076,18.5019745
"70","ChIJlSmLqMO32zAR3c2HSRhL2cs","Ice Bear cafe",NA,NA,"OK","THA.10_1","THA","Thailand","Chiang Mai","NA","จังหวัดเชียงใหม่","Changwat","Province","50","TH.CM","TH-50",98.8029248,18.5059937
"70","ChIJwQppaJzJ2zARyyG-Te537_0","เฮือนดอยหล่อ คาเฟ่",4.6,51,"OK","THA.10_1","THA","Thailand","Chiang Mai","NA","จังหวัดเชียงใหม่","Changwat","Province","50","TH.CM","TH-50",98.83846679999999,18.4874721
"70","ChIJzf9SRSi12zARYByi6y0M8hw","บรรทุก คาเฟ่ - Buntook Cafe",4.5,74,"OK","THA.10_1","THA","Thailand","Chiang Mai","NA","จังหวัดเชียงใหม่","Changwat","Province","50","TH.CM","TH-50",98.829572,18.50741649999999
"70","ChIJxfN2PAC12zARGG5BZ60Ib30","ลอดอคอฟฟี่",NA,NA,"OK","THA.10_1","THA","Thailand","Chiang Mai","NA","จังหวัดเชียงใหม่","Changwat","Province","50","TH.CM","TH-50",98.8321421,18.5091028
"70","ChIJQ2YBRwDJ2zARm0yXbAbR9zE","ร้านแมวขายน้ำ",5,1,"OK","THA.10_1","THA","Thailand","Chiang Mai","NA","จังหวัดเชียงใหม่","Changwat","Province","50","TH.CM","TH-50",98.8444286,18.4981801
"70","ChIJ_25xx_u12zAR5J3apjQaroE","ร้านกาแฟในชอย",NA,NA,"OK","THA.10_1","THA","Thailand","Chiang Mai","NA","จังหวัดเชียงใหม่","Changwat","Province","50","TH.CM","TH-50",98.83404689999999,18.512939
"70","ChIJV_m-Ux7L2zARBocjAg6U54M","Rin Coffee at Doi Lo",5,5,"OK","THA.10_1","THA","Thailand","Chiang Mai","NA","จังหวัดเชียงใหม่","Changwat","Province","50","TH.CM","TH-50",98.8363802,18.511551
"71","ChIJh9sVnnob2zARUaLGee63weA","กาแฟปางฝน",NA,NA,"OK","THA.10_1","THA","Thailand","Chiang Mai","NA","จังหวัดเชียงใหม่","Changwat","Province","50","TH.CM","TH-50",98.2284032,18.5068299
"71","ChIJa1c_Ut0b2zARqtm9fKzE3ho","นิ่มเงินด่วน",NA,NA,"OK","THA.10_1","THA","Thailand","Chiang Mai","NA","จังหวัดเชียงใหม่","Changwat","Province","50","TH.CM","TH-50",98.2319782,18.5088195
"71","ChIJo1O8Ujgb2zARm9B9zknVVhk","ทุ่งหญ้า coffee",5,3,"OK","THA.10_1","THA","Thailand","Chiang Mai","NA","จังหวัดเชียงใหม่","Changwat","Province","50","TH.CM","TH-50",98.23280989999999,18.5080835
"72","ChIJ6wlSLmUb2zARKFLKEqGuHno","Cooffeeชายดอย",4.8,9,"OK","THA.10_1","THA","Thailand","Chiang Mai","NA","จังหวัดเชียงใหม่","Changwat","Province","50","TH.CM","TH-50",98.239806,18.50769619999999
"73","ChIJ5dPNYzUF2zARRESNikIlzOI","ฮักแคมป์ คาเฟ่ ร้านอาหาร แม่แจ่ม Hug Camp Café Mae Chaem - Coffee & Thai Food | Mountain View",5,138,"OK","THA.10_1","THA","Thailand","Chiang Mai","NA","จังหวัดเชียงใหม่","Changwat","Province","50","TH.CM","TH-50",98.3295984,18.5179324
"73","ChIJ8eUX5eID2zARue6aeiWKohA","The Old Silo Cafe",5,1,"OK","THA.10_1","THA","Thailand","Chiang Mai","NA","จังหวัดเชียงใหม่","Changwat","Province","50","TH.CM","TH-50",98.34940979999999,18.5395623
"73","ChIJxb1d9qsF2zAR_KZtSXp4stQ","ฮารา คาเฟ่",5,5,"OK","THA.10_1","THA","Thailand","Chiang Mai","NA","จังหวัดเชียงใหม่","Changwat","Province","50","TH.CM","TH-50",98.347191,18.50142139999999
"73","ChIJ58wmBrwF2zARZ13LtJ7j1Qw","บนนา คาเฟ่",4.8,9,"OK","THA.10_1","THA","Thailand","Chiang Mai","NA","จังหวัดเชียงใหม่","Changwat","Province","50","TH.CM","TH-50",98.34720779999999,18.5013864
"73","ChIJ_aU2osEF2zARVNjc5clzVAI","บ้านร้านเค้ก by นมแจ่มคาเฟ่",5,5,"OK","THA.10_1","THA","Thailand","Chiang Mai","NA","จังหวัดเชียงใหม่","Changwat","Province","50","TH.CM","TH-50",98.3587781,18.5115195
"73","ChIJLy2SyV8E2zARV3Eo5WPUVfg","นิ่ม เงินด่วน",NA,NA,"OK","THA.10_1","THA","Thailand","Chiang Mai","NA","จังหวัดเชียงใหม่","Changwat","Province","50","TH.CM","TH-50",98.3549994,18.50268609999999
"73","ChIJ0TtEQDgF2zARd28GSff3KVM","ไอรดา Cafe'",5,1,"OK","THA.10_1","THA","Thailand","Chiang Mai","NA","จังหวัดเชียงใหม่","Changwat","Province","50","TH.CM","TH-50",98.3601217,18.5026769
"73","ChIJvTxhTMQF2zARmXURebW20KI","Aum-un Fresh Coffee, Food, & Carp Pond, Until 8 PM, Mae Chaem Town",4.6,44,"OK","THA.10_1","THA","Thailand","Chiang Mai","NA","จังหวัดเชียงใหม่","Changwat","Province","50","TH.CM","TH-50",98.3607902,18.5031122
"73","ChIJ42QPUgAF2zARaLBI5J3gBbo","กัตโตะชา สาขาแม่แจ่ม",5,1,"OK","THA.10_1","THA","Thailand","Chiang Mai","NA","จังหวัดเชียงใหม่","Changwat","Province","50","TH.CM","TH-50",98.3612505,18.5023685
"73","ChIJTYzaqWED2zARkMs_zfXaSKY","บ้านไร่เพียงใจ คาเฟ่",4.9,35,"OK","THA.10_1","THA","Thailand","Chiang Mai","NA","จังหวัดเชียงใหม่","Changwat","Province","50","TH.CM","TH-50",98.3689285,18.5314878
"73","ChIJ39B-lIYF2zARWm3YonJrz58","โรงคั่วพยัคฆ์กาแฟ",4.5,15,"OK","THA.10_1","THA","Thailand","Chiang Mai","NA","จังหวัดเชียงใหม่","Changwat","Province","50","TH.CM","TH-50",98.36481049999999,18.5056492
"73","ChIJS8M6BwAF2zARdPZb6NCmcu0","พยัคฆ์คอฟฟี่สาขาบ้านช่างเคิ่งบน",NA,NA,"OK","THA.10_1","THA","Thailand","Chiang Mai","NA","จังหวัดเชียงใหม่","Changwat","Province","50","TH.CM","TH-50",98.36163599999999,18.500966
"73","ChIJ5ROuj1sF2zARML-zoNBgw8g","Pool Coffee Cafe'",5,1,"OK","THA.10_1","THA","Thailand","Chiang Mai","NA","จังหวัดเชียงใหม่","Changwat","Province","50","TH.CM","TH-50",98.3628834,18.5024031
"73","ChIJIXJpFAAF2zARmAP0aMf66R0","Maechaem White house",5,1,"OK","THA.10_1","THA","Thailand","Chiang Mai","NA","จังหวัดเชียงใหม่","Changwat","Province","50","TH.CM","TH-50",98.3624481,18.5003772
"73","ChIJ3bOfDwsF2zARqsOJDst1zA0","ป้าวปั่น",5,4,"OK","THA.10_1","THA","Thailand","Chiang Mai","NA","จังหวัดเชียงใหม่","Changwat","Province","50","TH.CM","TH-50",98.3608308,18.4981857
"73","ChIJmVABEDAF2zARkXlkflV6O_c","ชา-กา-แฟ",4.5,2,"OK","THA.10_1","THA","Thailand","Chiang Mai","NA","จังหวัดเชียงใหม่","Changwat","Province","50","TH.CM","TH-50",98.36107659999999,18.4983049
"73","ChIJ8zfFzcgF2zARhlat74BEjME","S-Size Coffee กาแฟสด แม่แจ่ม",5,1,"OK","THA.10_1","THA","Thailand","Chiang Mai","NA","จังหวัดเชียงใหม่","Changwat","Province","50","TH.CM","TH-50",98.3614704,18.4981296
"73","ChIJAZalt2kF2zARiLKzktWTr2Y","Café Amazon",4.3,45,"OK","THA.10_1","THA","Thailand","Chiang Mai","NA","จังหวัดเชียงใหม่","Changwat","Province","50","TH.CM","TH-50",98.3639597,18.4996657
"74","ChIJW1miQkME2zARJCIQ3urgIgw","Hug Maejaem coffee ฮักแม่แจ่มกาแฟสด",5,22,"OK","THA.10_1","THA","Thailand","Chiang Mai","NA","จังหวัดเชียงใหม่","Changwat","Province","50","TH.CM","TH-50",98.3649375,18.49856249999999
"74","ChIJi6R-xOsD2zARkhcR1VrdzC8","DYกาแฟสดริมทาง",NA,NA,"OK","THA.10_1","THA","Thailand","Chiang Mai","NA","จังหวัดเชียงใหม่","Changwat","Province","50","TH.CM","TH-50",98.3976151,18.5198502
"74","ChIJU2gdmZsF2zARxxOSP4x7CRo","BAANCHA Cafe",NA,NA,"OK","THA.10_1","THA","Thailand","Chiang Mai","NA","จังหวัดเชียงใหม่","Changwat","Province","50","TH.CM","TH-50",98.3947357,18.5176033
"74","ChIJg-0ljbwH2zARDomLv_1fRME","Nha Baan Coffee",4.7,6,"OK","THA.10_1","THA","Thailand","Chiang Mai","NA","จังหวัดเชียงใหม่","Changwat","Province","50","TH.CM","TH-50",98.4017078,18.5139377
"74","ChIJhYs2Dq0B2zARvyL9Jd2IXHI","โฮงเล่ากาแฟสด",NA,NA,"OK","THA.10_1","THA","Thailand","Chiang Mai","NA","จังหวัดเชียงใหม่","Changwat","Province","50","TH.CM","TH-50",98.40745729999999,18.5370494
"74","ChIJ4xyiRwAH2zARj_6s_UI5ahc","กาแฟแจ่มแอ่ Chaem Ae Coffee",5,2,"OK","THA.10_1","THA","Thailand","Chiang Mai","NA","จังหวัดเชียงใหม่","Changwat","Province","50","TH.CM","TH-50",98.4115898,18.5097388
"74","ChIJDy06xFYB2zARz08C6U4TEDY","La Pho Coffee",5,4,"OK","THA.10_1","THA","Thailand","Chiang Mai","NA","จังหวัดเชียงใหม่","Changwat","Province","50","TH.CM","TH-50",98.4181833,18.5463479
"74","ChIJGeuQcAAB2zAR2kY3eAjyBRo","แหม่โอโ​กล๊​ะ​คาเฟ่​",NA,NA,"OK","THA.10_1","THA","Thailand","Chiang Mai","NA","จังหวัดเชียงใหม่","Changwat","Province","50","TH.CM","TH-50",98.42013299999999,18.546207
"74","ChIJr4kqC9MH2zARQOpZ-N_BGmk","บ้านนาคาเฟ่ by ครูหนูนา",4.3,3,"OK","THA.10_1","THA","Thailand","Chiang Mai","NA","จังหวัดเชียงใหม่","Changwat","Province","50","TH.CM","TH-50",98.41611979999999,18.5004335
"74","ChIJgdoDT8AF2zARv97Hn0i_hxA","ภูมิแจ่มกาแฟสด&เบเกอรีโรงเรียนแม่แจ่ม",4.9,15,"OK","THA.10_1","THA","Thailand","Chiang Mai","NA","จังหวัดเชียงใหม่","Changwat","Province","50","TH.CM","TH-50",98.3692512,18.5033153
"74","ChIJX5IVdSAF2zARTtqQ-Rgw6sk","แจ่มจริง Chaemjing",4.4,57,"OK","THA.10_1","THA","Thailand","Chiang Mai","NA","จังหวัดเชียงใหม่","Changwat","Province","50","TH.CM","TH-50",98.37196709999999,18.4967024
"74","ChIJfQpghgwF2zAR8I6L65FK8yw","ร้านกาแฟ",4,1,"OK","THA.10_1","THA","Thailand","Chiang Mai","NA","จังหวัดเชียงใหม่","Changwat","Province","50","TH.CM","TH-50",98.37195829999999,18.4967016
"74","ChIJF9bom5v92jARdPxc9RWienA","นายดำCAFE",NA,NA,"OK","THA.10_1","THA","Thailand","Chiang Mai","NA","จังหวัดเชียงใหม่","Changwat","Province","50","TH.CM","TH-50",98.3691185,18.498911
"74","ChIJcUGePYsx2jARb6IFUT6SwP4","เพมาคาเฟ่ Pema cafe",4.7,114,"OK","THA.10_1","THA","Thailand","Chiang Mai","NA","จังหวัดเชียงใหม่","Changwat","Province","50","TH.CM","TH-50",98.3703968,18.4976956
"74","ChIJiTmQZAAB2zAR4cTbuUuzrbE","Mxryjane Cafe",5,26,"OK","THA.10_1","THA","Thailand","Chiang Mai","NA","จังหวัดเชียงใหม่","Changwat","Province","50","TH.CM","TH-50",98.3689813,18.4988657
"74","ChIJLeIaMgAF2zARO5XcYHcV_ls","ชาเพื่อน&แพง",5,1,"OK","THA.10_1","THA","Thailand","Chiang Mai","NA","จังหวัดเชียงใหม่","Changwat","Province","50","TH.CM","TH-50",98.36990259999999,18.4979884
"74","ChIJowZZ-bsF2zARahYjMHmoiJY","เยาวราชcafe",5,5,"OK","THA.10_1","THA","Thailand","Chiang Mai","NA","จังหวัดเชียงใหม่","Changwat","Province","50","TH.CM","TH-50",98.36526429999999,18.4997041
"74","ChIJNdyUPOgF2zAR96AToLqgAFk","สุดที่นี่ คาเฟ่",5,17,"OK","THA.10_1","THA","Thailand","Chiang Mai","NA","จังหวัดเชียงใหม่","Changwat","Province","50","TH.CM","TH-50",98.3660697,18.4983163
"74","ChIJ3bjrriwB2zARcYSShTEg-U4","Andrei coffee ป่าบงเปียง",5,24,"OK","THA.10_1","THA","Thailand","Chiang Mai","NA","จังหวัดเชียงใหม่","Changwat","Province","50","TH.CM","TH-50",98.4389163,18.5402976
"74","ChIJ7eUHDwAB2zARbd9r4tS1Xww","Po Mue Nor Cafe",NA,NA,"OK","THA.10_1","THA","Thailand","Chiang Mai","NA","จังหวัดเชียงใหม่","Changwat","Province","50","TH.CM","TH-50",98.4396015,18.5402926
"74","ChIJm5uR8iYF2zARzWKTL8dzkjg","บ้านบาร์กาแฟ Baan Bar Cafe",4.9,22,"OK","THA.10_1","THA","Thailand","Chiang Mai","NA","จังหวัดเชียงใหม่","Changwat","Province","50","TH.CM","TH-50",98.36390759999999,18.4946363
"75","ChIJR5MWGtEA2zAR7s6CkejxlG4","Ban Rabiang Na Pa Bong Piang",4.7,930,"OK","THA.10_1","THA","Thailand","Chiang Mai","NA","จังหวัดเชียงใหม่","Changwat","Province","50","TH.CM","TH-50",98.44453320000001,18.5300502
"75","ChIJ32RbwCAB2zARlcgQgSHURJk","มาฉิโพ Shop",NA,NA,"OK","THA.10_1","THA","Thailand","Chiang Mai","NA","จังหวัดเชียงใหม่","Changwat","Province","50","TH.CM","TH-50",98.44777289999999,18.5326821
"75","ChIJZTblGQAB2zARSFvgJMe2f-Y","Bue Klee Coffee at Pa Pong Piang",5,3,"OK","THA.10_1","THA","Thailand","Chiang Mai","NA","จังหวัดเชียงใหม่","Changwat","Province","50","TH.CM","TH-50",98.44708659999999,18.5343553
"75","ChIJ2VWvOVMB2zAR8BDc8LEFRb4","ระเบียงนา คาเฟ่ ป่าบงเปียง",5,5,"OK","THA.10_1","THA","Thailand","Chiang Mai","NA","จังหวัดเชียงใหม่","Changwat","Province","50","TH.CM","TH-50",98.4445331,18.5300463
"75","ChIJ1xksGwAB2zAREbDvs4JSxeg","T-TO (ทีโต) Pa Bong Bieng",4.7,3,"OK","THA.10_1","THA","Thailand","Chiang Mai","NA","จังหวัดเชียงใหม่","Changwat","Province","50","TH.CM","TH-50",98.44613,18.5353926
"75","ChIJJ2OithQB2zARi5V-BHCNNd0","ฮีลนา ป่าบงเปียง",5,2,"OK","THA.10_1","THA","Thailand","Chiang Mai","NA","จังหวัดเชียงใหม่","Changwat","Province","50","TH.CM","TH-50",98.4444961,18.5307189
"75","ChIJO-HUcQAB2zARJmstqXq4FR8","coffee process",4,9,"OK","THA.10_1","THA","Thailand","Chiang Mai","NA","จังหวัดเชียงใหม่","Changwat","Province","50","TH.CM","TH-50",98.4801852,18.552878
"76","ChIJ6bkCp8Gr2zAR15AjblMhCB4","Coffee hut",4.6,318,"OK","THA.10_1","THA","Thailand","Chiang Mai","NA","จังหวัดเชียงใหม่","Changwat","Province","50","TH.CM","TH-50",98.54749559999999,18.5385331
"76","ChIJGbEzMgA72jAR7lbn5JuWWDk","ท่ากาแฟ Tha Cafae",5,45,"OK","THA.10_1","THA","Thailand","Chiang Mai","NA","จังหวัดเชียงใหม่","Changwat","Province","50","TH.CM","TH-50",98.54516029999999,18.5386599
"76","ChIJaRFTXwCr2zARLZm5WyizPGU","กอดอุ่นcoffee อินทนนท์",5,1,"OK","THA.10_1","THA","Thailand","Chiang Mai","NA","จังหวัดเชียงใหม่","Changwat","Province","50","TH.CM","TH-50",98.5452013,18.53871939999999
"76","ChIJoxwu5Sir2zARPcRfGfwa2uA","Pati non โรงคั่วกาแฟบ้านแม่กลางหลวง",4.6,168,"OK","THA.10_1","THA","Thailand","Chiang Mai","NA","จังหวัดเชียงใหม่","Changwat","Province","50","TH.CM","TH-50",98.5468446,18.5381409
"76","ChIJE0x5yPOr2zAR4t20Th51lhw","Aiyana Café",4.9,11,"OK","THA.10_1","THA","Thailand","Chiang Mai","NA","จังหวัดเชียงใหม่","Changwat","Province","50","TH.CM","TH-50",98.5432551,18.5401586
"76","ChIJ14f_xqqr2zARMtCZmyapFyk","Karen Village Somsak Coffee",4.6,17,"OK","THA.10_1","THA","Thailand","Chiang Mai","NA","จังหวัดเชียงใหม่","Changwat","Province","50","TH.CM","TH-50",98.547535,18.5385104
"76","ChIJH_hK3pmr2zARyLJYf6mJsvY","อีเกิล เมาทเท่น คอฟฟี่",NA,NA,"OK","THA.10_1","THA","Thailand","Chiang Mai","NA","จังหวัดเชียงใหม่","Changwat","Province","50","TH.CM","TH-50",98.54733519999999,18.5391572
"76","ChIJaWy1VcGr2zAR37iyBvcFur4","Mae Klang Luang Coffee House",4.6,119,"OK","THA.10_1","THA","Thailand","Chiang Mai","NA","จังหวัดเชียงใหม่","Changwat","Province","50","TH.CM","TH-50",98.5475608,18.5393038
"76","ChIJn-RsgQer2zARcovRzqnio2w","ร้านกาแฟ พาตินนท์ บ้านแม่กลางหลวง ดอยอินทนนท์",4.5,123,"OK","THA.10_1","THA","Thailand","Chiang Mai","NA","จังหวัดเชียงใหม่","Changwat","Province","50","TH.CM","TH-50",98.5472097,18.5400226
"76","ChIJsb8khfir2zARjIpllO3oIY8","KM.31 Cafe Inthanon",4.8,6,"OK","THA.10_1","THA","Thailand","Chiang Mai","NA","จังหวัดเชียงใหม่","Changwat","Province","50","TH.CM","TH-50",98.5231044,18.5294559
"76","ChIJI40CJgCr2zARhUZiPCWn1X4","ร้านกาแฟชลธาร",5,1,"OK","THA.10_1","THA","Thailand","Chiang Mai","NA","จังหวัดเชียงใหม่","Changwat","Province","50","TH.CM","TH-50",98.5228977,18.530033
"76","ChIJlVHUa2qr2zARppTzxq7YoPA","Rimthan Coffee อนุรักษ์พันธุ์ปลา",4.6,12,"OK","THA.10_1","THA","Thailand","Chiang Mai","NA","จังหวัดเชียงใหม่","Changwat","Province","50","TH.CM","TH-50",98.5465493,18.541052
"76","ChIJP-P7eKqr2zARuG_AqS13xIk","ที่นี่วัยหนุ่ม",5,1,"OK","THA.10_1","THA","Thailand","Chiang Mai","NA","จังหวัดเชียงใหม่","Changwat","Province","50","TH.CM","TH-50",98.5224851,18.5300453
"76","ChIJs3qyDQCr2zAR_tO4nTq0IGI","อบอุ่น Coffee อินทนนท์",NA,NA,"OK","THA.10_1","THA","Thailand","Chiang Mai","NA","จังหวัดเชียงใหม่","Changwat","Province","50","TH.CM","TH-50",98.54911480000001,18.54012389999999
"76","ChIJK6xeJwCr2zAR_C7U_8YyTxA","กอดอุ่น coffee",NA,NA,"OK","THA.10_1","THA","Thailand","Chiang Mai","NA","จังหวัดเชียงใหม่","Changwat","Province","50","TH.CM","TH-50",98.54911480000001,18.54012389999999
"76","ChIJ-e130PCr2zARSNTJ-K42pOA","อินทนนท์ Organic coffee",4.9,27,"OK","THA.10_1","THA","Thailand","Chiang Mai","NA","จังหวัดเชียงใหม่","Changwat","Province","50","TH.CM","TH-50",98.5488855,18.5402815
"76","ChIJ377uGSWr2zARJOZR8kkeVj8","Doi in coffee",4.7,7,"OK","THA.10_1","THA","Thailand","Chiang Mai","NA","จังหวัดเชียงใหม่","Changwat","Province","50","TH.CM","TH-50",98.5222189,18.53063
"76","ChIJ2XExMQCr2zARzYNYpCiQM6g","บริ้งค์&ไบรท์ คาเฟ่",4.9,9,"OK","THA.10_1","THA","Thailand","Chiang Mai","NA","จังหวัดเชียงใหม่","Changwat","Province","50","TH.CM","TH-50",98.52298329999999,18.5415827
"76","ChIJgay9bfqr2zARXs2sd1Y6Z7k","WABI SABI COFFEE",4.4,17,"OK","THA.10_1","THA","Thailand","Chiang Mai","NA","จังหวัดเชียงใหม่","Changwat","Province","50","TH.CM","TH-50",98.5230735,18.5417842
"76","ChIJo15oWUSr2zARx8y5L_MA4Oc","Coffee A Cup",4,7,"OK","THA.10_1","THA","Thailand","Chiang Mai","NA","จังหวัดเชียงใหม่","Changwat","Province","50","TH.CM","TH-50",98.523105,18.5419133
"76","ChIJR0rxO_ar2zARvdp2rwX_Yzo","บ้านสวนกาแฟ สหาย พเนจร",NA,NA,"OK","THA.10_1","THA","Thailand","Chiang Mai","NA","จังหวัดเชียงใหม่","Changwat","Province","50","TH.CM","TH-50",98.5209429,18.5398205
"76","ChIJIexDhx-r2zARr662qQwvT_Y","ร้านกาแฟ Via Via Cafe ดอยอินทนนท์",4.6,9,"OK","THA.10_1","THA","Thailand","Chiang Mai","NA","จังหวัดเชียงใหม่","Changwat","Province","50","TH.CM","TH-50",98.52106739999999,18.540183
"76","ChIJP3kUjbar2zARKIpTnuOOHqA","DOIIN",NA,NA,"OK","THA.10_1","THA","Thailand","Chiang Mai","NA","จังหวัดเชียงใหม่","Changwat","Province","50","TH.CM","TH-50",98.5230248,18.5424165
"76","ChIJnTtZ3Pax2zARq614wsTj5nw","The Garden Inthanon Cafe'",5,63,"OK","THA.10_1","THA","Thailand","Chiang Mai","NA","จังหวัดเชียงใหม่","Changwat","Province","50","TH.CM","TH-50",98.52286000000001,18.5431544
"76","ChIJeQZftVSr2zAR5WhokeSelKg","PEAK BREW & KENGI HOUSE",5,1,"OK","THA.10_1","THA","Thailand","Chiang Mai","NA","จังหวัดเชียงใหม่","Changwat","Province","50","TH.CM","TH-50",98.52141499999999,18.5417503
"76","ChIJO437yOyr2zARxgG1uwYiuu4","Pinkpu Coffee",4,29,"OK","THA.10_1","THA","Thailand","Chiang Mai","NA","จังหวัดเชียงใหม่","Changwat","Province","50","TH.CM","TH-50",98.5588327,18.5407921
"76","ChIJcdsCZ8Wr2zAR6iHyJxAByMw","แฮปปี้วิว อินทนนท์",4,1,"OK","THA.10_1","THA","Thailand","Chiang Mai","NA","จังหวัดเชียงใหม่","Changwat","Province","50","TH.CM","TH-50",98.52014659999999,18.5435433
"76","ChIJJV2Zic2r2zARGSR-xMJLF6Q","Home cafe’ สวนพรับ",5,2,"OK","THA.10_1","THA","Thailand","Chiang Mai","NA","จังหวัดเชียงใหม่","Changwat","Province","50","TH.CM","TH-50",98.52262619999999,18.5463921
"76","ChIJff02JQCr2zARWfVMgIX45Nk","Coffee place",4.8,11,"OK","THA.10_1","THA","Thailand","Chiang Mai","NA","จังหวัดเชียงใหม่","Changwat","Province","50","TH.CM","TH-50",98.5217656,18.54591139999999
"76","ChIJPRZDmfCr2zARrb3q7Sn-S1w","อินท์ไหล่เขา",4.6,321,"OK","THA.10_1","THA","Thailand","Chiang Mai","NA","จังหวัดเชียงใหม่","Changwat","Province","50","TH.CM","TH-50",98.52169769999999,18.5460227
"76","ChIJ-WWARZSr2zARVPCND-38P1Y","Habakkuk coffee",4.9,9,"OK","THA.10_1","THA","Thailand","Chiang Mai","NA","จังหวัดเชียงใหม่","Changwat","Province","50","TH.CM","TH-50",98.51917159999999,18.5452779
"76","ChIJ0bxPv0Wr2zARknqh9WA59wM","ดอยชัวร์ญ่า อาหารเช้า โซน C",5,2,"OK","THA.10_1","THA","Thailand","Chiang Mai","NA","จังหวัดเชียงใหม่","Changwat","Province","50","TH.CM","TH-50",98.5215023,18.5487823
"76","ChIJz7KK1mWr2zARjA1c5JhsdYs","Motho homestay โมโท คอฟฟี่แอนโฮมสเตย์",4.7,46,"OK","THA.10_1","THA","Thailand","Chiang Mai","NA","จังหวัดเชียงใหม่","Changwat","Province","50","TH.CM","TH-50",98.5647499,18.5509611
"76","ChIJ1-U5GWGr2zARy1fm6rKvoLc","DAE LOR PU แดลอร์ปู",5,69,"OK","THA.10_1","THA","Thailand","Chiang Mai","NA","จังหวัดเชียงใหม่","Changwat","Province","50","TH.CM","TH-50",98.56197949999999,18.558357
"76","ChIJpXMrNgCr2zAR2potzS5vPL0","บ้านซอ คาเฟ่",NA,NA,"OK","THA.10_1","THA","Thailand","Chiang Mai","NA","จังหวัดเชียงใหม่","Changwat","Province","50","TH.CM","TH-50",98.5528937,18.5649244
"76","ChIJd3kiMwCr2zARcNzwvUHv0P0","Rakkhao Inthanon Cafe",5,1,"OK","THA.10_1","THA","Thailand","Chiang Mai","NA","จังหวัดเชียงใหม่","Changwat","Province","50","TH.CM","TH-50",98.55565140000002,18.5660597
"76","ChIJm88d6oar2zARlQDkutLqNv4","กาแฟดอยหมอกอินทนนท์",4.8,4,"OK","THA.10_1","THA","Thailand","Chiang Mai","NA","จังหวัดเชียงใหม่","Changwat","Province","50","TH.CM","TH-50",98.52161819999999,18.5663004
