"tile_id","place_id","name","rating","user_ratings_total","status","GID_1","GID_0","COUNTRY","NAME_1","VARNAME_1","NL_NAME_1","TYPE_1","ENGTYPE_1","CC_1","HASC_1","ISO_1","lon","lat"
"1","ChIJg9Nc17v13DARel9FUbILuM4","หน้าบ้าน คาเฟ่-Hnaban Cafe'",4.7,3,"OK","THA.10_1","THA","Thailand","Chiang Mai","NA","จังหวัดเชียงใหม่","Changwat","Province","50","TH.CM","TH-50",98.4619366,17.3983815
"1","ChIJyXm80UL13DARZGZylNMwIGQ","ครัวลูกเขย",4.8,15,"OK","THA.10_1","THA","Thailand","Chiang Mai","NA","จังหวัดเชียงใหม่","Changwat","Province","50","TH.CM","TH-50",98.4615711,17.3979038
"1","ChIJnfAfknj33DARO9DIZ4MyEx4","ครัวลุงแหวง​(ร้านสุดท้ายก่อนขึ้นดอย)​",4.8,12,"OK","THA.10_1","THA","Thailand","Chiang Mai","NA","จังหวัดเชียงใหม่","Changwat","Province","50","TH.CM","TH-50",98.46739679999999,17.3876185
"1","ChIJd-nL-fD13DARKDFKApCHhWg","Tuen Coffee",5,24,"OK","THA.10_1","THA","Thailand","Chiang Mai","NA","จังหวัดเชียงใหม่","Changwat","Province","50","TH.CM","TH-50",98.46087849999999,17.3975883
"1","ChIJg1tOD4X33DARQUzUA_SFkiM","ก๋วยเตี๋ยวริมน้ำ by เจ้อ้อม",5,1,"OK","THA.10_1","THA","Thailand","Chiang Mai","NA","จังหวัดเชียงใหม่","Changwat","Province","50","TH.CM","TH-50",98.46749249999999,17.386472
"1","ChIJhcGicwD13DARodLypUMS-Ug","ปัง ปัง เครป pang pang crepes",5,1,"OK","THA.10_1","THA","Thailand","Chiang Mai","NA","จังหวัดเชียงใหม่","Changwat","Province","50","TH.CM","TH-50",98.456497099999993,17.4140056
"1","ChIJ7R0q24713DARaFMwLsbeBGY","ร้านข้าวมันไก่ใบเตย",4.5,10,"OK","THA.10_1","THA","Thailand","Chiang Mai","NA","จังหวัดเชียงใหม่","Changwat","Province","50","TH.CM","TH-50",98.4577369,17.4161863
"1","ChIJXWJupXj13DARVHVqDtC6hDY","ร้าน ฮ่อมสบาย",3.8,4,"OK","THA.10_1","THA","Thailand","Chiang Mai","NA","จังหวัดเชียงใหม่","Changwat","Province","50","TH.CM","TH-50",98.4573051,17.4022865
"1","ChIJO0h7Rc_13DARD2VQc_XZe7Y","ร้านไก่ย่างวิเชียรบุรี สาขา 4",5,1,"OK","THA.10_1","THA","Thailand","Chiang Mai","NA","จังหวัดเชียงใหม่","Changwat","Province","50","TH.CM","TH-50",98.45399479999999,17.4102837
"1","ChIJSSuwMtv13DARKMQv5HoRRRs","Pa Kam Pochana",4.6,5,"OK","THA.10_1","THA","Thailand","Chiang Mai","NA","จังหวัดเชียงใหม่","Changwat","Province","50","TH.CM","TH-50",98.4547996,17.4064667
"1","ChIJD4MkvStZ3DARlso8yyatZvw","ร้านตามสั่งแม่ตื่นน้อย",4,1,"OK","THA.10_1","THA","Thailand","Chiang Mai","NA","จังหวัดเชียงใหม่","Changwat","Province","50","TH.CM","TH-50",98.48548629999999,17.3674613
"1","ChIJ32XK0tv13DARzS9-h1GdHjo","อาหารตามสั่งสไตล์แม่นงค์",4,4,"OK","THA.10_1","THA","Thailand","Chiang Mai","NA","จังหวัดเชียงใหม่","Changwat","Province","50","TH.CM","TH-50",98.46509569999999,17.4119805
"1","ChIJlyctTMT13DARBTUxFmR7DHk","พิซซ่าดอย Pizza Doi Mountain View 1099",4.6,41,"OK","THA.10_1","THA","Thailand","Chiang Mai","NA","จังหวัดเชียงใหม่","Changwat","Province","50","TH.CM","TH-50",98.454522,17.4113547
"1","ChIJUxI09FL33DAR7wGS2w7e3RA","หม่าล่าม่วนใจ๋",5,1,"OK","THA.10_1","THA","Thailand","Chiang Mai","NA","จังหวัดเชียงใหม่","Changwat","Province","50","TH.CM","TH-50",98.47548189999999,17.3823256
"1","ChIJcV9WXwBf3DARxtVDAC71dRE","ร้านนี้มีรัก Pooky แซบ",NA,NA,"OK","THA.10_1","THA","Thailand","Chiang Mai","NA","จังหวัดเชียงใหม่","Changwat","Province","50","TH.CM","TH-50",98.5062007,17.4160432
"1","ChIJq2DpDAD13DARJZV7jdtqpbk","ิิอ้อเหม่",1,1,"OK","THA.10_1","THA","Thailand","Chiang Mai","NA","จังหวัดเชียงใหม่","Changwat","Province","50","TH.CM","TH-50",98.45731300000001,17.4019816
"3","ChIJ3SAy17f13DARJ_NqB6uU1cQ","หลงยุค ๙๐ คาแฟ่",5,4,"OK","THA.10_1","THA","Thailand","Chiang Mai","NA","จังหวัดเชียงใหม่","Changwat","Province","50","TH.CM","TH-50",98.46688739999999,17.4002161
"5","ChIJRfJEUwBh3DARxrECiHk7oJs","ลูกเขยดอย coffee",5,2,"OK","THA.10_1","THA","Thailand","Chiang Mai","NA","จังหวัดเชียงใหม่","Changwat","Province","50","TH.CM","TH-50",98.522539,17.572276
"5","ChIJN1-0Imdh3DARsz3YfpXfd6s","ม่อนจองเชียงใหม่",5,2,"OK","THA.10_1","THA","Thailand","Chiang Mai","NA","จังหวัดเชียงใหม่","Changwat","Province","50","TH.CM","TH-50",98.52423999999999,17.5683056
"5","ChIJBcuCu81h3DAR4SseGiQtCJE","ร้านน้องม่อน ดอยม่อนจอง",NA,NA,"OK","THA.10_1","THA","Thailand","Chiang Mai","NA","จังหวัดเชียงใหม่","Changwat","Province","50","TH.CM","TH-50",98.5240267,17.569252
"7","ChIJ4xLs6zub3DAREjNDcOo3A6c","ร้านแม่ปามมี่",4,1,"OK","THA.10_1","THA","Thailand","Chiang Mai","NA","จังหวัดเชียงใหม่","Changwat","Province","50","TH.CM","TH-50",98.24981369999999,17.685995900000002
"7","ChIJE-fIMnaa3DARyKoRNTdo28g","ร้านน้องแอ๊ปเปิ้ล กับ มะปาง",4.5,4,"OK","THA.10_1","THA","Thailand","Chiang Mai","NA","จังหวัดเชียงใหม่","Changwat","Province","50","TH.CM","TH-50",98.25135180000001,17.6859875
"8","ChIJSxwd-hKD3DAR2YxRZBldGyI","แอะนา ณ อมก๋อย",4.8,18,"OK","THA.10_1","THA","Thailand","Chiang Mai","NA","จังหวัดเชียงใหม่","Changwat","Province","50","TH.CM","TH-50",98.34662949999999,17.7999772
"8","ChIJXfjU_6KD3DARAQ8yjxDLKo8","เฮือนข้าวแฟ",4.2,19,"OK","THA.10_1","THA","Thailand","Chiang Mai","NA","จังหวัดเชียงใหม่","Changwat","Province","50","TH.CM","TH-50",98.3613756,17.8006094
"8","ChIJUw2mU5-D3DAR9G6R2jCLX74","ครัวพิจิตรอมก๋อย",4.4,30,"OK","THA.10_1","THA","Thailand","Chiang Mai","NA","จังหวัดเชียงใหม่","Changwat","Province","50","TH.CM","TH-50",98.3581516,17.7983346
"8","ChIJQTaYyaKD3DARH9tR9sklbJw","Kuarim Restaurant",4.4,92,"OK","THA.10_1","THA","Thailand","Chiang Mai","NA","จังหวัดเชียงใหม่","Changwat","Province","50","TH.CM","TH-50",98.3632207,17.7994712
"8","ChIJFeibDsyD3DARX-uZcqYy1S8","ครัวระเบียงริมน้ำ",5,11,"OK","THA.10_1","THA","Thailand","Chiang Mai","NA","จังหวัดเชียงใหม่","Changwat","Province","50","TH.CM","TH-50",98.3460832,17.7974039
"8","ChIJBdQ_VlSD3DARm8uUoL4lrbA","ฮอมฮัก อ.อมก๋อย",5,4,"OK","THA.10_1","THA","Thailand","Chiang Mai","NA","จังหวัดเชียงใหม่","Changwat","Province","50","TH.CM","TH-50",98.3648046,17.8055674
"8","ChIJpb1-0keD3DARAkChEZv-9P8","ยุ้งข้าว บ้านหลวง",5,4,"OK","THA.10_1","THA","Thailand","Chiang Mai","NA","จังหวัดเชียงใหม่","Changwat","Province","50","TH.CM","TH-50",98.36258839999999,17.787814
"8","ChIJo3JKQUSD3DARKAr9cx-2R7g","ก๋วยเตี๋ยวแม่แท่ม",5,7,"OK","THA.10_1","THA","Thailand","Chiang Mai","NA","จังหวัดเชียงใหม่","Changwat","Province","50","TH.CM","TH-50",98.3665106,17.7993316
"8","ChIJHzszKACD3DARLq_3cVtVQNQ","ครัวเอื้องผึ้ง",5,3,"OK","THA.10_1","THA","Thailand","Chiang Mai","NA","จังหวัดเชียงใหม่","Changwat","Province","50","TH.CM","TH-50",98.36777970000001,17.811474
"8","ChIJySWSOd6D3DARR1LW9nu_QRI","ไฮ อมก๋อย HiOmkoi Camp&Coffee",4.3,9,"OK","THA.10_1","THA","Thailand","Chiang Mai","NA","จังหวัดเชียงใหม่","Changwat","Province","50","TH.CM","TH-50",98.3676742,17.8160333
"8","ChIJO_Vw5aGD3DARmCgIWUxQc1M","Bua Phan Restaurant",4,72,"OK","THA.10_1","THA","Thailand","Chiang Mai","NA","จังหวัดเชียงใหม่","Changwat","Province","50","TH.CM","TH-50",98.3573225,17.7987844
"8","ChIJX-b_sr2D3DARKsfQS7XkHGA","Ingdoi kitchen restaurant",4.3,77,"OK","THA.10_1","THA","Thailand","Chiang Mai","NA","จังหวัดเชียงใหม่","Changwat","Province","50","TH.CM","TH-50",98.3672272,17.8004357
"8","ChIJC0wVN4GD3DARbe8Any9HWbc","ร้านข้าวซอยแม่สอน",4.9,8,"OK","THA.10_1","THA","Thailand","Chiang Mai","NA","จังหวัดเชียงใหม่","Changwat","Province","50","TH.CM","TH-50",98.3570185,17.7956719
"8","ChIJw4mc2ZOD3DAR5Cm-SEkxJe8","ร้านข้าวมันไก่ชัยพนัส",5,2,"OK","THA.10_1","THA","Thailand","Chiang Mai","NA","จังหวัดเชียงใหม่","Changwat","Province","50","TH.CM","TH-50",98.35665259999999,17.7969747
"8","ChIJV2EsQmyD3DAR1bZoc-7syrM","ก๋วยเตี๋ยวน้องขิม",5,1,"OK","THA.10_1","THA","Thailand","Chiang Mai","NA","จังหวัดเชียงใหม่","Changwat","Province","50","TH.CM","TH-50",98.36136409999999,17.7988299
"8","ChIJK7ZdaXuD3DARHGiHfZ6dh6o","ร้านนี่ก๋วยเตี๋ยวต้มยำ",NA,NA,"OK","THA.10_1","THA","Thailand","Chiang Mai","NA","จังหวัดเชียงใหม่","Changwat","Province","50","TH.CM","TH-50",98.3570555,17.7979006
"8","ChIJ-x3l2A-D3DAR5Dq3tK0Aa50","ปัตย์บาร์ คาเฟ่",4.8,4,"OK","THA.10_1","THA","Thailand","Chiang Mai","NA","จังหวัดเชียงใหม่","Changwat","Province","50","TH.CM","TH-50",98.34815189999999,17.7972669
"8","ChIJ2yKm1LmD3DAR-aUrpQbh2rw","ร้านอาหารเหนือหน้าชุมชนต้นฮัก",5,3,"OK","THA.10_1","THA","Thailand","Chiang Mai","NA","จังหวัดเชียงใหม่","Changwat","Province","50","TH.CM","TH-50",98.3606009,17.8006499
"8","ChIJddl1egCD3DAR_mvWxbwaLJs","ครัวแม่ฝ้าย",NA,NA,"OK","THA.10_1","THA","Thailand","Chiang Mai","NA","จังหวัดเชียงใหม่","Changwat","Province","50","TH.CM","TH-50",98.3570554,17.7978835
"8","ChIJf0EMfE-D3DAREi4PhhmLAeA","ครัวริมน้ำ-อาหารตามสั่ง",NA,NA,"OK","THA.10_1","THA","Thailand","Chiang Mai","NA","จังหวัดเชียงใหม่","Changwat","Province","50","TH.CM","TH-50",98.3608981,17.7995523
"9","ChIJx_cYJaKD3DARIKeUT4cLh-I","ครัวป้ามล&ขนมไทยเจ้าเก่าหน้าอำเภอ (อาหารเจ-มังสวิรัติ)",5,1,"OK","THA.10_1","THA","Thailand","Chiang Mai","NA","จังหวัดเชียงใหม่","Changwat","Province","50","TH.CM","TH-50",98.3621024,17.79884
"9","ChIJtZmXfkiJ3DARJhA8hZk6EU0","โรงเพาะกล้าวรสันต์",NA,NA,"OK","THA.10_1","THA","Thailand","Chiang Mai","NA","จังหวัดเชียงใหม่","Changwat","Province","50","TH.CM","TH-50",98.3667914,17.7726096
"9","ChIJL-zjJa2D3DARs9zUIe-kZaI","ร้าน น. ไข่เจียว ทรัพย์เจริญ",NA,NA,"OK","THA.10_1","THA","Thailand","Chiang Mai","NA","จังหวัดเชียงใหม่","Changwat","Province","50","TH.CM","TH-50",98.3589981,17.7977386
"10","ChIJFdwmBAB_3DAR_bUB7_2ERek","โฮงจอดรถคาเฟ่",5,1,"OK","THA.10_1","THA","Thailand","Chiang Mai","NA","จังหวัดเชียงใหม่","Changwat","Province","50","TH.CM","TH-50",98.4869935,17.7792986
"10","ChIJBRuQDUt_3DARBTcCuYcwyQ4","ธ.การช่าง ยางเปียง อมก๋อย",5,2,"OK","THA.10_1","THA","Thailand","Chiang Mai","NA","จังหวัดเชียงใหม่","Changwat","Province","50","TH.CM","TH-50",98.4920514,17.778656
"11","ChIJgY99ET133DARrGW52ln9isQ","ร้านฝรั่งกางโต้ง",NA,NA,"OK","THA.10_1","THA","Thailand","Chiang Mai","NA","จังหวัดเชียงใหม่","Changwat","Province","50","TH.CM","TH-50",98.7442803,17.8489318
"14","ChIJcwZ8I6-f3DARGGHJwr_Njmo","ร้านก๋วยเตี๋ยวสวนชา",5,2,"OK","THA.10_1","THA","Thailand","Chiang Mai","NA","จังหวัดเชียงใหม่","Changwat","Province","50","TH.CM","TH-50",98.1764168,17.8444872
"14","ChIJ5UWCNACf3DAR6RBLvPNuhE4","ร้านนำโชค",5,1,"OK","THA.10_1","THA","Thailand","Chiang Mai","NA","จังหวัดเชียงใหม่","Changwat","Province","50","TH.CM","TH-50",98.2098445,17.8608246
"16","ChIJk1dFr3qD3DARi9ghj06ASxg","Good morning omkoi",4.7,70,"OK","THA.10_1","THA","Thailand","Chiang Mai","NA","จังหวัดเชียงใหม่","Changwat","Province","50","TH.CM","TH-50",98.3636782,17.8049322
"16","ChIJIUeFISaD3DAR1d4ln4booKk","Dong Coffee De Omkoi",4.9,12,"OK","THA.10_1","THA","Thailand","Chiang Mai","NA","จังหวัดเชียงใหม่","Changwat","Province","50","TH.CM","TH-50",98.372846,17.8054333
"16","ChIJAQEdcpaD3DAROPEg-bu_b6c","Parable Omkoi Cafe",4.8,21,"OK","THA.10_1","THA","Thailand","Chiang Mai","NA","จังหวัดเชียงใหม่","Changwat","Province","50","TH.CM","TH-50",98.363056,17.8022672
"16","ChIJKV4zHLiD3DARrG0I3c71ofg","Nermu Coffee Omkoi",5,1,"OK","THA.10_1","THA","Thailand","Chiang Mai","NA","จังหวัดเชียงใหม่","Changwat","Province","50","TH.CM","TH-50",98.3650562,17.8113844
"16","ChIJ7VW9fQ6D3DARIvsmjPNK-zE","269 garden",4.6,11,"OK","THA.10_1","THA","Thailand","Chiang Mai","NA","จังหวัดเชียงใหม่","Changwat","Province","50","TH.CM","TH-50",98.3313117,17.808941
"18","ChIJoW_XNcCJ2zARZjtExy0t_4c","ร้านก๋วยเตี๋ยว ส้มตำ หน้าวัดหลวงดอยเต่า",NA,NA,"OK","THA.10_1","THA","Thailand","Chiang Mai","NA","จังหวัดเชียงใหม่","Changwat","Province","50","TH.CM","TH-50",98.73066879999999,17.8918204
"19","ChIJq3BUT-qJ2zARY4CM0MLinjY","ร้านป๋าดอยเต่า คันคลองเขื่อนผากัฟ.",2,1,"OK","THA.10_1","THA","Thailand","Chiang Mai","NA","จังหวัดเชียงใหม่","Changwat","Province","50","TH.CM","TH-50",98.7467843,17.8822984
"19","ChIJvyMs8x6J2zAR4prR9ubWVK8","ก๋วยเตี๋ยวเรือปิ่นมณี",4.5,2,"OK","THA.10_1","THA","Thailand","Chiang Mai","NA","จังหวัดเชียงใหม่","Changwat","Province","50","TH.CM","TH-50",98.73527969999999,17.8616885
"19","ChIJvb2-0_-K2zARG0HgwKYlEnA","ร้านอาหาร บ้านไร่เก็บตะวันรีสอร์ท",3.8,11,"OK","THA.10_1","THA","Thailand","Chiang Mai","NA","จังหวัดเชียงใหม่","Changwat","Province","50","TH.CM","TH-50",98.7946932,17.8958237
"19","ChIJWb4KRVKJ2zAR8xq_bNgkLhw","ร้านอาหารครัวย่าตุ๋ย",5,1,"OK","THA.10_1","THA","Thailand","Chiang Mai","NA","จังหวัดเชียงใหม่","Changwat","Province","50","TH.CM","TH-50",98.74233199999999,17.8913272
"19","ChIJz0TNcWSJ2zARSK5NL3wgLHI","ส้มตำเซเลอร์มูน(ยอดมูน2)​",2,1,"OK","THA.10_1","THA","Thailand","Chiang Mai","NA","จังหวัดเชียงใหม่","Changwat","Province","50","TH.CM","TH-50",98.734612,17.8641583
"20","ChIJr9bbxP-L2zARLsffv34lvIk","ร้านฮอมฮัก",NA,NA,"OK","THA.10_1","THA","Thailand","Chiang Mai","NA","จังหวัดเชียงใหม่","Changwat","Province","50","TH.CM","TH-50",98.81059959999999,17.8903165
"20","ChIJdQtqnN-L2zAROKGuDtTtWxk","บ้านน้องเหนือ​ แม่บวน",NA,NA,"OK","THA.10_1","THA","Thailand","Chiang Mai","NA","จังหวัดเชียงใหม่","Changwat","Province","50","TH.CM","TH-50",98.8145493,17.8894203
"21","ChIJDWWvIg1_2zARtu4yiSpigUo","เก๊าเกี๊ยะ Cafe",4.6,10,"OK","THA.10_1","THA","Thailand","Chiang Mai","NA","จังหวัดเชียงใหม่","Changwat","Province","50","TH.CM","TH-50",98.4104728,17.9055907
"21","ChIJt5iuhd9_2zARrCRGnHqQb8k","ก๋วยเตี๋ยวบ้านทุ่ง",4.1,14,"OK","THA.10_1","THA","Thailand","Chiang Mai","NA","จังหวัดเชียงใหม่","Changwat","Province","50","TH.CM","TH-50",98.41175550000001,17.9088968
"22","ChIJ9TlZ1_iF2zARb3d0ySCpjWU","เรือนแพดอยเต่าริมปิง(เดิมชื่อ แพนกน้อย)",4.3,7,"OK","THA.10_1","THA","Thailand","Chiang Mai","NA","จังหวัดเชียงใหม่","Changwat","Province","50","TH.CM","TH-50",98.6575907,17.9560642
"22","ChIJ57lp5zCF2zAR3wkuWcXOQGI","เรือนแพลูกแม่ปิง ทะเลสาบดอยเต่า",4.6,17,"OK","THA.10_1","THA","Thailand","Chiang Mai","NA","จังหวัดเชียงใหม่","Changwat","Province","50","TH.CM","TH-50",98.6548668,17.9552089
"22","ChIJVwKCNvmF2zARn28_dMvCKEo","เรือนแพดอยเต่าริมปิงเชียงใหม่",3.8,11,"OK","THA.10_1","THA","Thailand","Chiang Mai","NA","จังหวัดเชียงใหม่","Changwat","Province","50","TH.CM","TH-50",98.65612720000001,17.9557803
"22","ChIJq1DBwf6F2zARwiI3CFAHUuE","เรือนแพธารทิพย์ ทะเลสาบดอยเต่า(Tantip Doitao)",4.1,84,"OK","THA.10_1","THA","Thailand","Chiang Mai","NA","จังหวัดเชียงใหม่","Changwat","Province","50","TH.CM","TH-50",98.6561723,17.9540106
"22","ChIJU2Ip1_6F2zARgbTtOhVOLSk","เรือนแพนกน้อย",3.3,3,"OK","THA.10_1","THA","Thailand","Chiang Mai","NA","จังหวัดเชียงใหม่","Changwat","Province","50","TH.CM","TH-50",98.65698669999999,17.9548067
"22","ChIJSxvi3P6F2zARD56jLxvQfDo","เรือนแพหมู่เฮา",NA,NA,"OK","THA.10_1","THA","Thailand","Chiang Mai","NA","จังหวัดเชียงใหม่","Changwat","Province","50","TH.CM","TH-50",98.6567299,17.9541019
"22","ChIJ6_BMBQCb2zARbsvZBR2OusI","ร้านส้มตำเจ๊เต็มแซบนัว",5,1,"OK","THA.10_1","THA","Thailand","Chiang Mai","NA","จังหวัดเชียงใหม่","Changwat","Province","50","TH.CM","TH-50",98.61606739999999,17.904321499999998
"22","ChIJjxRQHACH2zARUeQigBDAx6M","ร้านพี่สองลาบแกงอ่อมอ◌าหารตามสั่ง",5,1,"OK","THA.10_1","THA","Thailand","Chiang Mai","NA","จังหวัดเชียงใหม่","Changwat","Province","50","TH.CM","TH-50",98.63805980000001,17.9268426
"23","ChIJPwMOn0uN2zARaajzlz7g0_A","SURANUN Café",4.9,12,"OK","THA.10_1","THA","Thailand","Chiang Mai","NA","จังหวัดเชียงใหม่","Changwat","Province","50","TH.CM","TH-50",98.69012289999999,17.9495872
"23","ChIJ5RDNfzGP2zARPjsy_XZSBv8","Bandin in the Doi",4.8,26,"OK","THA.10_1","THA","Thailand","Chiang Mai","NA","จังหวัดเชียงใหม่","Changwat","Province","50","TH.CM","TH-50",98.6900646,17.953618
"23","ChIJ2asKc66P2zARW6J-9HFHedA","โคซี่ บราวน์ คาเฟ่ Cozy Brown Café",5,32,"OK","THA.10_1","THA","Thailand","Chiang Mai","NA","จังหวัดเชียงใหม่","Changwat","Province","50","TH.CM","TH-50",98.6847385,17.9523478
"23","ChIJLQzZJQCJ2zARVFcWdyWmULg","บ้านบ้านคาเฟ่ BannBannCafe",4.8,13,"OK","THA.10_1","THA","Thailand","Chiang Mai","NA","จังหวัดเชียงใหม่","Changwat","Province","50","TH.CM","TH-50",98.72215399999999,17.9244105
"23","ChIJd7kX2i-J2zAR9ivSYEveFwA","ครัวมะขามหวาน",4.4,126,"OK","THA.10_1","THA","Thailand","Chiang Mai","NA","จังหวัดเชียงใหม่","Changwat","Province","50","TH.CM","TH-50",98.71491139999999,17.9373699
"23","ChIJMZ138fqJ2zARdQcgbOejB0w","Nature Cafe",4.5,30,"OK","THA.10_1","THA","Thailand","Chiang Mai","NA","จังหวัดเชียงใหม่","Changwat","Province","50","TH.CM","TH-50",98.7203186,17.9388148
"23","ChIJccErdhWJ2zARJ_KmYYUjp3k","ร้านอาหารลูกแม่ปิง สาขา2",4.4,22,"OK","THA.10_1","THA","Thailand","Chiang Mai","NA","จังหวัดเชียงใหม่","Changwat","Province","50","TH.CM","TH-50",98.7233741,17.9220997
"23","ChIJx-ic60GP2zAR9ZIlgzbvLIM","ร้านก๋วยเตี๋ยวเรืออยุธยา หน้าที่ว่าการอำเภอดอยเต่า",5,1,"OK","THA.10_1","THA","Thailand","Chiang Mai","NA","จังหวัดเชียงใหม่","Changwat","Province","50","TH.CM","TH-50",98.68412000000001,17.9526435
"23","ChIJXUti7Z-J2zARZnEKbaAGZG4","ร้านครัวอ้ายพีพี&น้องขวัญข้าว",4,1,"OK","THA.10_1","THA","Thailand","Chiang Mai","NA","จังหวัดเชียงใหม่","Changwat","Province","50","TH.CM","TH-50",98.6915538,17.9456909
"23","ChIJdYPBo5WJ2zARiURye8ZLQfM","ก๋วยเตี๋ยวเรืออยุธยา",4.3,12,"OK","THA.10_1","THA","Thailand","Chiang Mai","NA","จังหวัดเชียงใหม่","Changwat","Province","50","TH.CM","TH-50",98.7080326,17.9407734
"23","ChIJ99XPtP2J2zARgaIGHcGtQn8","โคกหนองนา สถานที่เรียนรู้เกษตรพอเพียง by ผอ วิทยา พัฒนเมธาดา",5,1,"OK","THA.10_1","THA","Thailand","Chiang Mai","NA","จังหวัดเชียงใหม่","Changwat","Province","50","TH.CM","TH-50",98.7048039,17.9226993
"23","ChIJ7xSDEkaJ2zAR8v69fXG51B8","ไก่อบส้มตำยำแซบ..พิกัดผาจุก",5,3,"OK","THA.10_1","THA","Thailand","Chiang Mai","NA","จังหวัดเชียงใหม่","Changwat","Province","50","TH.CM","TH-50",98.69911429999999,17.9287007
"23","ChIJuwyEJTGJ2zARnhvM3IiwuFs","ร้านกับข้าวกับโก้ ข้าวขาหมู หมูกรอบ หมูแดง อาหารตามสั่ง",5,1,"OK","THA.10_1","THA","Thailand","Chiang Mai","NA","จังหวัดเชียงใหม่","Changwat","Province","50","TH.CM","TH-50",98.7267179,17.9159055
"23","ChIJW1EllfOJ2zAR4bNjj1MWfpU","ร้านลาบอส. เเปลง2",4.5,4,"OK","THA.10_1","THA","Thailand","Chiang Mai","NA","จังหวัดเชียงใหม่","Changwat","Province","50","TH.CM","TH-50",98.726098,17.9286646
"23","ChIJlQV2EUuJ2zARvoBOlMVWpl8","ร้านขนมจีนส้มตำ แม่ติ๋ม",5,7,"OK","THA.10_1","THA","Thailand","Chiang Mai","NA","จังหวัดเชียงใหม่","Changwat","Province","50","TH.CM","TH-50",98.69272149999999,17.9465158
"24","ChIJD0IEx2mJ2zARz8Ufamd2ABY","เฮือนฮักดา",3.3,3,"OK","THA.10_1","THA","Thailand","Chiang Mai","NA","จังหวัดเชียงใหม่","Changwat","Province","50","TH.CM","TH-50",98.7055285,17.9266046
"24","ChIJWYpPimmJ2zARt4aRoqkTAlE","ข้าวมันไก่เจ๊วิไล",5,2,"OK","THA.10_1","THA","Thailand","Chiang Mai","NA","จังหวัดเชียงใหม่","Changwat","Province","50","TH.CM","TH-50",98.70994499999999,17.9244007
"24","ChIJvxI3vPaJ2zARwnWTAS4fM0c","ไก่ย่างวิเชียรบุรี",4,1,"OK","THA.10_1","THA","Thailand","Chiang Mai","NA","จังหวัดเชียงใหม่","Changwat","Province","50","TH.CM","TH-50",98.7262635,17.9159092
"24","ChIJ1R5u6bqJ2zAR55YnhZh0sSU","Papaya Salad by Yod Mun",3.3,4,"OK","THA.10_1","THA","Thailand","Chiang Mai","NA","จังหวัดเชียงใหม่","Changwat","Province","50","TH.CM","TH-50",98.70925969999999,17.9233889
"24","ChIJ3-x5xTmJ2zAR8TOgADZuUPU","ฮามีดอยเต่า หมูจุ่มบุฟเฟ้",5,3,"OK","THA.10_1","THA","Thailand","Chiang Mai","NA","จังหวัดเชียงใหม่","Changwat","Province","50","TH.CM","TH-50",98.7290311,17.9093248
"24","ChIJq_Wv3YaJ2zARCEpDumX9bnM","ตำแซ่บ",3,2,"OK","THA.10_1","THA","Thailand","Chiang Mai","NA","จังหวัดเชียงใหม่","Changwat","Province","50","TH.CM","TH-50",98.72358299999999,17.9279065
"25","ChIJ92xOzc2N2zARu0b4zf4xcEI","ร้านก๋วยเตี๋ยวป้าผา @แม่ตูบ",5,3,"OK","THA.10_1","THA","Thailand","Chiang Mai","NA","จังหวัดเชียงใหม่","Changwat","Province","50","TH.CM","TH-50",98.8112158,17.9442004
"27","ChIJY8IZEjV92zARnTsqIMdOyPo","กาแฟรอเก้อออ",4.5,2,"OK","THA.10_1","THA","Thailand","Chiang Mai","NA","จังหวัดเชียงใหม่","Changwat","Province","50","TH.CM","TH-50",98.3596123,17.9578956
"27","ChIJsY8qcL972zARb3hJctKNmos","ร้านอ้ายเป็ดคนเดิม",NA,NA,"OK","THA.10_1","THA","Thailand","Chiang Mai","NA","จังหวัดเชียงใหม่","Changwat","Province","50","TH.CM","TH-50",98.37706159999999,17.9889925
"28","ChIJ33fy4sd72zARHjesyNFY3Ig","ร้านดรีมแอนด์ดั้ม",4.3,4,"OK","THA.10_1","THA","Thailand","Chiang Mai","NA","จังหวัดเชียงใหม่","Changwat","Province","50","TH.CM","TH-50",98.388521,17.9746184
"28","ChIJKbVS_Zp72zARy1rrQx1c5tc","ร้านขนมลูกชิ้นทอด",4.3,4,"OK","THA.10_1","THA","Thailand","Chiang Mai","NA","จังหวัดเชียงใหม่","Changwat","Province","50","TH.CM","TH-50",98.3890819,17.9745242
"29","ChIJyY2kS8aF2zARrLiJaCZL3hU","ร้านบัดดี้เชฟบ้านน้อย",NA,NA,"OK","THA.10_1","THA","Thailand","Chiang Mai","NA","จังหวัดเชียงใหม่","Changwat","Province","50","TH.CM","TH-50",98.633934,18.0278218
"30","ChIJyW9UEfaP2zAR6C_5ciAxzCU","ร้านครัวพี่นุชตามสั่ง ส้มตำ ยำ ย่าง",5,3,"OK","THA.10_1","THA","Thailand","Chiang Mai","NA","จังหวัดเชียงใหม่","Changwat","Province","50","TH.CM","TH-50",98.6863168,17.9517957
"30","ChIJbXj4bvaP2zARK382N5Qbt-4","ครัวบ้านกุ้ง",4.3,11,"OK","THA.10_1","THA","Thailand","Chiang Mai","NA","จังหวัดเชียงใหม่","Changwat","Province","50","TH.CM","TH-50",98.66114920000001,18.0273373
"30","ChIJpfSPcpWP2zARXNcEn-l467s","ครัว อาย กะ อัญ",5,3,"OK","THA.10_1","THA","Thailand","Chiang Mai","NA","จังหวัดเชียงใหม่","Changwat","Province","50","TH.CM","TH-50",98.7003525,17.9524053
"30","ChIJT_Bc25mP2zAR85zjqq-vIks","ก๊วยเตี๋ยวบ้านนา",5,2,"OK","THA.10_1","THA","Thailand","Chiang Mai","NA","จังหวัดเชียงใหม่","Changwat","Province","50","TH.CM","TH-50",98.6687872,18.0162028
"30","ChIJvYCRIcqP2zAR3m8QPIGnxUA","ก๋วยเตี๋ยวท้ายซอย",5,2,"OK","THA.10_1","THA","Thailand","Chiang Mai","NA","จังหวัดเชียงใหม่","Changwat","Province","50","TH.CM","TH-50",98.70438589999999,17.9558607
"30","ChIJ91KsFmmP2zARwcD9jkT49Lk","ร้านอาหารจุปจิ๊ปคาราโอเกะ",5,2,"OK","THA.10_1","THA","Thailand","Chiang Mai","NA","จังหวัดเชียงใหม่","Changwat","Province","50","TH.CM","TH-50",98.68075530000002,17.9618638
"30","ChIJ4cf4r0KP2zARmY5tmQE-QMw","ร้านอาหารตามสั่งและก๋วยเตี๋ยว บ้านแม่ทิศ",5,1,"OK","THA.10_1","THA","Thailand","Chiang Mai","NA","จังหวัดเชียงใหม่","Changwat","Province","50","TH.CM","TH-50",98.67040639999999,18.0185773
"30","ChIJGXxItpiP2zARdi64cdZXLeQ","ร้านก๋วยเตี๋ยวเมืองๆ",5,1,"OK","THA.10_1","THA","Thailand","Chiang Mai","NA","จังหวัดเชียงใหม่","Changwat","Province","50","TH.CM","TH-50",98.70006599999999,17.9508397
"30","ChIJFSmrcHGJ2zARWCFxOv9vTA0","ร้านก๋วยเตี๋ยวแม่คำ",4.4,5,"OK","THA.10_1","THA","Thailand","Chiang Mai","NA","จังหวัดเชียงใหม่","Changwat","Province","50","TH.CM","TH-50",98.6939685,17.9448352
"30","ChIJE7ZYwEeP2zARXIPz2Y72qEQ","ร้านอาหารน้องก้อย",4,2,"OK","THA.10_1","THA","Thailand","Chiang Mai","NA","จังหวัดเชียงใหม่","Changwat","Province","50","TH.CM","TH-50",98.6805213,17.9615474
"30","ChIJZZrPt52P2zARJToYvdTVfHI","PIZZA PHU PING",3,1,"OK","THA.10_1","THA","Thailand","Chiang Mai","NA","จังหวัดเชียงใหม่","Changwat","Province","50","TH.CM","TH-50",98.68540569999999,17.9520347
"33","ChIJGxSWO-xx2zARsax9CHnMMgo","ร้านไก่ย่างวิเชียรบุรี นาฟ่อน",5,1,"OK","THA.10_1","THA","Thailand","Chiang Mai","NA","จังหวัดเชียงใหม่","Changwat","Province","50","TH.CM","TH-50",98.3636609,18.0878384
"33","ChIJgwOHHnF62zARVVXRC9_Yys4","ร้านตะวัน ก๋วยเตี๋ยว อาหารตามสั่ง",5,5,"OK","THA.10_1","THA","Thailand","Chiang Mai","NA","จังหวัดเชียงใหม่","Changwat","Province","50","TH.CM","TH-50",98.36095209999999,18.0601593
"33","ChIJQ72x9cZx2zARAK1aCd9vn_k","เตี๋ยว กรโอชารส @caffee",5,1,"OK","THA.10_1","THA","Thailand","Chiang Mai","NA","จังหวัดเชียงใหม่","Changwat","Province","50","TH.CM","TH-50",98.35915899999999,18.0887465
"33","ChIJra93N95x2zARTC-ykLTahHM","ก๋วยเตี๋ยวต้นกล้า(น้องเก๋)",5,1,"OK","THA.10_1","THA","Thailand","Chiang Mai","NA","จังหวัดเชียงใหม่","Changwat","Province","50","TH.CM","TH-50",98.3653648,18.0944701
"33","ChIJLQg1KTNx2zAROfFMjh0TRzg","Yang_PA View",5,1,"OK","THA.10_1","THA","Thailand","Chiang Mai","NA","จังหวัดเชียงใหม่","Changwat","Province","50","TH.CM","TH-50",98.3382163,18.0818262
"35","ChIJF2UhIACd2zAREcNwVXjq9SE","ป้าแต้ว เครปญี่ปุ่น",5,2,"OK","THA.10_1","THA","Thailand","Chiang Mai","NA","จังหวัดเชียงใหม่","Changwat","Province","50","TH.CM","TH-50",98.5595175,18.0503848
"35","ChIJj3WHfUGd2zARyPQ5JW_ll9M","Moo & Moo E-san Restaurant Branch",5,2,"OK","THA.10_1","THA","Thailand","Chiang Mai","NA","จังหวัดเชียงใหม่","Changwat","Province","50","TH.CM","TH-50",98.54450659999999,18.0621783
"36","ChIJp0_D5L-F2zAR8rV4wLarkDQ","ร้านเครปบ้านแอ่น",4.6,5,"OK","THA.10_1","THA","Thailand","Chiang Mai","NA","จังหวัดเชียงใหม่","Changwat","Province","50","TH.CM","TH-50",98.6282507,18.0375872
"36","ChIJs_lc7XGb2zARnAOF0Ya3_w0","อาหารเจ (Vegetarian Food)",4,1,"OK","THA.10_1","THA","Thailand","Chiang Mai","NA","จังหวัดเชียงใหม่","Changwat","Province","50","TH.CM","TH-50",98.6300799,18.0817995
"36","ChIJgxx0vYWb2zARsnOP4imnEUg","Saijai shop",4.4,14,"OK","THA.10_1","THA","Thailand","Chiang Mai","NA","จังหวัดเชียงใหม่","Changwat","Province","50","TH.CM","TH-50",98.6367492,18.0616798
"36","ChIJBX26w2Kb2zARllRqBSCXP4k","ก๋วยเตี๋ยวเรือถูกปาก อาหารตามสั่ง สาขาดอยเต่า-ฮอด",5,2,"OK","THA.10_1","THA","Thailand","Chiang Mai","NA","จังหวัดเชียงใหม่","Changwat","Province","50","TH.CM","TH-50",98.63691589999999,18.0648298
"36","ChIJWwB887ub2zARwzbqvKgRTj8","ร้าน ลาบเก๊าโพธิ์ วังหม้อ",NA,NA,"OK","THA.10_1","THA","Thailand","Chiang Mai","NA","จังหวัดเชียงใหม่","Changwat","Province","50","TH.CM","TH-50",98.6353104,18.0650501
"37","ChIJBZG2ewCR2zARGBUM8-mXbtw","ร้านก๋วยเตี๋ยวลุงเฮือน",5,2,"OK","THA.10_1","THA","Thailand","Chiang Mai","NA","จังหวัดเชียงใหม่","Changwat","Province","50","TH.CM","TH-50",98.68630879999999,18.0974233
"37","ChIJ6T1bvPGQ2zARCmxGHnbIIoA","ร้านอาหารแม่ทองตามสั่ง",4.7,6,"OK","THA.10_1","THA","Thailand","Chiang Mai","NA","จังหวัดเชียงใหม่","Changwat","Province","50","TH.CM","TH-50",98.68855610000001,18.098773
"38","ChIJh0AT0dRv2zARVK2j8yZ2Hk0","ใจกลางดอย",4.9,16,"OK","THA.10_1","THA","Thailand","Chiang Mai","NA","จังหวัดเชียงใหม่","Changwat","Province","50","TH.CM","TH-50",98.2451107,18.1509786
"38","ChIJd2xR7uNp2zARQ897TNuzDvw","โฮงเหล็กคอฟฟี่",4.7,40,"OK","THA.10_1","THA","Thailand","Chiang Mai","NA","จังหวัดเชียงใหม่","Changwat","Province","50","TH.CM","TH-50",98.2211808,18.1061706
"38","ChIJ56uj6hlp2zARrLFb0kkAQNU","Hom Doi Coffee",4,2,"OK","THA.10_1","THA","Thailand","Chiang Mai","NA","จังหวัดเชียงใหม่","Changwat","Province","50","TH.CM","TH-50",98.20436079999999,18.0939031
"38","ChIJE7wldABv2zARPPVnd-tAyjo","Thai Grandma's",5,2,"OK","THA.10_1","THA","Thailand","Chiang Mai","NA","จังหวัดเชียงใหม่","Changwat","Province","50","TH.CM","TH-50",98.2463385,18.1510392
"38","ChIJ2X5b-ftp2zARYmBL2-5n8ls","สลัมเปอร์หม่าล่า",4.3,3,"OK","THA.10_1","THA","Thailand","Chiang Mai","NA","จังหวัดเชียงใหม่","Changwat","Province","50","TH.CM","TH-50",98.2212287,18.1061728
"38","ChIJt-9LIURv2zAR_s7plyCQykk","ก๋วยเตี๋ยวไก่มะระกองลอย",4.2,18,"OK","THA.10_1","THA","Thailand","Chiang Mai","NA","จังหวัดเชียงใหม่","Changwat","Province","50","TH.CM","TH-50",98.24652979999999,18.1509465
"39","ChIJifB56xBt2zARFfhV7Uq2vX0","ร้านข้าวซอยร่มโพธิ์",4.5,11,"OK","THA.10_1","THA","Thailand","Chiang Mai","NA","จังหวัดเชียงใหม่","Changwat","Province","50","TH.CM","TH-50",98.2474007,18.157173
"39","ChIJky_tKC1v2zARN0bMgAJ3wTM","ร้านหัวขัวคาเฟ่",4.9,9,"OK","THA.10_1","THA","Thailand","Chiang Mai","NA","จังหวัดเชียงใหม่","Changwat","Province","50","TH.CM","TH-50",98.2489683,18.149284
"39","ChIJNd2YOwBv2zARmIBvdLhDH1g","Khao soi shop",5,10,"OK","THA.10_1","THA","Thailand","Chiang Mai","NA","จังหวัดเชียงใหม่","Changwat","Province","50","TH.CM","TH-50",98.24731059999999,18.1500969
"39","ChIJJQE9T2Fv2zARNxcKUiKXvCA","ร้านข้าวขาหมู ทุ่งสน",5,4,"OK","THA.10_1","THA","Thailand","Chiang Mai","NA","จังหวัดเชียงใหม่","Changwat","Province","50","TH.CM","TH-50",98.2895853,18.1522535
"39","ChIJJfi_PQBt2zAR8Ekli4gaS6c","ร้านลาบคนเมืองลุงช่วย",5,1,"OK","THA.10_1","THA","Thailand","Chiang Mai","NA","จังหวัดเชียงใหม่","Changwat","Province","50","TH.CM","TH-50",98.247278,18.1578695
"39","ChIJgfJuY8Jt2zARnMR85asJBMg","สุข ฮิมตาง",NA,NA,"OK","THA.10_1","THA","Thailand","Chiang Mai","NA","จังหวัดเชียงใหม่","Changwat","Province","50","TH.CM","TH-50",98.24695390000001,18.1577414
"40","ChIJLVueFrtx2zARD8lguRNYXzI","Manmok cafe",4.5,32,"OK","THA.10_1","THA","Thailand","Chiang Mai","NA","จังหวัดเชียงใหม่","Changwat","Province","50","TH.CM","TH-50",98.3753942,18.1099772
"40","ChIJj7nokfxx2zARf83u6spqBz4","ครัวคุณแอ๋ว2023",4.8,20,"OK","THA.10_1","THA","Thailand","Chiang Mai","NA","จังหวัดเชียงใหม่","Changwat","Province","50","TH.CM","TH-50",98.3488019,18.1469423
"40","ChIJfyGMj2xx2zARng8BKqFgvP4","เเอ่วเพ้ Coffee",4.5,4,"OK","THA.10_1","THA","Thailand","Chiang Mai","NA","จังหวัดเชียงใหม่","Changwat","Province","50","TH.CM","TH-50",98.31625729999999,18.1442379
"40","ChIJOyHqEtVx2zARZE6D8ypLn7A","ลาบส้าบ้านขุน",5,1,"OK","THA.10_1","THA","Thailand","Chiang Mai","NA","จังหวัดเชียงใหม่","Changwat","Province","50","TH.CM","TH-50",98.3749529,18.1044614
"40","ChIJbVcls4Bx2zAR8y7i9bGcXi0","เตี๋ยว เตาถ่านบ้านบ่อหลวง",5,4,"OK","THA.10_1","THA","Thailand","Chiang Mai","NA","จังหวัดเชียงใหม่","Changwat","Province","50","TH.CM","TH-50",98.3513445,18.1504951
"40","ChIJMUHFiMZx2zARY_5TijIzobU","ร้านอาหารเฮือนกรแก้ว",4.8,75,"OK","THA.10_1","THA","Thailand","Chiang Mai","NA","จังหวัดเชียงใหม่","Changwat","Province","50","TH.CM","TH-50",98.3734819,18.1350126
"40","ChIJ3zYSghxx2zARD9dUFbi6iow","คอฟฟี่ชิลด์ Coffee chill",5,7,"OK","THA.10_1","THA","Thailand","Chiang Mai","NA","จังหวัดเชียงใหม่","Changwat","Province","50","TH.CM","TH-50",98.35165889999999,18.14672
"40","ChIJ8WrikuZx2zAR3WgpbRVKNvU","ร้านลุงแกละบ้านขุน",4.3,16,"OK","THA.10_1","THA","Thailand","Chiang Mai","NA","จังหวัดเชียงใหม่","Changwat","Province","50","TH.CM","TH-50",98.3745797,18.1045673
"40","ChIJ4dEoKdFx2zAR6XSVHMKypOo","เฮง เฮง อาหารตามสั่ง",4.6,17,"OK","THA.10_1","THA","Thailand","Chiang Mai","NA","จังหวัดเชียงใหม่","Changwat","Province","50","TH.CM","TH-50",98.3473617,18.146933400000002
"40","ChIJ4X7Lp9Fx2zARzWc9mjoi0Qc","ร้านอาหารตามสั่ง ป้าบุญเรือน",4.5,13,"OK","THA.10_1","THA","Thailand","Chiang Mai","NA","จังหวัดเชียงใหม่","Changwat","Province","50","TH.CM","TH-50",98.3727375,18.1366545
"40","ChIJr_wIQIFx2zARIqPDcZi1XbQ","ดอกสน คาเฟ่ DokSon Cafe'",4.4,23,"OK","THA.10_1","THA","Thailand","Chiang Mai","NA","จังหวัดเชียงใหม่","Changwat","Province","50","TH.CM","TH-50",98.3485522,18.1470194
"41","ChIJgaHgsxNz2zARs0Dh-QBtNkQ","ระเบียงสน cafe",4.6,18,"OK","THA.10_1","THA","Thailand","Chiang Mai","NA","จังหวัดเชียงใหม่","Changwat","Province","50","TH.CM","TH-50",98.3869194,18.1559894
"41","ChIJq3B-riFp2zAR3FCRMuJOlo0","กาแฟสวนสน coffee&rest",4.6,65,"OK","THA.10_1","THA","Thailand","Chiang Mai","NA","จังหวัดเชียงใหม่","Changwat","Province","50","TH.CM","TH-50",98.3860304,18.1554225
"41","ChIJnYAyWPtz2zARilniBF7vuxc","ร้านน้องบิว อาหารเครื่องดื่ม",4.4,30,"OK","THA.10_1","THA","Thailand","Chiang Mai","NA","จังหวัดเชียงใหม่","Changwat","Province","50","TH.CM","TH-50",98.3862895,18.1557449
"41","ChIJe72Vg3Fz2zAR0ERj2r8LuXA","ร้านป้าพิมหน้าโรงเรียนบ่อหลวง",5,3,"OK","THA.10_1","THA","Thailand","Chiang Mai","NA","จังหวัดเชียงใหม่","Changwat","Province","50","TH.CM","TH-50",98.3542173,18.1511875
"41","ChIJo-dBZZxx2zARz1j1mQlLNCY","บ่อหลวง ซีฟู้ด",NA,NA,"OK","THA.10_1","THA","Thailand","Chiang Mai","NA","จังหวัดเชียงใหม่","Changwat","Province","50","TH.CM","TH-50",98.357672,18.147148
"41","ChIJxU_FMDtx2zARAWq_T0tu2Y0","Baankhun, Hot, Chiangmai",NA,NA,"OK","THA.10_1","THA","Thailand","Chiang Mai","NA","จังหวัดเชียงใหม่","Changwat","Province","50","TH.CM","TH-50",98.37531,18.1041696
"41","ChIJLwg0Qmhx2zARJZ1qOPBtpW0","Chatthip Kio Lom",3.5,4,"OK","THA.10_1","THA","Thailand","Chiang Mai","NA","จังหวัดเชียงใหม่","Changwat","Province","50","TH.CM","TH-50",98.3727301,18.1367375
"42","ChIJF2ClUgCZ2zARLXssAIEI5vI","แม่น้อย ข้าวยำแหนมคลุก",5,2,"OK","THA.10_1","THA","Thailand","Chiang Mai","NA","จังหวัดเชียงใหม่","Changwat","Province","50","TH.CM","TH-50",98.60597469999999,18.1591592
"42","ChIJFSJwiQuZ2zAR2pMhXRAl1wM","ครัวจ่ากร",4.8,4,"OK","THA.10_1","THA","Thailand","Chiang Mai","NA","จังหวัดเชียงใหม่","Changwat","Province","50","TH.CM","TH-50",98.6024511,18.1411377
"42","ChIJexIeYAqZ2zARugt0mTWxMcw","ร้านระเบียงไม้",4.9,27,"OK","THA.10_1","THA","Thailand","Chiang Mai","NA","จังหวัดเชียงใหม่","Changwat","Province","50","TH.CM","TH-50",98.6081128,18.1642062
"42","ChIJsdNt6x6a2zARNg1MOF_NwJw","ครัวพิมพ์ศิริ",4,21,"OK","THA.10_1","THA","Thailand","Chiang Mai","NA","จังหวัดเชียงใหม่","Changwat","Province","50","TH.CM","TH-50",98.64196679999999,18.1339588
"42","ChIJFYYTB-SZ2zAR6Z0UkFT5K8w","บ้านครูแต จุฑามาศ",NA,NA,"OK","THA.10_1","THA","Thailand","Chiang Mai","NA","จังหวัดเชียงใหม่","Changwat","Province","50","TH.CM","TH-50",98.60782189999999,18.166216
"42","ChIJ-1f4Q7qb2zAREHyth7anrxI","ร้านอาหารตามสั่ง",4.5,2,"OK","THA.10_1","THA","Thailand","Chiang Mai","NA","จังหวัดเชียงใหม่","Changwat","Province","50","TH.CM","TH-50",98.6033688,18.1086225
"42","ChIJz9Fuwu6b2zAReGOHOg5zhTc","ร้านฮิมตางหม่าล่าหมู่จุ่มปลาจุ่ม",5,1,"OK","THA.10_1","THA","Thailand","Chiang Mai","NA","จังหวัดเชียงใหม่","Changwat","Province","50","TH.CM","TH-50",98.6016937,18.1195602
"42","ChIJqfjsf9eZ2zARfYSiCgBO6-I","ร้านส้มตำพี่นี หรือ ส้มตำต้นตะขบ",4.5,4,"OK","THA.10_1","THA","Thailand","Chiang Mai","NA","จังหวัดเชียงใหม่","Changwat","Province","50","TH.CM","TH-50",98.6088743,18.1659532
"42","ChIJCW6iam6b2zARSeTEfgUsif4","อิงจ๊อม",NA,NA,"OK","THA.10_1","THA","Thailand","Chiang Mai","NA","จังหวัดเชียงใหม่","Changwat","Province","50","TH.CM","TH-50",98.6012147,18.1295864
"42","ChIJLUwJVpiZ2zAROQ3CM5d_jgM","ร้านก๋วยเตี๋ยวเรือคุณออย",5,1,"OK","THA.10_1","THA","Thailand","Chiang Mai","NA","จังหวัดเชียงใหม่","Changwat","Province","50","TH.CM","TH-50",98.6089999,18.1658664
"43","ChIJnZI_kQ-a2zARIh8cLZM7aek","Punpnom&Coffee",5,1,"OK","THA.10_1","THA","Thailand","Chiang Mai","NA","จังหวัดเชียงใหม่","Changwat","Province","50","TH.CM","TH-50",98.6409601,18.1248507
"44","ChIJz5sA1pxt2zARg6HdXGoe_yk","มาหา คาเฟ่",5,1,"OK","THA.10_1","THA","Thailand","Chiang Mai","NA","จังหวัดเชียงใหม่","Changwat","Province","50","TH.CM","TH-50",98.2431747,18.1792804
"45","ChIJsS-JUK5v2zARk-3GXlw2Aos","นึกข้าวมันไก่",NA,NA,"OK","THA.10_1","THA","Thailand","Chiang Mai","NA","จังหวัดเชียงใหม่","Changwat","Province","50","TH.CM","TH-50",98.2494959,18.1497321
"46","ChIJk7ki6rRx2zARq_AG0Xg0SGA","ครัวคุณติ๋ว",5,1,"OK","THA.10_1","THA","Thailand","Chiang Mai","NA","จังหวัดเชียงใหม่","Changwat","Province","50","TH.CM","TH-50",98.34769500000002,18.1470919
"46","ChIJydj9LhZx2zAR6tIEYCnN1Fk","ครัวนายสน",NA,NA,"OK","THA.10_1","THA","Thailand","Chiang Mai","NA","จังหวัดเชียงใหม่","Changwat","Province","50","TH.CM","TH-50",98.34819,18.147633
"46","ChIJ6yszuvtx2zAR-fd2HWNbg88","ร้านอาหารตามสั่ง ร้านป้าเอ้ย",5,2,"OK","THA.10_1","THA","Thailand","Chiang Mai","NA","จังหวัดเชียงใหม่","Changwat","Province","50","TH.CM","TH-50",98.31637029999999,18.1443137
"48","ChIJ6Tc1CQCf2zARGFszy86qp98","Q.Q สุกี้ล้อโต สาขาฮอด",NA,NA,"OK","THA.10_1","THA","Thailand","Chiang Mai","NA","จังหวัดเชียงใหม่","Changwat","Province","50","TH.CM","TH-50",98.5062007,18.1678057
"48","ChIJxxGIRd912zAR4nMjFO8cpMQ","ออบหลวงครัวเมืองทอง",4.3,11,"OK","THA.10_1","THA","Thailand","Chiang Mai","NA","จังหวัดเชียงใหม่","Changwat","Province","50","TH.CM","TH-50",98.4820834,18.2226793
"48","ChIJb9hz0Fh12zARyaowPHWf_eQ","ร้านครัวแต้มตาล (อุทยานแห่งชาติออบหลวง)",4.1,58,"OK","THA.10_1","THA","Thailand","Chiang Mai","NA","จังหวัดเชียงใหม่","Changwat","Province","50","TH.CM","TH-50",98.48203190000001,18.2226316
"49","ChIJd5eJj4qY2zARFLg8e-kLbBU","ครัวคุณชุ (กม.8)",4.5,102,"OK","THA.10_1","THA","Thailand","Chiang Mai","NA","จังหวัดเชียงใหม่","Changwat","Province","50","TH.CM","TH-50",98.5643125,18.2280625
"49","ChIJD1WNMwCf2zARPK-GLLOBfLw","แพไอซ์ซี่ - พัทยาฮอด",4.3,3,"OK","THA.10_1","THA","Thailand","Chiang Mai","NA","จังหวัดเชียงใหม่","Changwat","Province","50","TH.CM","TH-50",98.5634003,18.2279189
"50","ChIJlZf2lUqZ2zAR0JtHYjqkqi0","Over1199cafe",4.8,16,"OK","THA.10_1","THA","Thailand","Chiang Mai","NA","จังหวัดเชียงใหม่","Changwat","Province","50","TH.CM","TH-50",98.60803480000001,18.1945881
"50","ChIJxXbEkmiZ2zARsHPazpPyZMQ","Good Morning Hod",4.6,91,"OK","THA.10_1","THA","Thailand","Chiang Mai","NA","จังหวัดเชียงใหม่","Changwat","Province","50","TH.CM","TH-50",98.6074038,18.1928433
"50","ChIJcahuBm-Z2zAR9t0kysTqSKE","Coffee​ CONS.",4.5,41,"OK","THA.10_1","THA","Thailand","Chiang Mai","NA","จังหวัดเชียงใหม่","Changwat","Province","50","TH.CM","TH-50",98.615937,18.2106815
"50","ChIJ8YuSK3WZ2zARZplejr_n7O0","ร้าน ชิลล์ริมน้ำ",4.8,33,"OK","THA.10_1","THA","Thailand","Chiang Mai","NA","จังหวัดเชียงใหม่","Changwat","Province","50","TH.CM","TH-50",98.6164393,18.1986316
"50","ChIJ100WqfGZ2zARFLg-fcu7z-w","168 คาเฟ่",5,7,"OK","THA.10_1","THA","Thailand","Chiang Mai","NA","จังหวัดเชียงใหม่","Changwat","Province","50","TH.CM","TH-50",98.6030519,18.1933745
"50","ChIJ7baX74KZ2zARR6eT9_kw-LQ","ครัวป้าอี๊ด",4.5,8,"OK","THA.10_1","THA","Thailand","Chiang Mai","NA","จังหวัดเชียงใหม่","Changwat","Province","50","TH.CM","TH-50",98.61376109999999,18.1808997
"50","ChIJ94O8cwCZ2zARq0is1h4iEj4","เฮือนอุ้ย1975",4.8,4,"OK","THA.10_1","THA","Thailand","Chiang Mai","NA","จังหวัดเชียงใหม่","Changwat","Province","50","TH.CM","TH-50",98.61546589999999,18.2256547
"50","ChIJ0QBLCzuZ2zAR7np--DNY6g8","แซ่บ ขนาด",5,2,"OK","THA.10_1","THA","Thailand","Chiang Mai","NA","จังหวัดเชียงใหม่","Changwat","Province","50","TH.CM","TH-50",98.6119838,18.1905334
"50","ChIJj4w3fgCZ2zARaru-w6KOvGE","อ้นดำตำแซ่บ",5,5,"OK","THA.10_1","THA","Thailand","Chiang Mai","NA","จังหวัดเชียงใหม่","Changwat","Province","50","TH.CM","TH-50",98.61246299999999,18.178405
"50","ChIJzV-cCGOZ2zARaKa3_JXG4I4","ลาบริมทาง ท่าข้ามเหนือ",5,4,"OK","THA.10_1","THA","Thailand","Chiang Mai","NA","จังหวัดเชียงใหม่","Changwat","Province","50","TH.CM","TH-50",98.61646499999999,18.2072561
"50","ChIJvypfeQCZ2zAR2VS5zNvAcpQ","ต๋าหลิ่ง ก๋วยเตี๋ยวแห้งโบราณ",5,3,"OK","THA.10_1","THA","Thailand","Chiang Mai","NA","จังหวัดเชียงใหม่","Changwat","Province","50","TH.CM","TH-50",98.6158133,18.2164355
"50","ChIJ0YFqnuGh2zARLLdVO7VbiAg","ครัวหลังบ้าน",5,2,"OK","THA.10_1","THA","Thailand","Chiang Mai","NA","จังหวัดเชียงใหม่","Changwat","Province","50","TH.CM","TH-50",98.6168031,18.2132921
"50","ChIJ857-wweZ2zARfFO2oogQdog","LENSEN เล่นเส้น @ฮอด",5,4,"OK","THA.10_1","THA","Thailand","Chiang Mai","NA","จังหวัดเชียงใหม่","Changwat","Province","50","TH.CM","TH-50",98.6129835,18.1861056
"50","ChIJoeuNQgCZ2zAR8rRJlZIFYgE","KFC PTTOR Hot",4.9,72,"OK","THA.10_1","THA","Thailand","Chiang Mai","NA","จังหวัดเชียงใหม่","Changwat","Province","50","TH.CM","TH-50",98.61597619999999,18.216419900000002
"50","ChIJKwu2Bt6Z2zARi4u1zcPpkMc","Rod antique studio",5,1,"OK","THA.10_1","THA","Thailand","Chiang Mai","NA","จังหวัดเชียงใหม่","Changwat","Province","50","TH.CM","TH-50",98.61616079999999,18.1812073
"50","ChIJ5XRO17CZ2zARAnJJQwt9z-k","ลาบบ้านเด่น",4.3,43,"OK","THA.10_1","THA","Thailand","Chiang Mai","NA","จังหวัดเชียงใหม่","Changwat","Province","50","TH.CM","TH-50",98.6319226,18.1765489
"50","ChIJZc2M7JCZ2zARNJE9yHlNkSQ","ร้านครัวฮิมเหมือง",4.4,9,"OK","THA.10_1","THA","Thailand","Chiang Mai","NA","จังหวัดเชียงใหม่","Changwat","Province","50","TH.CM","TH-50",98.6168003,18.1985535
"50","ChIJYSkYMtmZ2zAR1ooOJmBXYvs","ร้านกะเพรารสเด็ด",5,2,"OK","THA.10_1","THA","Thailand","Chiang Mai","NA","จังหวัดเชียงใหม่","Changwat","Province","50","TH.CM","TH-50",98.6127731,18.1889078
"52","ChIJadqAV8hr2zARyAdBhsYanr8","Grandma Fong",4.6,16,"OK","THA.10_1","THA","Thailand","Chiang Mai","NA","จังหวัดเชียงใหม่","Changwat","Province","50","TH.CM","TH-50",98.193151,18.249956
"53","ChIJMcdTIAAV2zAR_RXrk9SJAEs","ครัวนวลพรรณ (ร้านอาหารญี่ปุ่นคุณฝน)",4.8,5,"OK","THA.10_1","THA","Thailand","Chiang Mai","NA","จังหวัดเชียงใหม่","Changwat","Province","50","TH.CM","TH-50",98.19989869999999,18.2523874
"53","ChIJuz3yvp5r2zARtvKz2yHQn7g","แม่โถกาแฟสด​ชายสี่หมี่เกี๊ยว",4.7,3,"OK","THA.10_1","THA","Thailand","Chiang Mai","NA","จังหวัดเชียงใหม่","Changwat","Province","50","TH.CM","TH-50",98.2047308,18.249484
"53","ChIJNTOBi1lr2zARZh6m-9dV9Ao","แม่โถ ผัดไทยสะวันนา",5,1,"OK","THA.10_1","THA","Thailand","Chiang Mai","NA","จังหวัดเชียงใหม่","Changwat","Province","50","TH.CM","TH-50",98.20273619999999,18.2504557
"54","ChIJ89Q3cZAM2zARvLBwdc0qaTs","ร้านอาหารนิต้า&กาแฟสด",3.8,12,"OK","THA.10_1","THA","Thailand","Chiang Mai","NA","จังหวัดเชียงใหม่","Changwat","Province","50","TH.CM","TH-50",98.38507659999999,18.2769754
"54","ChIJq6WCZsIN2zAR8x3hsetHhfE","เก๊าผักหวาน หม่าล่าชาลิ้น",5,2,"OK","THA.10_1","THA","Thailand","Chiang Mai","NA","จังหวัดเชียงใหม่","Changwat","Province","50","TH.CM","TH-50",98.3805204,18.2781183
"54","ChIJtWysWY8N2zAReHNZcF27Z3M","ครัวเหนือผา ริมน้ำแจ่มบ้านแม่ขูด",5,1,"OK","THA.10_1","THA","Thailand","Chiang Mai","NA","จังหวัดเชียงใหม่","Changwat","Province","50","TH.CM","TH-50",98.38441569999999,18.2771418
"54","ChIJu3m3fQAN2zARuomClEEMzPY","ร้านอาหารตามสั่งชวนชิม",NA,NA,"OK","THA.10_1","THA","Thailand","Chiang Mai","NA","จังหวัดเชียงใหม่","Changwat","Province","50","TH.CM","TH-50",98.38015779999999,18.2808216
"54","ChIJC32NbAB12zARe5p2T5b5jRI","ร้านก๋วยเตี๋ยวน้องทวินท่าเรือ",5,1,"OK","THA.10_1","THA","Thailand","Chiang Mai","NA","จังหวัดเชียงใหม่","Changwat","Province","50","TH.CM","TH-50",98.436648,18.2334852
"54","ChIJE7a8kNkN2zARMAFPBSMRWSo","ร้านน้อง ลูกตาล",5,3,"OK","THA.10_1","THA","Thailand","Chiang Mai","NA","จังหวัดเชียงใหม่","Changwat","Province","50","TH.CM","TH-50",98.38268169999999,18.2775084
"55","ChIJTbULdcsL2zARsQ3gfISN_c8","ร้านก๋วยเตี๋ยวอ้ายต้น (ton bodyslam)",NA,NA,"OK","THA.10_1","THA","Thailand","Chiang Mai","NA","จังหวัดเชียงใหม่","Changwat","Province","50","TH.CM","TH-50",98.48018379999999,18.2648157
"56","ChIJLS-VnIif2zARkecPQZB0EPg","Fanta Sea Paehod Shop",3.7,27,"OK","THA.10_1","THA","Thailand","Chiang Mai","NA","จังหวัดเชียงใหม่","Changwat","Province","50","TH.CM","TH-50",98.56512819999999,18.2281825
"57","ChIJj7e9v4Kj2zARO51jM_aU4Xk","ฮิมปิง คาเฟ่",4.4,10,"OK","THA.10_1","THA","Thailand","Chiang Mai","NA","จังหวัดเชียงใหม่","Changwat","Province","50","TH.CM","TH-50",98.6542422,18.2811063
"57","ChIJJVIT33aZ2zARMBRnVu_1leU","Kenya Coffee & Bistro",4.8,6,"OK","THA.10_1","THA","Thailand","Chiang Mai","NA","จังหวัดเชียงใหม่","Changwat","Province","50","TH.CM","TH-50",98.6203488,18.2182643
"57","ChIJ7476Lpmj2zAR2dFeJhfjpzA","ร้านบัดดี้เชฟ สาขาแม่สอย",5,1,"OK","THA.10_1","THA","Thailand","Chiang Mai","NA","จังหวัดเชียงใหม่","Changwat","Province","50","TH.CM","TH-50",98.6417396,18.2895836
"57","ChIJqUo-UG2i2zARLnjHvluO_70","Obluang Gasstation (ออบหลวงแก๊สสเตชั่น)",4.7,13,"OK","THA.10_1","THA","Thailand","Chiang Mai","NA","จังหวัดเชียงใหม่","Changwat","Province","50","TH.CM","TH-50",98.6071822,18.2372861
"57","ChIJ0eZv0mOj2zARmSm7UZOfpqo","ร้านกินลำอิ่มดี",5,1,"OK","THA.10_1","THA","Thailand","Chiang Mai","NA","จังหวัดเชียงใหม่","Changwat","Province","50","TH.CM","TH-50",98.59475309999999,18.2525057
"57","ChIJvVjZcQCj2zAR0K44EhzvlLY","หมูจุ่ม อิจ๋อย &คาเฟ่",5,1,"OK","THA.10_1","THA","Thailand","Chiang Mai","NA","จังหวัดเชียงใหม่","Changwat","Province","50","TH.CM","TH-50",98.65400489999999,18.2810764
"57","ChIJl5jzLWij2zARZ2qnHU_MiKQ","ก๋วยเตี๋ยวไก่ แม่นวล ริมปิง",4.8,4,"OK","THA.10_1","THA","Thailand","Chiang Mai","NA","จังหวัดเชียงใหม่","Changwat","Province","50","TH.CM","TH-50",98.64695809999999,18.294073
"57","ChIJgZ0t3LmZ2zARGPacN9sYXsY","ร้านฟาร์มสุข",4.7,3,"OK","THA.10_1","THA","Thailand","Chiang Mai","NA","จังหวัดเชียงใหม่","Changwat","Province","50","TH.CM","TH-50",98.60933969999999,18.2164702
"58","ChIJr0Ou5T6j2zARoh0NFiTdg08","ร้านฮิมตาง กาแฟสด",4,2,"OK","THA.10_1","THA","Thailand","Chiang Mai","NA","จังหวัดเชียงใหม่","Changwat","Province","50","TH.CM","TH-50",98.6424021,18.2973326
"58","ChIJDb_0qIij2zARVaIF8lmxmpE","Vacation Rimping เวเคชั่น ริมปิง",5,5,"OK","THA.10_1","THA","Thailand","Chiang Mai","NA","จังหวัดเชียงใหม่","Changwat","Province","50","TH.CM","TH-50",98.6502598,18.2772621
"58","ChIJpdDkXyOj2zAREwzCmZj9b2A","Ooi's restaurant",4,1,"OK","THA.10_1","THA","Thailand","Chiang Mai","NA","จังหวัดเชียงใหม่","Changwat","Province","50","TH.CM","TH-50",98.6435209,18.289566399999998
"58","ChIJheh7M9CX2zARgctjqDM1nZ8","หลบมุมอาหารตามสั่ง",NA,NA,"OK","THA.10_1","THA","Thailand","Chiang Mai","NA","จังหวัดเชียงใหม่","Changwat","Province","50","TH.CM","TH-50",98.6577131,18.2839799
"58","ChIJo4eRI26j2zARizoitBCd1u8","ร้านส้มตำยำแซ่บบ้านสวน",NA,NA,"OK","THA.10_1","THA","Thailand","Chiang Mai","NA","จังหวัดเชียงใหม่","Changwat","Province","50","TH.CM","TH-50",98.6400496,18.2897127
"58","ChIJg7d5YQCj2zARaoElVTHQN-Q","ร้านพี่ปาตามสั่ง",NA,NA,"OK","THA.10_1","THA","Thailand","Chiang Mai","NA","จังหวัดเชียงใหม่","Changwat","Province","50","TH.CM","TH-50",98.6414971,18.2896167
"58","ChIJx65IegCj2zARqp9WC0CUC3k","ข้าวมันไก่คุณจันทร์",NA,NA,"OK","THA.10_1","THA","Thailand","Chiang Mai","NA","จังหวัดเชียงใหม่","Changwat","Province","50","TH.CM","TH-50",98.64169319999999,18.2895036
"58","ChIJX_fDfo2j2zARkvwRjSkzJyA","ร้านไก่ย่างวิเชียรปากทางเเม่สอย",4.3,3,"OK","THA.10_1","THA","Thailand","Chiang Mai","NA","จังหวัดเชียงใหม่","Changwat","Province","50","TH.CM","TH-50",98.64113049999999,18.2896752
"58","ChIJr_9XhpWj2zARLJc7BScaQTQ","ร้านก๋วยเตี๋ยวเรือแดนไทย",NA,NA,"OK","THA.10_1","THA","Thailand","Chiang Mai","NA","จังหวัดเชียงใหม่","Changwat","Province","50","TH.CM","TH-50",98.64256499999999,18.292295
"58","ChIJy_I0QBuj2zARom9rZX-eTEo","MALA HOUSE",NA,NA,"OK","THA.10_1","THA","Thailand","Chiang Mai","NA","จังหวัดเชียงใหม่","Changwat","Province","50","TH.CM","TH-50",98.6571486,18.2799081
"58","ChIJE9YIJwCj2zARP3u26bGYzz0","ก๋วยเตี๋ยวยายแขก",5,1,"OK","THA.10_1","THA","Thailand","Chiang Mai","NA","จังหวัดเชียงใหม่","Changwat","Province","50","TH.CM","TH-50",98.6592775,18.2839482
"60","ChIJ3SABlpsN2zARRc55ZiPa6zs","Khunya coffee",4.8,48,"OK","THA.10_1","THA","Thailand","Chiang Mai","NA","จังหวัดเชียงใหม่","Changwat","Province","50","TH.CM","TH-50",98.3620365,18.3284794
"60","ChIJoYVhvJkO2zARthXvfqCbmRk","ครัวแม่กรรณิกา อาหารตามสั่ง",4.3,16,"OK","THA.10_1","THA","Thailand","Chiang Mai","NA","จังหวัดเชียงใหม่","Changwat","Province","50","TH.CM","TH-50",98.3707463,18.3482673
"60","ChIJmwASIfcP2zARH6ElW_Gbd3w","ครัวแม่แอ้ม",5,1,"OK","THA.10_1","THA","Thailand","Chiang Mai","NA","จังหวัดเชียงใหม่","Changwat","Province","50","TH.CM","TH-50",98.36739399999999,18.3409061
"60","ChIJBUF1qBUP2zAR5DsrYNlGH60","ลุงหนูโภชนา",5,5,"OK","THA.10_1","THA","Thailand","Chiang Mai","NA","จังหวัดเชียงใหม่","Changwat","Province","50","TH.CM","TH-50",98.367255,18.3399017
"60","ChIJOdOneq0N2zARusRyxEFzzz0","ร้านแม่อ้วน อาหารตามสั่ง",4.7,3,"OK","THA.10_1","THA","Thailand","Chiang Mai","NA","จังหวัดเชียงใหม่","Changwat","Province","50","TH.CM","TH-50",98.3661082,18.3380235
"60","ChIJWySWGwAN2zAR7-dJlVSrCQg","ก๋วยเตี๋ยวต้มยำ (ออชอ)",NA,NA,"OK","THA.10_1","THA","Thailand","Chiang Mai","NA","จังหวัดเชียงใหม่","Changwat","Province","50","TH.CM","TH-50",98.3589324,18.306541
"62","ChIJF7ediHkL2zARYyaCK3Wt7mQ","ลาดชมดาวขี้ค้างคาว บ้านขุนแปะ",4,6,"OK","THA.10_1","THA","Thailand","Chiang Mai","NA","จังหวัดเชียงใหม่","Changwat","Province","50","TH.CM","TH-50",98.48105460000001,18.3052583
"62","ChIJ577y058L2zARCkmunaGKmKo","ร้านอาหารตามสั่ง พี่สมศรี (รูปี)",4.7,3,"OK","THA.10_1","THA","Thailand","Chiang Mai","NA","จังหวัดเชียงใหม่","Changwat","Province","50","TH.CM","TH-50",98.4765238,18.3210221
"62","ChIJZ_Vjn9AL2zARfTh08lTCMtE","ร้านนก อาหารตามสั่ง",4,2,"OK","THA.10_1","THA","Thailand","Chiang Mai","NA","จังหวัดเชียงใหม่","Changwat","Province","50","TH.CM","TH-50",98.47838670000002,18.3207064
"62","ChIJFZWiYwAL2zARXkuxjTH1km8","ร้านแม่อาเซี่ยม",NA,NA,"OK","THA.10_1","THA","Thailand","Chiang Mai","NA","จังหวัดเชียงใหม่","Changwat","Province","50","TH.CM","TH-50",98.4788784,18.3174246
"63","ChIJJf3JIVyn2zARRHUzoXjJN6U","Zer the cafe",5,8,"OK","THA.10_1","THA","Thailand","Chiang Mai","NA","จังหวัดเชียงใหม่","Changwat","Province","50","TH.CM","TH-50",98.519481,18.3655683
"63","ChIJOXQqZJyn2zARsYTjFbdXM1w","Naa Ne Ta Coffee (เฮือนกาแฟ บ้านห้วยส้มป่อย)",5,1,"OK","THA.10_1","THA","Thailand","Chiang Mai","NA","จังหวัดเชียงใหม่","Changwat","Province","50","TH.CM","TH-50",98.52958199999999,18.3692394
"64","ChIJJZqEtx6j2zARKfrWzBogxhI","ข้าวซอยสุพิชชา",5,13,"OK","THA.10_1","THA","Thailand","Chiang Mai","NA","จังหวัดเชียงใหม่","Changwat","Province","50","TH.CM","TH-50",98.64926249999999,18.3079466
"64","ChIJdzyJ93Oj2zARfLHv_3YVd1M","ร้านลุงอ้วน",4,1,"OK","THA.10_1","THA","Thailand","Chiang Mai","NA","จังหวัดเชียงใหม่","Changwat","Province","50","TH.CM","TH-50",98.6481666,18.3071217
"64","ChIJ1bDEowOj2zARlOb4Rwl2QwE","ร้านแม่กิ๊ก",5,1,"OK","THA.10_1","THA","Thailand","Chiang Mai","NA","จังหวัดเชียงใหม่","Changwat","Province","50","TH.CM","TH-50",98.6527807,18.3094899
"64","ChIJ2bv_XACj2zARZ5H7wRGazPo","Khao Soi place",NA,NA,"OK","THA.10_1","THA","Thailand","Chiang Mai","NA","จังหวัดเชียงใหม่","Changwat","Province","50","TH.CM","TH-50",98.64915959999999,18.308012
"65","ChIJc4i-8Cu92zARz4uxrRhDc3g","ครัวนานา",4.5,15,"OK","THA.10_1","THA","Thailand","Chiang Mai","NA","จังหวัดเชียงใหม่","Changwat","Province","50","TH.CM","TH-50",98.6650586,18.3226021
"65","ChIJTxjl8my72zARFbwFnhT32KY","At Here Cafe'",4.8,25,"OK","THA.10_1","THA","Thailand","Chiang Mai","NA","จังหวัดเชียงใหม่","Changwat","Province","50","TH.CM","TH-50",98.6771306,18.3597871
"65","ChIJB_hS6Sa72zARLwTvfb9nTFE","บ้านผัดไทแท่นดอกไม้",4.7,29,"OK","THA.10_1","THA","Thailand","Chiang Mai","NA","จังหวัดเชียงใหม่","Changwat","Province","50","TH.CM","TH-50",98.6796454,18.3595973
"65","ChIJxWHyghu72zARdOjifTo41j0","นงนุชโภชนา",4.2,19,"OK","THA.10_1","THA","Thailand","Chiang Mai","NA","จังหวัดเชียงใหม่","Changwat","Province","50","TH.CM","TH-50",98.679206,18.3520086
"65","ChIJnbuKT3yj2zARAKdpuP2S2yo","Cafe’s Bar",5,1,"OK","THA.10_1","THA","Thailand","Chiang Mai","NA","จังหวัดเชียงใหม่","Changwat","Province","50","TH.CM","TH-50",98.6574821,18.3130599
"65","ChIJ7a7lrmW72zARcct5mEiow3M","ร้านอาหารบ้านสวนริมน้ำ ห้วยอีแต",5,3,"OK","THA.10_1","THA","Thailand","Chiang Mai","NA","จังหวัดเชียงใหม่","Changwat","Province","50","TH.CM","TH-50",98.67138589999999,18.3407185
"65","ChIJOxdG8Vm72zARsYyNwt0rBWo","RANRIMKLONG",5,1,"OK","THA.10_1","THA","Thailand","Chiang Mai","NA","จังหวัดเชียงใหม่","Changwat","Province","50","TH.CM","TH-50",98.6817902,18.3385844
"68","ChIJ4Vw5ZTu72zARGu1L70KbtdU","ระเบียงดาวชมวิว",5,1,"OK","THA.10_1","THA","Thailand","Chiang Mai","NA","จังหวัดเชียงใหม่","Changwat","Province","50","TH.CM","TH-50",98.53178989999999,18.37978
"69","ChIJ1XDKUD232zAR3FsL6LDKKyY","ก๋วยเตี๋ยวเรือรังสิต ป.ปัญญา",4.7,14,"OK","THA.10_1","THA","Thailand","Chiang Mai","NA","จังหวัดเชียงใหม่","Changwat","Province","50","TH.CM","TH-50",98.6506495,18.403079
"69","ChIJx8RyySml2zARO66YsvxpDsE","เทียนเผิงซาลาเปา",5,3,"OK","THA.10_1","THA","Thailand","Chiang Mai","NA","จังหวัดเชียงใหม่","Changwat","Province","50","TH.CM","TH-50",98.6541688,18.3940642
"70","ChIJlwK8AACx2zARdnTYZR_V_Ns","STONE Roastery and Restaurant",4.8,32,"OK","THA.10_1","THA","Thailand","Chiang Mai","NA","จังหวัดเชียงใหม่","Changwat","Province","50","TH.CM","TH-50",98.7054016,18.4388435
"70","ChIJE5CrAwCx2zARs3CgwwzOTHU","CHOMBOON Cafe and Restaurant",4.5,68,"OK","THA.10_1","THA","Thailand","Chiang Mai","NA","จังหวัดเชียงใหม่","Changwat","Province","50","TH.CM","TH-50",98.67570579999999,18.3954951
"70","ChIJhQgxEAqw2zARS_W8ChCKMmk","NGEGGEE เง็กกี",4.5,769,"OK","THA.10_1","THA","Thailand","Chiang Mai","NA","จังหวัดเชียงใหม่","Changwat","Province","50","TH.CM","TH-50",98.67699979999999,18.4203961
"70","ChIJs-D9TgCx2zARvkIiDiJ2v3g","Him Kad Thai restaurants and Cafe",5,1,"OK","THA.10_1","THA","Thailand","Chiang Mai","NA","จังหวัดเชียงใหม่","Changwat","Province","50","TH.CM","TH-50",98.6761339,18.4255736
"70","ChIJZQsNzqG62zARZF7PCv-kKI4","Young Folk Bean & Brew",4.6,313,"OK","THA.10_1","THA","Thailand","Chiang Mai","NA","จังหวัดเชียงใหม่","Changwat","Province","50","TH.CM","TH-50",98.68134280000001,18.4151388
"70","ChIJDSn1XBOw2zARZ02GjPSbQ_s","Sawasdee Cafe",4.2,19,"OK","THA.10_1","THA","Thailand","Chiang Mai","NA","จังหวัดเชียงใหม่","Changwat","Province","50","TH.CM","TH-50",98.6809024,18.4358094
"70","ChIJe-J2C2yw2zARcLnqfNxnT2I","Khao Soi Kalong Coconutland Restaurant",4.1,982,"OK","THA.10_1","THA","Thailand","Chiang Mai","NA","จังหวัดเชียงใหม่","Changwat","Province","50","TH.CM","TH-50",98.6801413,18.4359593
"70","ChIJ8-u3K4ux2zAR9vMedFl4iNM","ยำปูเจ็ดยอด สาขาจอมทอง",4.3,29,"OK","THA.10_1","THA","Thailand","Chiang Mai","NA","จังหวัดเชียงใหม่","Changwat","Province","50","TH.CM","TH-50",98.6810465,18.4259733
"70","ChIJZ69kqsC72zARrulGiWyGbMI","ลาบปลาจอมทองครัวแม่จินดา",4.2,277,"OK","THA.10_1","THA","Thailand","Chiang Mai","NA","จังหวัดเชียงใหม่","Changwat","Province","50","TH.CM","TH-50",98.70188999999999,18.4038528
"70","ChIJucQzhAqw2zARf3B8-lnnfYs","Coffee Garden Chom Thong",4.3,74,"OK","THA.10_1","THA","Thailand","Chiang Mai","NA","จังหวัดเชียงใหม่","Changwat","Province","50","TH.CM","TH-50",98.67995789999999,18.4193345
"70","ChIJNasSiBOw2zAR_BXOHGvvreo","Huean Khun Ya Restaurant Spicy Seafood Tom Yum Noodles",4.4,121,"OK","THA.10_1","THA","Thailand","Chiang Mai","NA","จังหวัดเชียงใหม่","Changwat","Province","50","TH.CM","TH-50",98.67859109999999,18.4364189
"70","ChIJt9EUeaa62zARBDvQgOswFsA","Cafe De Doikaeo คาเฟ่ เดอ ดอยแก้ว",4.4,22,"OK","THA.10_1","THA","Thailand","Chiang Mai","NA","จังหวัดเชียงใหม่","Changwat","Province","50","TH.CM","TH-50",98.67278850000001,18.4141707
"70","ChIJQUWFa3Sw2zARStaK6n-k4lQ","Darint coffee house ดารินทร์คอฟฟี่เฮาส์ ร้านกาแฟจอมทอง",4.5,26,"OK","THA.10_1","THA","Thailand","Chiang Mai","NA","จังหวัดเชียงใหม่","Changwat","Province","50","TH.CM","TH-50",98.6857814,18.4231785
"70","ChIJY39vs7ix2zARxIMtgzS_I4E","Pizza Hut 1150 - Lotus Chomthong Chiangmai (พิซซ่าฮัท สาขาโลตัสจอมทอง เชียงใหม่)",4.3,74,"OK","THA.10_1","THA","Thailand","Chiang Mai","NA","จังหวัดเชียงใหม่","Changwat","Province","50","TH.CM","TH-50",98.6811512,18.4296988
"70","ChIJjabRgw6w2zARPrBCGNsK_qw","ร้านก๋วยเตี๋ยวอภัย",4.4,276,"OK","THA.10_1","THA","Thailand","Chiang Mai","NA","จังหวัดเชียงใหม่","Changwat","Province","50","TH.CM","TH-50",98.67634819999999,18.4272304
"70","ChIJl_qbtVix2zARzg0z64MkeC8","ก๋วยเตี๋ยวเรือ โค-ฮี จอมทอง",5,11,"OK","THA.10_1","THA","Thailand","Chiang Mai","NA","จังหวัดเชียงใหม่","Changwat","Province","50","TH.CM","TH-50",98.6814315,18.4351225
"70","ChIJI7SeOsi72zARzaTbFkz5zsc","กาแฟโคฮี コーヒーcoffee by kero.",4.6,57,"OK","THA.10_1","THA","Thailand","Chiang Mai","NA","จังหวัดเชียงใหม่","Changwat","Province","50","TH.CM","TH-50",98.681348,18.4352799
"70","ChIJe3YAaIi62zARnaPGlvqrktc","ลาบปลาแม่เครือวัลย์ สาขา 2",4.2,64,"OK","THA.10_1","THA","Thailand","Chiang Mai","NA","จังหวัดเชียงใหม่","Changwat","Province","50","TH.CM","TH-50",98.70115709999999,18.4050353
"70","ChIJBwQnkA2w2zAR5bTkl0Rxnk4","ร้านหนึ่งข้าวมันไก่ รสเลิศสูตรโบราณ",4.6,20,"OK","THA.10_1","THA","Thailand","Chiang Mai","NA","จังหวัดเชียงใหม่","Changwat","Province","50","TH.CM","TH-50",98.6784066,18.4299304
"71","ChIJvX7nisgb2zAR3J4HIrkjdZs","ก๋วยเตี๋ยวเรือยอดภู-ยอดภู คอฟฟี่",5,1,"OK","THA.10_1","THA","Thailand","Chiang Mai","NA","จังหวัดเชียงใหม่","Changwat","Province","50","TH.CM","TH-50",98.2252578,18.4888022
"71","ChIJ-eTM-vcZ2zARbzAODOPie3E","ร้านส่าทอโม่",NA,NA,"OK","THA.10_1","THA","Thailand","Chiang Mai","NA","จังหวัดเชียงใหม่","Changwat","Province","50","TH.CM","TH-50",98.21530100000001,18.4572767
"71","ChIJXYAxH1kZ2zARjHJxafTxcsE","แดงการค้า",5,2,"OK","THA.10_1","THA","Thailand","Chiang Mai","NA","จังหวัดเชียงใหม่","Changwat","Province","50","TH.CM","TH-50",98.1787695,18.4575687
"71","ChIJkf5HaYYZ2zARBZ7IXMJBKf0","ร้านแม่สุดี",4,1,"OK","THA.10_1","THA","Thailand","Chiang Mai","NA","จังหวัดเชียงใหม่","Changwat","Province","50","TH.CM","TH-50",98.2142832,18.4537664
"73","ChIJC7WvJfcF2zARp8p52CdXdVE","สานฝันCafe",4.8,25,"OK","THA.10_1","THA","Thailand","Chiang Mai","NA","จังหวัดเชียงใหม่","Changwat","Province","50","TH.CM","TH-50",98.3610757,18.502696
"73","ChIJiTmQZAAB2zAR4cTbuUuzrbE","Mxryjane Cafe",5,26,"OK","THA.10_1","THA","Thailand","Chiang Mai","NA","จังหวัดเชียงใหม่","Changwat","Province","50","TH.CM","TH-50",98.3689813,18.4988657
"73","ChIJm5uR8iYF2zARzWKTL8dzkjg","บ้านบาร์กาแฟ Baan Bar Cafe",4.9,22,"OK","THA.10_1","THA","Thailand","Chiang Mai","NA","จังหวัดเชียงใหม่","Changwat","Province","50","TH.CM","TH-50",98.36390759999999,18.4946363
"73","ChIJ195hWDYE2zARSd1VfSXS9rs","Huean Man Muk Restaurant & Homestay, Mae Chaem Town",4.1,128,"OK","THA.10_1","THA","Thailand","Chiang Mai","NA","จังหวัดเชียงใหม่","Changwat","Province","50","TH.CM","TH-50",98.35530639999999,18.5009084
"73","ChIJgUUicAAF2zARgdlqXhTZXYw","ครัวบ้านสวน",4.5,17,"OK","THA.10_1","THA","Thailand","Chiang Mai","NA","จังหวัดเชียงใหม่","Changwat","Province","50","TH.CM","TH-50",98.3749395,18.4942271
"73","ChIJIfncclsE2zAR9MDOSsJRsSg","ครัวริมน้ำแจ่ม",3.8,48,"OK","THA.10_1","THA","Thailand","Chiang Mai","NA","จังหวัดเชียงใหม่","Changwat","Province","50","TH.CM","TH-50",98.3611411,18.4962186
"73","ChIJJWHGYOoF2zARJobzZQXP2kI","Jam Arom Traditional Tom Yum Noodles, Mae Chaem Town",4.4,159,"OK","THA.10_1","THA","Thailand","Chiang Mai","NA","จังหวัดเชียงใหม่","Changwat","Province","50","TH.CM","TH-50",98.3723378,18.4959446
"73","ChIJudRwVwAF2zARtlgWWpZl4WE","Payak Coffee",4.9,13,"OK","THA.10_1","THA","Thailand","Chiang Mai","NA","จังหวัดเชียงใหม่","Changwat","Province","50","TH.CM","TH-50",98.374855,18.4943838
"73","ChIJX5IVdSAF2zARTtqQ-Rgw6sk","แจ่มจริง Chaemjing",4.4,57,"OK","THA.10_1","THA","Thailand","Chiang Mai","NA","จังหวัดเชียงใหม่","Changwat","Province","50","TH.CM","TH-50",98.3719615,18.4966962
"73","ChIJAZalt2kF2zARiLKzktWTr2Y","Café Amazon",4.3,45,"OK","THA.10_1","THA","Thailand","Chiang Mai","NA","จังหวัดเชียงใหม่","Changwat","Province","50","TH.CM","TH-50",98.36395089999999,18.4996637
"73","ChIJmfbftHAE2zARmdV10z9agE8","Sikon Restaurant, Steaks, Salads, Thai Food, English Menu, Mae Chaem Town",4.3,194,"OK","THA.10_1","THA","Thailand","Chiang Mai","NA","จังหวัดเชียงใหม่","Changwat","Province","50","TH.CM","TH-50",98.36154010000001,18.501793
"73","ChIJW1miQkME2zARJCIQ3urgIgw","Hug Maejaem coffee ฮักแม่แจ่มกาแฟสด",5,22,"OK","THA.10_1","THA","Thailand","Chiang Mai","NA","จังหวัดเชียงใหม่","Changwat","Province","50","TH.CM","TH-50",98.3648453,18.4985649
"73","ChIJvTxhTMQF2zARmXURebW20KI","Aum-un Fresh Coffee, Food, & Carp Pond, Until 8 PM, Mae Chaem Town",4.6,44,"OK","THA.10_1","THA","Thailand","Chiang Mai","NA","จังหวัดเชียงใหม่","Changwat","Province","50","TH.CM","TH-50",98.36076539999999,18.5031809
"73","ChIJ-aM4AL8F2zARfJ9C5jjyE24","Pu Seret's Larb Shop, Mae Chaem Town",4.7,33,"OK","THA.10_1","THA","Thailand","Chiang Mai","NA","จังหวัดเชียงใหม่","Changwat","Province","50","TH.CM","TH-50",98.36834390000001,18.499716
"73","ChIJT0jIs3EH2zARC1UCVh1e6gQ","บ้านสวนคำปันแม่แจ่ม(คาเฟ่ สวนอาหาร)",4.9,24,"OK","THA.10_1","THA","Thailand","Chiang Mai","NA","จังหวัดเชียงใหม่","Changwat","Province","50","TH.CM","TH-50",98.3742649,18.4798765
"73","ChIJj95VP88F2zARto-AIJpJjrA","ล้านเล่า คาเฟ่",5,1,"OK","THA.10_1","THA","Thailand","Chiang Mai","NA","จังหวัดเชียงใหม่","Changwat","Province","50","TH.CM","TH-50",98.372487,18.4958878
"73","ChIJMe7zrUQE2zARrMfogQLct2c","Khao Soi, Mae Chaem Town, Restaurant",4.6,75,"OK","THA.10_1","THA","Thailand","Chiang Mai","NA","จังหวัดเชียงใหม่","Changwat","Province","50","TH.CM","TH-50",98.36379610000002,18.4970705
"73","ChIJ1_ErSl4E2zAREksynMT8HvI","บ้านน้ำแจ่ม",4.5,53,"OK","THA.10_1","THA","Thailand","Chiang Mai","NA","จังหวัดเชียงใหม่","Changwat","Province","50","TH.CM","TH-50",98.3556363,18.5023611
"73","ChIJ5ROuj1sF2zARML-zoNBgw8g","Pool Coffee Cafe'",5,1,"OK","THA.10_1","THA","Thailand","Chiang Mai","NA","จังหวัดเชียงใหม่","Changwat","Province","50","TH.CM","TH-50",98.36287569999999,18.5025153
"73","ChIJgdoDT8AF2zARv97Hn0i_hxA","ภูมิแจ่มกาแฟสด&เบเกอรีโรงเรียนแม่แจ่ม",4.9,15,"OK","THA.10_1","THA","Thailand","Chiang Mai","NA","จังหวัดเชียงใหม่","Changwat","Province","50","TH.CM","TH-50",98.369213,18.5033251
"74","ChIJowZZ-bsF2zARahYjMHmoiJY","เยาวราชcafe",5,5,"OK","THA.10_1","THA","Thailand","Chiang Mai","NA","จังหวัดเชียงใหม่","Changwat","Province","50","TH.CM","TH-50",98.36526429999999,18.4997041
"74","ChIJrzYI5UIF2zAR1Yb-YJQM1gc","ครัวจ๊ะเอ๋แซ่บอินเตอร์",5,1,"OK","THA.10_1","THA","Thailand","Chiang Mai","NA","จังหวัดเชียงใหม่","Changwat","Province","50","TH.CM","TH-50",98.37666150000001,18.485067
"74","ChIJmYljEgkF2zARq1SNkqX0AK4","Travel Hub Mae Chaem",4.8,96,"OK","THA.10_1","THA","Thailand","Chiang Mai","NA","จังหวัดเชียงใหม่","Changwat","Province","50","TH.CM","TH-50",98.377668,18.4879073
"74","ChIJ0YLJbQAF2zARmJ4pKZ8Lrbs","ป๊อปปูล่า ฮิลล์ POPULAR Hill",4.8,11,"OK","THA.10_1","THA","Thailand","Chiang Mai","NA","จังหวัดเชียงใหม่","Changwat","Province","50","TH.CM","TH-50",98.3911772,18.49757
"74","ChIJqb2nKzgE2zARyKTboxT3YcU","Sompon Restaurant",4.4,85,"OK","THA.10_1","THA","Thailand","Chiang Mai","NA","จังหวัดเชียงใหม่","Changwat","Province","50","TH.CM","TH-50",98.3769927,18.4914993
"74","ChIJUbk2t2kF2zAR1e9Yb9A6snM","ชายสี่หมี่เกี๋ยวแม่แจ่ม",5,2,"OK","THA.10_1","THA","Thailand","Chiang Mai","NA","จังหวัดเชียงใหม่","Changwat","Province","50","TH.CM","TH-50",98.3699584,18.4979256
"75","ChIJuW5czwmp2zARVL27O0uxUT8","ร้านก๋วยเตี๋ยว น้ำแข็งไสแม่ยา",1,1,"OK","THA.10_1","THA","Thailand","Chiang Mai","NA","จังหวัดเชียงใหม่","Changwat","Province","50","TH.CM","TH-50",98.50415489999999,18.4282138
"76","ChIJ3436QSiu2zARh7RcJif-qok","ร้านต๋าหลิ่ง",4.4,173,"OK","THA.10_1","THA","Thailand","Chiang Mai","NA","จังหวัดเชียงใหม่","Changwat","Province","50","TH.CM","TH-50",98.6583727,18.4771173
"76","ChIJS9fh6aur2zARysZnCl5hWi0","Homchan Restaurant",4.5,90,"OK","THA.10_1","THA","Thailand","Chiang Mai","NA","จังหวัดเชียงใหม่","Changwat","Province","50","TH.CM","TH-50",98.6146064,18.4634339
"77","ChIJUb1K_nex2zARE-pfU7fOP88","Wanwaan Cafe",4.9,50,"OK","THA.10_1","THA","Thailand","Chiang Mai","NA","จังหวัดเชียงใหม่","Changwat","Province","50","TH.CM","TH-50",98.6632509,18.4785604
"77","ChIJT7vQNPSx2zARFfqMrQpv2ws","Espresso Martini CNX",4.7,183,"OK","THA.10_1","THA","Thailand","Chiang Mai","NA","จังหวัดเชียงใหม่","Changwat","Province","50","TH.CM","TH-50",98.6813849,18.4283754
"77","ChIJH32YEIyx2zARHA2gxpXnvmc","Maple Coffee",4.4,30,"OK","THA.10_1","THA","Thailand","Chiang Mai","NA","จังหวัดเชียงใหม่","Changwat","Province","50","TH.CM","TH-50",98.672078,18.4919246
"77","ChIJbTXVMcSx2zARyOdflyfTmJk","The Farmer coffee & farm stay",4.5,32,"OK","THA.10_1","THA","Thailand","Chiang Mai","NA","จังหวัดเชียงใหม่","Changwat","Province","50","TH.CM","TH-50",98.6612815,18.4510432
"77","ChIJ7zJpywKx2zARi5sJXvs1riE","Senses Cafe & restaurant",4.5,46,"OK","THA.10_1","THA","Thailand","Chiang Mai","NA","จังหวัดเชียงใหม่","Changwat","Province","50","TH.CM","TH-50",98.6722032,18.4869332
"77","ChIJIURH6qKx2zAR2Kt6imqhEts","TongLuangInthanon Cafe โต้งหลวงอินทนนท์ คาเฟ่",4.4,7,"OK","THA.10_1","THA","Thailand","Chiang Mai","NA","จังหวัดเชียงใหม่","Changwat","Province","50","TH.CM","TH-50",98.682801,18.438728
"77","ChIJRzhL6PCw2zARyTt7hCXhDbY","Papa's Home & Rabbit Cafe'",4.4,220,"OK","THA.10_1","THA","Thailand","Chiang Mai","NA","จังหวัดเชียงใหม่","Changwat","Province","50","TH.CM","TH-50",98.7110471,18.4506796
"77","ChIJQcrvjF6x2zARRqpXHQPDUn0","SUNDAY CAFE",5,1,"OK","THA.10_1","THA","Thailand","Chiang Mai","NA","จังหวัดเชียงใหม่","Changwat","Province","50","TH.CM","TH-50",98.6767306,18.4446851
"77","ChIJL35PsA2w2zAR6MuZyTy0aUY","Sweetcup",4.7,73,"OK","THA.10_1","THA","Thailand","Chiang Mai","NA","จังหวัดเชียงใหม่","Changwat","Province","50","TH.CM","TH-50",98.6785183,18.4282824
"77","ChIJC9RJnZGx2zARjwJd-nVyK68","กาแฟเยอะแยะ YerYae Cafe'",4.3,6,"OK","THA.10_1","THA","Thailand","Chiang Mai","NA","จังหวัดเชียงใหม่","Changwat","Province","50","TH.CM","TH-50",98.6864514,18.4358049
"77","ChIJVWEm88ix2zARKZG-953sRE0","Land of Love - Pizza Cafe",4.7,36,"OK","THA.10_1","THA","Thailand","Chiang Mai","NA","จังหวัดเชียงใหม่","Changwat","Province","50","TH.CM","TH-50",98.7132472,18.4513223
"77","ChIJbV1NpEex2zARamhoyThDafY","ร้านอะโวคาโด้ cafe' จอมทอง",3.8,4,"OK","THA.10_1","THA","Thailand","Chiang Mai","NA","จังหวัดเชียงใหม่","Changwat","Province","50","TH.CM","TH-50",98.6759109,18.4265016
"78","ChIJlddelWm32zARSh1nIP8QK9U","M.8 Coffee Road",4.8,10,"OK","THA.10_1","THA","Thailand","Chiang Mai","NA","จังหวัดเชียงใหม่","Changwat","Province","50","TH.CM","TH-50",98.7567577,18.4512365
"78","ChIJw8Oa5bmx2zARArG_VMtkLww","Casa de Mango"" Cooking at farm & Cycling",5,38,"OK","THA.10_1","THA","Thailand","Chiang Mai","NA","จังหวัดเชียงใหม่","Changwat","Province","50","TH.CM","TH-50",98.7255072,18.4472989
"78","ChIJFwJVQVrL2zARIFo0-2vPZTg","สถานีกาแฟ",4.5,2,"OK","THA.10_1","THA","Thailand","Chiang Mai","NA","จังหวัดเชียงใหม่","Changwat","Province","50","TH.CM","TH-50",98.76908739999999,18.4837824
"78","ChIJcZUPdEqx2zARGXl7jG-qxnY","Jin Delicious จิน เดลิเชียส อร่อยติดดาว",4.8,6,"OK","THA.10_1","THA","Thailand","Chiang Mai","NA","จังหวัดเชียงใหม่","Changwat","Province","50","TH.CM","TH-50",98.74031319999999,18.4507148
"78","ChIJaSGhQQS32zARHVpRMXXWyVk","Mountian guys cafe'",NA,NA,"OK","THA.10_1","THA","Thailand","Chiang Mai","NA","จังหวัดเชียงใหม่","Changwat","Province","50","TH.CM","TH-50",98.78503710000001,18.4534826
"78","ChIJiW7MHkux2zARazMMNvY4cjg","ร้านส้มตำหมูยอแม่ลิ",4.8,23,"OK","THA.10_1","THA","Thailand","Chiang Mai","NA","จังหวัดเชียงใหม่","Changwat","Province","50","TH.CM","TH-50",98.7404141,18.4515152
"78","ChIJXWXclaW32zARcl9RqSKg7ZU","ไอติมบ้านลุงสิงห์",4.1,50,"OK","THA.10_1","THA","Thailand","Chiang Mai","NA","จังหวัดเชียงใหม่","Changwat","Province","50","TH.CM","TH-50",98.7675783,18.4569898
"78","ChIJ4_d8agDL2zAR7gttnAJgrN4","นัส กัน นะ อาหารตามสั่ง",5,5,"OK","THA.10_1","THA","Thailand","Chiang Mai","NA","จังหวัดเชียงใหม่","Changwat","Province","50","TH.CM","TH-50",98.78964909999999,18.4851312
"78","ChIJiSSJSR-32zARyeVCgS8tiwQ","BAR BEER CAFE'",5,10,"OK","THA.10_1","THA","Thailand","Chiang Mai","NA","จังหวัดเชียงใหม่","Changwat","Province","50","TH.CM","TH-50",98.77614249999999,18.4588011
"78","ChIJm_GHGJCx2zARfd3yzvIrLWc","วังดินสเต็กเฮ้าส์",4.6,16,"OK","THA.10_1","THA","Thailand","Chiang Mai","NA","จังหวัดเชียงใหม่","Changwat","Province","50","TH.CM","TH-50",98.74013,18.4366863
"78","ChIJPyJu5fy22zAR-Q2sYT7lYSU","สวนอาหารครัวดอยหล่อ",4,73,"OK","THA.10_1","THA","Thailand","Chiang Mai","NA","จังหวัดเชียงใหม่","Changwat","Province","50","TH.CM","TH-50",98.7901857,18.476638
"78","ChIJ1at3Fiq32zAR1K2L_rQRk0c","PHANSA COFFEE (พรรษา คอฟฟี่)",5,4,"OK","THA.10_1","THA","Thailand","Chiang Mai","NA","จังหวัดเชียงใหม่","Changwat","Province","50","TH.CM","TH-50",98.782929,18.4647456
"78","ChIJGXcPKdix2zAR3MS_G3ebzPM","หนึ่งเตี๋ยวเรือยกซด",4.3,100,"OK","THA.10_1","THA","Thailand","Chiang Mai","NA","จังหวัดเชียงใหม่","Changwat","Province","50","TH.CM","TH-50",98.7305045,18.451882
"78","ChIJszgt1uuw2zARJ_H8vZdvxuc","ร้านทับทิมทองปลาเผา กลางทุ่ง",4.3,299,"OK","THA.10_1","THA","Thailand","Chiang Mai","NA","จังหวัดเชียงใหม่","Changwat","Province","50","TH.CM","TH-50",98.7180852,18.4438978
"78","ChIJ0bdMFvyx2zARsL8ZGYadRxM","ร้านอุไรอาหารเจ",4.5,15,"OK","THA.10_1","THA","Thailand","Chiang Mai","NA","จังหวัดเชียงใหม่","Changwat","Province","50","TH.CM","TH-50",98.74712850000002,18.4449065
"78","ChIJtRCGBDm32zARg9Zm6V_-S28","ลาบดอยหล่อ",5,3,"OK","THA.10_1","THA","Thailand","Chiang Mai","NA","จังหวัดเชียงใหม่","Changwat","Province","50","TH.CM","TH-50",98.7811242,18.4729632
"79","ChIJUcG3FGm22zARMr8ykXHb1sg","Tatonyon Coffee&Cafe'",4.4,384,"OK","THA.10_1","THA","Thailand","Chiang Mai","NA","จังหวัดเชียงใหม่","Changwat","Province","50","TH.CM","TH-50",98.8073874,18.4876046
"79","ChIJwQppaJzJ2zARyyG-Te537_0","เฮือนดอยหล่อ คาเฟ่",4.6,51,"OK","THA.10_1","THA","Thailand","Chiang Mai","NA","จังหวัดเชียงใหม่","Changwat","Province","50","TH.CM","TH-50",98.83846609999999,18.487471
"79","ChIJzf9SRSi12zARYByi6y0M8hw","บรรทุก คาเฟ่ - Buntook Cafe",4.5,74,"OK","THA.10_1","THA","Thailand","Chiang Mai","NA","จังหวัดเชียงใหม่","Changwat","Province","50","TH.CM","TH-50",98.829572,18.5074165
"79","ChIJ65hbsgW32zARkv1vD3Y44V8","ร้านคาวบอยคอฟฟี่ ดอยหล่อ เชียงใหม่",4.6,60,"OK","THA.10_1","THA","Thailand","Chiang Mai","NA","จังหวัดเชียงใหม่","Changwat","Province","50","TH.CM","TH-50",98.8230076,18.5019745
"79","ChIJv-UEtbTL2zAR5lUUfHDz5P0","ร้านสุขฮิมนา คาเฟ่",4.7,42,"OK","THA.10_1","THA","Thailand","Chiang Mai","NA","จังหวัดเชียงใหม่","Changwat","Province","50","TH.CM","TH-50",98.84486779999999,18.5096
"79","ChIJPzP2wGW32zARLRutQascM1o","ร้านลาบลุงบุญ สาขาดอยหล่อ",4.4,34,"OK","THA.10_1","THA","Thailand","Chiang Mai","NA","จังหวัดเชียงใหม่","Changwat","Province","50","TH.CM","TH-50",98.8163186,18.4968833
"79","ChIJUwm0tBi32zARms7zyAFzXRs","De Aerng Boutique Hotel",4.3,143,"OK","THA.10_1","THA","Thailand","Chiang Mai","NA","จังหวัดเชียงใหม่","Changwat","Province","50","TH.CM","TH-50",98.7748452,18.4581873
"79","ChIJ5TxDb_612zARirq3NgQOoUc","ร้านลาบสองพี่น้อง",4.3,56,"OK","THA.10_1","THA","Thailand","Chiang Mai","NA","จังหวัดเชียงใหม่","Changwat","Province","50","TH.CM","TH-50",98.8315044,18.5082396
"79","ChIJH9zXVg222zARfn7a0xRCZy8","พุทธรักษา แกลอรี คอฟฟี",4.7,53,"OK","THA.10_1","THA","Thailand","Chiang Mai","NA","จังหวัดเชียงใหม่","Changwat","Province","50","TH.CM","TH-50",98.8147417,18.4952617
"79","ChIJI4UKeyS32zARD273bbVULGw","อัมพร",4.3,9,"OK","THA.10_1","THA","Thailand","Chiang Mai","NA","จังหวัดเชียงใหม่","Changwat","Province","50","TH.CM","TH-50",98.76410279999999,18.453708
"79","ChIJYXqu9P612zARvAwyEhRph0A","เจ๊นุชเหล้าหวาน ส้มตำ ยำทะเล",4.5,29,"OK","THA.10_1","THA","Thailand","Chiang Mai","NA","จังหวัดเชียงใหม่","Changwat","Province","50","TH.CM","TH-50",98.8321849,18.5091449
"81","ChIJSROaJ4Ib2zARnKw6ThUHTkw","ยอดภู Restaurant",5,2,"OK","THA.10_1","THA","Thailand","Chiang Mai","NA","จังหวัดเชียงใหม่","Changwat","Province","50","TH.CM","TH-50",98.2307511,18.5092893
"81","ChIJgQp6fAAb2zARoOedzOGfUnE","ฐาจินเป่า",5,1,"OK","THA.10_1","THA","Thailand","Chiang Mai","NA","จังหวัดเชียงใหม่","Changwat","Province","50","TH.CM","TH-50",98.2320525,18.5091422
"81","ChIJjZMv848b2zARJp5vWKEuK0k","ร้านแตงกวาอาหารตามสั่งปางหินฝน",NA,NA,"OK","THA.10_1","THA","Thailand","Chiang Mai","NA","จังหวัดเชียงใหม่","Changwat","Province","50","TH.CM","TH-50",98.2311885,18.5079314
"82","ChIJ6wlSLmUb2zARKFLKEqGuHno","Cooffeeชายดอย",4.8,9,"OK","THA.10_1","THA","Thailand","Chiang Mai","NA","จังหวัดเชียงใหม่","Changwat","Province","50","TH.CM","TH-50",98.239806,18.5076962
"83","ChIJ58wmBrwF2zARZ13LtJ7j1Qw","บนนา คาเฟ่",4.8,9,"OK","THA.10_1","THA","Thailand","Chiang Mai","NA","จังหวัดเชียงใหม่","Changwat","Province","50","TH.CM","TH-50",98.34720779999999,18.5013864
"83","ChIJ5dPNYzUF2zARRESNikIlzOI","ฮักแคมป์ คาเฟ่ ร้านอาหาร แม่แจ่ม Hug Camp Café Mae Chaem - Coffee & Thai Food | Mountain View",5,138,"OK","THA.10_1","THA","Thailand","Chiang Mai","NA","จังหวัดเชียงใหม่","Changwat","Province","50","TH.CM","TH-50",98.3295984,18.5179324
"83","ChIJTYzaqWED2zARkMs_zfXaSKY","บ้านไร่เพียงใจ คาเฟ่",4.9,35,"OK","THA.10_1","THA","Thailand","Chiang Mai","NA","จังหวัดเชียงใหม่","Changwat","Province","50","TH.CM","TH-50",98.36892859999999,18.5314878
"83","ChIJs0j3AjsF2zARJe7zNhfitFY","ปี้หน้อย",4.7,3,"OK","THA.10_1","THA","Thailand","Chiang Mai","NA","จังหวัดเชียงใหม่","Changwat","Province","50","TH.CM","TH-50",98.35932729999999,18.5107774
"83","ChIJeTJbXjUF2zARormcvQ9TSxM","ลุงรัตลาบขมบ้านเจียง",4.6,7,"OK","THA.10_1","THA","Thailand","Chiang Mai","NA","จังหวัดเชียงใหม่","Changwat","Province","50","TH.CM","TH-50",98.3592685,18.5109083
"84","ChIJg-0ljbwH2zARDomLv_1fRME","Nha Baan Coffee",4.7,6,"OK","THA.10_1","THA","Thailand","Chiang Mai","NA","จังหวัดเชียงใหม่","Changwat","Province","50","TH.CM","TH-50",98.4017104,18.5139442
"85","ChIJKyf-5IYB2zARal9injs2-Xk","ชมวิว กิ่วแม่ปาน",4.5,61,"OK","THA.10_1","THA","Thailand","Chiang Mai","NA","จังหวัดเชียงใหม่","Changwat","Province","50","TH.CM","TH-50",98.4819972,18.55527
"85","ChIJCaACAkiq2zARYDFZYGISEBU","Inthanon Restaurant Chom Thong Chiang Mai ร้านอาหารสวัสดิการโครงการหลวงอินทนนท์",4.3,1087,"OK","THA.10_1","THA","Thailand","Chiang Mai","NA","จังหวัดเชียงใหม่","Changwat","Province","50","TH.CM","TH-50",98.5177949,18.5439797
"85","ChIJZTblGQAB2zARSFvgJMe2f-Y","Bue Klee Coffee at Pa Pong Piang",5,3,"OK","THA.10_1","THA","Thailand","Chiang Mai","NA","จังหวัดเชียงใหม่","Changwat","Province","50","TH.CM","TH-50",98.4470767,18.5343547
"85","ChIJoQC7Q6Wr2zARj9SsfpccrdY","ร้านอาหารโรงไฟฟ้าบ้านขุนกลาง ดอยอินทนนท์ Ban Khun Klang Power Plant Restaurant",4.4,103,"OK","THA.10_1","THA","Thailand","Chiang Mai","NA","จังหวัดเชียงใหม่","Changwat","Province","50","TH.CM","TH-50",98.5176915,18.5420028
"85","ChIJ619ZPpwA2zARUB0FDrAKE0c","ร้านค้าพระมหาธาตุเจดีย์",4.1,16,"OK","THA.10_1","THA","Thailand","Chiang Mai","NA","จังหวัดเชียงใหม่","Changwat","Province","50","TH.CM","TH-50",98.4802656,18.5526875
"85","ChIJ-XwLewAB2zARUvyYcUA7a8c","ครัวแม่หล้าธรรม",5,3,"OK","THA.10_1","THA","Thailand","Chiang Mai","NA","จังหวัดเชียงใหม่","Changwat","Province","50","TH.CM","TH-50",98.4475908,18.531039
"85","ChIJO9jtug8B2zAR0-sj-9DowdA","บ้านสเต็ก(Steak Hut)",4.8,5,"OK","THA.10_1","THA","Thailand","Chiang Mai","NA","จังหวัดเชียงใหม่","Changwat","Province","50","TH.CM","TH-50",98.44791889999999,18.5313522
"85","ChIJ3bjrriwB2zARcYSShTEg-U4","Andrei coffee ป่าบงเปียง",5,24,"OK","THA.10_1","THA","Thailand","Chiang Mai","NA","จังหวัดเชียงใหม่","Changwat","Province","50","TH.CM","TH-50",98.4389389,18.5402986
"85","ChIJGeuQcAAB2zAR2kY3eAjyBRo","แหม่โอโ​กล๊​ะ​คาเฟ่​",NA,NA,"OK","THA.10_1","THA","Thailand","Chiang Mai","NA","จังหวัดเชียงใหม่","Changwat","Province","50","TH.CM","TH-50",98.42013299999999,18.546207
"85","ChIJf2cKLwAB2zARyeBqs63r0Vs","Restaurant Pa Pong Piang",4.8,4,"OK","THA.10_1","THA","Thailand","Chiang Mai","NA","จังหวัดเชียงใหม่","Changwat","Province","50","TH.CM","TH-50",98.4457488,18.5356211
"85","ChIJsQoUV7EB2zAR2HvlKFbpWn0","ก๋วยเตี๋ยวห้อยขา น้องน้ำพุ ป่าบงเปียง",4.8,12,"OK","THA.10_1","THA","Thailand","Chiang Mai","NA","จังหวัดเชียงใหม่","Changwat","Province","50","TH.CM","TH-50",98.4478616,18.5317768
"86","ChIJU0ul1hKr2zAR6Km_UNO8ENw","HugHowfarmstay",4.9,50,"OK","THA.10_1","THA","Thailand","Chiang Mai","NA","จังหวัดเชียงใหม่","Changwat","Province","50","TH.CM","TH-50",98.5456239,18.538661
"86","ChIJJ5bKlXyr2zARIEBIQh6ya7g","แม่กลางหลวงวิลล่า คาเฟ่ (Mea klang luang villa cafe)",4.4,16,"OK","THA.10_1","THA","Thailand","Chiang Mai","NA","จังหวัดเชียงใหม่","Changwat","Province","50","TH.CM","TH-50",98.5496168,18.5397654
"86","ChIJexwY8zGq2zARGJqzc_kO9fc","Mr. Deang's Shop",4.7,163,"OK","THA.10_1","THA","Thailand","Chiang Mai","NA","จังหวัดเชียงใหม่","Changwat","Province","50","TH.CM","TH-50",98.52219749999999,18.533279
"86","ChIJoxwu5Sir2zARPcRfGfwa2uA","Pati non โรงคั่วกาแฟบ้านแม่กลางหลวง",4.6,167,"OK","THA.10_1","THA","Thailand","Chiang Mai","NA","จังหวัดเชียงใหม่","Changwat","Province","50","TH.CM","TH-50",98.5468425,18.5381459
"86","ChIJGbEzMgA72jAR7lbn5JuWWDk","ท่ากาแฟ Tha Cafae",5,45,"OK","THA.10_1","THA","Thailand","Chiang Mai","NA","จังหวัดเชียงใหม่","Changwat","Province","50","TH.CM","TH-50",98.54516029999999,18.5386599
"86","ChIJff02JQCr2zARWfVMgIX45Nk","Coffee place",4.8,11,"OK","THA.10_1","THA","Thailand","Chiang Mai","NA","จังหวัดเชียงใหม่","Changwat","Province","50","TH.CM","TH-50",98.5217656,18.5459114
"86","ChIJSwRvxnqr2zARTTQktsbKhwA","ร้านมึกะคี Mukakee",4.3,63,"OK","THA.10_1","THA","Thailand","Chiang Mai","NA","จังหวัดเชียงใหม่","Changwat","Province","50","TH.CM","TH-50",98.5490667,18.5413421
"86","ChIJ45ffejGq2zARotGX311I1Mg","Krua Mithra Pharp",4.1,42,"OK","THA.10_1","THA","Thailand","Chiang Mai","NA","จังหวัดเชียงใหม่","Changwat","Province","50","TH.CM","TH-50",98.5467437,18.541435
"86","ChIJQ4M2pcKr2zAR1kZIqT3__OE","ครัวอินทนนท์",3.7,442,"OK","THA.10_1","THA","Thailand","Chiang Mai","NA","จังหวัดเชียงใหม่","Changwat","Province","50","TH.CM","TH-50",98.5221419,18.5355539
"86","ChIJaWy1VcGr2zAR37iyBvcFur4","Mae Klang Luang Coffee House",4.6,119,"OK","THA.10_1","THA","Thailand","Chiang Mai","NA","จังหวัดเชียงใหม่","Changwat","Province","50","TH.CM","TH-50",98.5475608,18.5393038
"86","ChIJgay9bfqr2zARXs2sd1Y6Z7k","WABI SABI COFFEE",4.4,17,"OK","THA.10_1","THA","Thailand","Chiang Mai","NA","จังหวัดเชียงใหม่","Changwat","Province","50","TH.CM","TH-50",98.5230735,18.5417842
"86","ChIJS2KrNO2r2zARq5K87IxZ-zs","ครัวพิดโลก",5,22,"OK","THA.10_1","THA","Thailand","Chiang Mai","NA","จังหวัดเชียงใหม่","Changwat","Province","50","TH.CM","TH-50",98.524468099999993,18.5383968
"86","ChIJbXb53iur2zARojjPjNYjd6w","At Home Pizza แม่กลางหลวง อินทนนท์",4.9,79,"OK","THA.10_1","THA","Thailand","Chiang Mai","NA","จังหวัดเชียงใหม่","Changwat","Province","50","TH.CM","TH-50",98.55004559999999,18.5410109
"86","ChIJUULtMQCr2zARIq7xxdvZNg0","ครัวริมธารป้าอ๋อย ดอยอินทนนท์",3.6,14,"OK","THA.10_1","THA","Thailand","Chiang Mai","NA","จังหวัดเชียงใหม่","Changwat","Province","50","TH.CM","TH-50",98.5214199,18.5322264
"86","ChIJPwMtjE-r2zARLK4Bx0oYPiw","ร้านป้าแก้ววชิรธาร (แม่กลางหลวง)",4,11,"OK","THA.10_1","THA","Thailand","Chiang Mai","NA","จังหวัดเชียงใหม่","Changwat","Province","50","TH.CM","TH-50",98.54916779999999,18.5413504
"86","ChIJtxuK3TWq2zAR6YvPnnJ5WCw","ลานหมูกระทะ ร้านสบายดีสี่องศา",4.2,61,"OK","THA.10_1","THA","Thailand","Chiang Mai","NA","จังหวัดเชียงใหม่","Changwat","Province","50","TH.CM","TH-50",98.5231728,18.5422915
"86","ChIJfx87nbar2zARS8-SxlMv0oM","Raan P'Nok",4.8,23,"OK","THA.10_1","THA","Thailand","Chiang Mai","NA","จังหวัดเชียงใหม่","Changwat","Province","50","TH.CM","TH-50",98.5466891,18.5377112
"86","ChIJ-5WVNeWr2zARqdG_n76o81Q","ครัวรุ่งอรุณ",2.4,11,"OK","THA.10_1","THA","Thailand","Chiang Mai","NA","จังหวัดเชียงใหม่","Changwat","Province","50","TH.CM","TH-50",98.5221596,18.5355954
"87","ChIJB5ywiISt2zAR41DUD8-A7v0","ครัววชิรธาร",3,4,"OK","THA.10_1","THA","Thailand","Chiang Mai","NA","จังหวัดเชียงใหม่","Changwat","Province","50","TH.CM","TH-50",98.59957829999999,18.5411573
"87","ChIJFSYEz-Cr2zARYMEeaQ_gfNs","บ้าน ดีเชอ อาหารอิตาเลียน หนองหล่มอินทนนท์",5,214,"OK","THA.10_1","THA","Thailand","Chiang Mai","NA","จังหวัดเชียงใหม่","Changwat","Province","50","TH.CM","TH-50",98.5663526,18.5517222
"87","ChIJ63Rouyqt2zARjx6mgg7ZG2k","ร้านก๋วยเตี๋ยวย่านิด",5,4,"OK","THA.10_1","THA","Thailand","Chiang Mai","NA","จังหวัดเชียงใหม่","Changwat","Province","50","TH.CM","TH-50",98.6095886,18.5295944
"88","ChIJKzATi8Kx2zARQJOleU05BCY","ร้านอาหารรินทิพย์",4.9,17,"OK","THA.10_1","THA","Thailand","Chiang Mai","NA","จังหวัดเชียงใหม่","Changwat","Province","50","TH.CM","TH-50",98.6735552,18.4883497
"88","ChIJD1hSWB-x2zARaqptsm5pLA4","ร้านแม่กลางชวนชิม",3.3,10,"OK","THA.10_1","THA","Thailand","Chiang Mai","NA","จังหวัดเชียงใหม่","Changwat","Province","50","TH.CM","TH-50",98.6677945,18.4950597
"88","ChIJo6KWKnGx2zARToI1btbihl0","บัวเงินโภชนา",4.8,5,"OK","THA.10_1","THA","Thailand","Chiang Mai","NA","จังหวัดเชียงใหม่","Changwat","Province","50","TH.CM","TH-50",98.6730211,18.4902416
"88","ChIJbbs0dWWx2zARpagnK3bKi9w","บ้านชัยวัฒนาอินทนนท์",4,4,"OK","THA.10_1","THA","Thailand","Chiang Mai","NA","จังหวัดเชียงใหม่","Changwat","Province","50","TH.CM","TH-50",98.6731903,18.4897098
"88","ChIJGY2JmQyx2zARQHf_ACFmUVs","ร้านจิ๊บเบิร์ดน้ำตกแม่กลาง",4.7,18,"OK","THA.10_1","THA","Thailand","Chiang Mai","NA","จังหวัดเชียงใหม่","Changwat","Province","50","TH.CM","TH-50",98.66835669999999,18.4947357
"88","ChIJEz_oMMWx2zAR6sTcfbZfkPU","อาหารเหนือพื้นบ้าน ศูนย์เศรษฐกิจชุมชนอำเภอจอมทอง",4.4,201,"OK","THA.10_1","THA","Thailand","Chiang Mai","NA","จังหวัดเชียงใหม่","Changwat","Province","50","TH.CM","TH-50",98.6715816,18.4799045
"88","ChIJf7GB1g-x2zARJIB2G5Om0f8","กิ๋นอิ่มฮิมต้า กาแฟสด",4,2,"OK","THA.10_1","THA","Thailand","Chiang Mai","NA","จังหวัดเชียงใหม่","Changwat","Province","50","TH.CM","TH-50",98.6674642,18.49431
"88","ChIJ41aA2cKx2zAR7dZUqd2ldNM","ห้องอาหารเรือนเพชร",4.2,10,"OK","THA.10_1","THA","Thailand","Chiang Mai","NA","จังหวัดเชียงใหม่","Changwat","Province","50","TH.CM","TH-50",98.67221339999999,18.486949
"88","ChIJG9rpZqGx2zARPLeVxmk-S6s","ร้าน เจ้าแก้มแดง",4,1,"OK","THA.10_1","THA","Thailand","Chiang Mai","NA","จังหวัดเชียงใหม่","Changwat","Province","50","TH.CM","TH-50",98.66866499999999,18.4945815
"89","ChIJIYCNneO12zARoz121QuxC-0","ครัวใต้หลอง",5,7,"OK","THA.10_1","THA","Thailand","Chiang Mai","NA","จังหวัดเชียงใหม่","Changwat","Province","50","TH.CM","TH-50",98.7644729,18.5295078
"89","ChIJe7TvJIq22zARTPDbqDu-a_M","ครัวบ้านสวน",5,2,"OK","THA.10_1","THA","Thailand","Chiang Mai","NA","จังหวัดเชียงใหม่","Changwat","Province","50","TH.CM","TH-50",98.7903426,18.4895818
"89","ChIJ9fqJ-XW12zARz2f8S_J-QWU","Lake Restaurant",4.4,8,"OK","THA.10_1","THA","Thailand","Chiang Mai","NA","จังหวัดเชียงใหม่","Changwat","Province","50","TH.CM","TH-50",98.7939368,18.553126
"90","ChIJq5NIXfPL2zAR863thsRT2AU","PA MA Cafe & Restaurant",5,4,"OK","THA.10_1","THA","Thailand","Chiang Mai","NA","จังหวัดเชียงใหม่","Changwat","Province","50","TH.CM","TH-50",98.86940849999999,18.568007
"90","ChIJJa_4uNPL2zARTUdxlamnWzs","Baan Kao Coffee",5,2,"OK","THA.10_1","THA","Thailand","Chiang Mai","NA","จังหวัดเชียงใหม่","Changwat","Province","50","TH.CM","TH-50",98.843575,18.5629108
"90","ChIJM8blRvzL2zAROCylJDSh7PY","ice coffee",4.9,73,"OK","THA.10_1","THA","Thailand","Chiang Mai","NA","จังหวัดเชียงใหม่","Changwat","Province","50","TH.CM","TH-50",98.8564255,18.5283583
"90","ChIJ8ZotDbTL2zARjqDQZmR9kng","TIGER MOTHER CAFE",4.4,181,"OK","THA.10_1","THA","Thailand","Chiang Mai","NA","จังหวัดเชียงใหม่","Changwat","Province","50","TH.CM","TH-50",98.85329700000001,18.52502
"90","ChIJS4LbRenL2zARbfNR4G6IO14","ต๊ะต่อนยอน Coffee Bar สาขาเฮือนไม้ สันติสุข",4.4,85,"OK","THA.10_1","THA","Thailand","Chiang Mai","NA","จังหวัดเชียงใหม่","Changwat","Province","50","TH.CM","TH-50",98.85429649999999,18.526981
"90","ChIJM3mnBznL2zAR5lbmAMFvM_0","ตำแซ่บฮ้านัว",4.3,4,"OK","THA.10_1","THA","Thailand","Chiang Mai","NA","จังหวัดเชียงใหม่","Changwat","Province","50","TH.CM","TH-50",98.85090679999999,18.5230454
"90","ChIJbeJCcaLL2zAR4D6fny_9bUU","ก๋วยเตี๋ยวดวง แม่ขาน",4.6,86,"OK","THA.10_1","THA","Thailand","Chiang Mai","NA","จังหวัดเชียงใหม่","Changwat","Province","50","TH.CM","TH-50",98.855944,18.5280332
"90","ChIJiYPdgg212zAR08DY53Gwaog","เฮือนป้ออุ้ย",4,1,"OK","THA.10_1","THA","Thailand","Chiang Mai","NA","จังหวัดเชียงใหม่","Changwat","Province","50","TH.CM","TH-50",98.8297631,18.5557386
"91","ChIJO1i4TtzN2zARWINiQjD3nFs","Leysa Cafe'",5,27,"OK","THA.10_1","THA","Thailand","Chiang Mai","NA","จังหวัดเชียงใหม่","Changwat","Province","50","TH.CM","TH-50",98.9339183,18.5816902
"91","ChIJz7FaIW_L2zARJ_5-XWCKr-s","Anda Peka",4.7,132,"OK","THA.10_1","THA","Thailand","Chiang Mai","NA","จังหวัดเชียงใหม่","Changwat","Province","50","TH.CM","TH-50",98.88404980000001,18.5663772
"91","ChIJee8mmcfL2zARMyMm4Bv_ta0","Café โรงบ่ม",4.4,489,"OK","THA.10_1","THA","Thailand","Chiang Mai","NA","จังหวัดเชียงใหม่","Changwat","Province","50","TH.CM","TH-50",98.87967789999999,18.569269
"91","ChIJj7T5WqfT2zARW6TClAaGMYY","ลานหลองข้าว คาเฟ่ & รีสอร์ท",4.9,44,"OK","THA.10_1","THA","Thailand","Chiang Mai","NA","จังหวัดเชียงใหม่","Changwat","Province","50","TH.CM","TH-50",98.8746067,18.5649669
"91","ChIJhVsmWpo62jARAVc6xROUvuQ","Kaomai Lanna Resort",4.5,2078,"OK","THA.10_1","THA","Thailand","Chiang Mai","NA","จังหวัดเชียงใหม่","Changwat","Province","50","TH.CM","TH-50",98.8791591,18.5700798
"91","ChIJG_gvQlnK2zARoMemEQbAbuM","ข่วง คาเฟ่",4.3,47,"OK","THA.10_1","THA","Thailand","Chiang Mai","NA","จังหวัดเชียงใหม่","Changwat","Province","50","TH.CM","TH-50",98.86507549999999,18.5466064
"91","ChIJb19epeHK2zAR4941XYO5RE8","Kao Mai Lanna Restaurant",4.3,93,"OK","THA.10_1","THA","Thailand","Chiang Mai","NA","จังหวัดเชียงใหม่","Changwat","Province","50","TH.CM","TH-50",98.8782483,18.5706289
"91","ChIJ3-S5e6DL2zARwrzVljFPoME","ร้านกาแฟตองตุลย์ (TongTul Cafe)",4.4,16,"OK","THA.10_1","THA","Thailand","Chiang Mai","NA","จังหวัดเชียงใหม่","Changwat","Province","50","TH.CM","TH-50",98.87754149999999,18.5688326
"91","ChIJC0fnzjLL2zAR4L6898jbSy0","Intanon Coffee",4.5,129,"OK","THA.10_1","THA","Thailand","Chiang Mai","NA","จังหวัดเชียงใหม่","Changwat","Province","50","TH.CM","TH-50",98.8852637,18.5836682
"91","ChIJSQvRJYjL2zARTC6o0tfLWJM","Po Liang Bistro",3.8,37,"OK","THA.10_1","THA","Thailand","Chiang Mai","NA","จังหวัดเชียงใหม่","Changwat","Province","50","TH.CM","TH-50",98.87972219999999,18.5688448
"92","ChIJUaVHnhDL2zARDziGnwR0G9A","Cheun Rue Thai Cafe",4.8,94,"OK","THA.10_1","THA","Thailand","Chiang Mai","NA","จังหวัดเชียงใหม่","Changwat","Province","50","TH.CM","TH-50",98.8903282,18.5915059
"92","ChIJa5YIS_TN2zARiM5da813ET0","Baan Ton Mai Homestay Craft Coffee",4.5,24,"OK","THA.10_1","THA","Thailand","Chiang Mai","NA","จังหวัดเชียงใหม่","Changwat","Province","50","TH.CM","TH-50",98.95128989999999,18.5844179
"93","ChIJAbd7UOSB2TARmbgM2KrTC4Q","Maetha Organic Cafe",4.5,93,"OK","THA.10_1","THA","Thailand","Chiang Mai","NA","จังหวัดเชียงใหม่","Changwat","Province","50","TH.CM","TH-50",99.2641463,18.5873673
"93","ChIJ1ySjWACB2TAR_nAaVXD55Ws","ทองพันชั่ง",4.8,4,"OK","THA.10_1","THA","Thailand","Chiang Mai","NA","จังหวัดเชียงใหม่","Changwat","Province","50","TH.CM","TH-50",99.275167,18.6010187
"93","ChIJa5z0y5qB2TARHSZ9toBzMdE","ข้าวซอยก๋าไก๋",4.6,17,"OK","THA.10_1","THA","Thailand","Chiang Mai","NA","จังหวัดเชียงใหม่","Changwat","Province","50","TH.CM","TH-50",99.26199779999999,18.5827495
"95","ChIJ9ZBltUBV2jARHJbGNJ3h_kg","สวนอาหารขุนวาง",1.7,3,"OK","THA.10_1","THA","Thailand","Chiang Mai","NA","จังหวัดเชียงใหม่","Changwat","Province","50","TH.CM","TH-50",98.5056278,18.6278849
"97","ChIJ_3jhFbdT2jAREKEDFNfLUho","Tawan Riverside Resort Restaurant Cafe",4.6,51,"OK","THA.10_1","THA","Thailand","Chiang Mai","NA","จังหวัดเชียงใหม่","Changwat","Province","50","TH.CM","TH-50",98.6989135,18.6397342
"97","ChIJC4uD1wlN2jARHCNXSCB6-ag","ร้านป้าแต้ล่องแพแม่วาง bamboorafting",4.2,283,"OK","THA.10_1","THA","Thailand","Chiang Mai","NA","จังหวัดเชียงใหม่","Changwat","Province","50","TH.CM","TH-50",98.70183159999999,18.6382169
"97","ChIJo2TkZEtN2jARDeC8k4IE0sA","ร้านน้องผึ้ง ล่องแพ แม่วาง",4.7,27,"OK","THA.10_1","THA","Thailand","Chiang Mai","NA","จังหวัดเชียงใหม่","Changwat","Province","50","TH.CM","TH-50",98.6997459,18.6391452
"97","ChIJb98Aqx1N2jARar6KwDtWYVo","ล่องแพแม่วางร้านโสภาทรัพย์",4.5,14,"OK","THA.10_1","THA","Thailand","Chiang Mai","NA","จังหวัดเชียงใหม่","Changwat","Province","50","TH.CM","TH-50",98.7015043,18.6382391
"97","ChIJDXiRdYtN2jARM5PgAVTsVQE","Tawan Riverside - Elephant Resort",4.4,518,"OK","THA.10_1","THA","Thailand","Chiang Mai","NA","จังหวัดเชียงใหม่","Changwat","Province","50","TH.CM","TH-50",98.69949349999999,18.6398494
"97","ChIJuVT3z1tN2jARUEB4LrXqVjw","ร้านใบเฟิร์น ล่องแพแม่วาง",4.7,21,"OK","THA.10_1","THA","Thailand","Chiang Mai","NA","จังหวัดเชียงใหม่","Changwat","Province","50","TH.CM","TH-50",98.7093328,18.6316539
"97","ChIJ-2rFq5NN2jARa44sLrUJ4jg","ร้านเมียช่าง ปางช้าง",5,2,"OK","THA.10_1","THA","Thailand","Chiang Mai","NA","จังหวัดเชียงใหม่","Changwat","Province","50","TH.CM","TH-50",98.7077446,18.6312873
"97","ChIJI9aWVhxN2jARIZ3WmEJqNfo","ร้านโกปึ้งปางช้างแม่วาง",4.1,71,"OK","THA.10_1","THA","Thailand","Chiang Mai","NA","จังหวัดเชียงใหม่","Changwat","Province","50","TH.CM","TH-50",98.7009058,18.6383625
"98","ChIJZfZleQBL2jARf9pMLohri-c","Daily in cafe Maewang Chiangmai",4.9,75,"OK","THA.10_1","THA","Thailand","Chiang Mai","NA","จังหวัดเชียงใหม่","Changwat","Province","50","TH.CM","TH-50",98.8252187,18.6017088
"98","ChIJBQQQ5p_L2zARfX-MiTb4NRU","บ้านนอกของชิกะ Home & Cafe チカの田舎",5,546,"OK","THA.10_1","THA","Thailand","Chiang Mai","NA","จังหวัดเชียงใหม่","Changwat","Province","50","TH.CM","TH-50",98.8404815,18.5941936
"98","ChIJX_k3TgA12jARRzKCe_JitZ4","On The Way Coffee",4.8,40,"OK","THA.10_1","THA","Thailand","Chiang Mai","NA","จังหวัดเชียงใหม่","Changwat","Province","50","TH.CM","TH-50",98.8412737,18.6384139
"98","ChIJz1RKiKM12jARLr_RQ-bh0fY","Yang Coffee & Beer",4.7,75,"OK","THA.10_1","THA","Thailand","Chiang Mai","NA","จังหวัดเชียงใหม่","Changwat","Province","50","TH.CM","TH-50",98.86544699999999,18.6334506
"98","ChIJvR-oY5U12jARLiFXZrzFlDg","ร้านส้มตำป้าเกศ",4.7,30,"OK","THA.10_1","THA","Thailand","Chiang Mai","NA","จังหวัดเชียงใหม่","Changwat","Province","50","TH.CM","TH-50",98.8705263,18.6191127
"98","ChIJnZDsqOBL2jARNAaxAdQrbU0","INNLAND 83 Cafe'",5,6,"OK","THA.10_1","THA","Thailand","Chiang Mai","NA","จังหวัดเชียงใหม่","Changwat","Province","50","TH.CM","TH-50",98.8295867,18.6095414
"98","ChIJGeR9WLRL2jARP5aqs5Qumvo","ส้มตำแรมจันทร์",4.1,17,"OK","THA.10_1","THA","Thailand","Chiang Mai","NA","จังหวัดเชียงใหม่","Changwat","Province","50","TH.CM","TH-50",98.825982,18.6019994
"98","ChIJwU8MFCvL2zARyVrZ_y8ykR8","ส้มตำครกหลวง",4.4,34,"OK","THA.10_1","THA","Thailand","Chiang Mai","NA","จังหวัดเชียงใหม่","Changwat","Province","50","TH.CM","TH-50",98.8488041,18.5916131
"98","ChIJIy21Np412jARhX1cdhokhw0","แม่วรรณข้าวมันไก่",4.4,35,"OK","THA.10_1","THA","Thailand","Chiang Mai","NA","จังหวัดเชียงใหม่","Changwat","Province","50","TH.CM","TH-50",98.84105339999999,18.6369636
"98","ChIJi9nwAAs12jARc_Z8J53TJbo","Nom Hyerm Cafe'",4.5,84,"OK","THA.10_1","THA","Thailand","Chiang Mai","NA","จังหวัดเชียงใหม่","Changwat","Province","50","TH.CM","TH-50",98.86815229999999,18.625542
"99","ChIJqQOtbgE12jARMAzw9gP2Tmo","Ganesha Cafe & Farm",4.9,2221,"OK","THA.10_1","THA","Thailand","Chiang Mai","NA","จังหวัดเชียงใหม่","Changwat","Province","50","TH.CM","TH-50",98.8810999,18.6179559
"99","ChIJO7heOc412jARFk_Fd0jfkZo","Shinle Cafe",5,1179,"OK","THA.10_1","THA","Thailand","Chiang Mai","NA","จังหวัดเชียงใหม่","Changwat","Province","50","TH.CM","TH-50",98.88948970000001,18.6112458
"99","ChIJWWHwG0g12jAR3qfKfUPd1xk","Polaris Sunrise Cafe",4.7,131,"OK","THA.10_1","THA","Thailand","Chiang Mai","NA","จังหวัดเชียงใหม่","Changwat","Province","50","TH.CM","TH-50",98.89244889999999,18.6304473
"99","ChIJoz0KiOs02jARooJzoDOiKgM","Sukhum.sanpatong",4.6,401,"OK","THA.10_1","THA","Thailand","Chiang Mai","NA","จังหวัดเชียงใหม่","Changwat","Province","50","TH.CM","TH-50",98.89900089999999,18.6261604
"99","ChIJv3_SPl812jARGFKbk_kbly4","Enai Café",4.6,50,"OK","THA.10_1","THA","Thailand","Chiang Mai","NA","จังหวัดเชียงใหม่","Changwat","Province","50","TH.CM","TH-50",98.88839899999999,18.6241716
"99","ChIJqUJeQnE12jARgaBwIYDO9OA","Khobkhuncafe",4.7,47,"OK","THA.10_1","THA","Thailand","Chiang Mai","NA","จังหวัดเชียงใหม่","Changwat","Province","50","TH.CM","TH-50",98.8833468,18.6053099
"99","ChIJ_dJFxD3L2zARlHfnt6729OM","Clever Coffee Bar",4.7,39,"OK","THA.10_1","THA","Thailand","Chiang Mai","NA","จังหวัดเชียงใหม่","Changwat","Province","50","TH.CM","TH-50",98.8923226,18.6240053
"99","ChIJGSuhF2U12jARq6b-ADoJC0M","S'moose Cafe - สมู๊ท คาเฟ่",5,1,"OK","THA.10_1","THA","Thailand","Chiang Mai","NA","จังหวัดเชียงใหม่","Changwat","Province","50","TH.CM","TH-50",98.8849994,18.6222022
"100","ChIJId15lSg12jARqPWbiLvimHY","ฮันน่าคาเฟ่ Hannah Cafe - สันป่าตอง",4.8,13,"OK","THA.10_1","THA","Thailand","Chiang Mai","NA","จังหวัดเชียงใหม่","Changwat","Province","50","TH.CM","TH-50",98.90450109999999,18.629232
"100","ChIJeYiQJmbN2zAR7xgNQCjzoHc","กาแฟหน้าวัด est.2018",4.3,52,"OK","THA.10_1","THA","Thailand","Chiang Mai","NA","จังหวัดเชียงใหม่","Changwat","Province","50","TH.CM","TH-50",98.95316869999999,18.580469
"100","ChIJ608GqtM12jAR_O0a9xBMNRQ","บ้านไร่กาแฟควาย#BuffaloCoffeeFarm(Coffee&Food&Drink)",3.8,86,"OK","THA.10_1","THA","Thailand","Chiang Mai","NA","จังหวัดเชียงใหม่","Changwat","Province","50","TH.CM","TH-50",98.8987729,18.6205098
"100","ChIJc3VjA98z2jAR7TP0I9aTGQ0","Pasta cafe",NA,NA,"OK","THA.10_1","THA","Thailand","Chiang Mai","NA","จังหวัดเชียงใหม่","Changwat","Province","50","TH.CM","TH-50",98.94109399999999,18.6125309
"101","ChIJS8FtroCB2TAReYwdg4tb4PM","Maetha In Love",4.2,61,"OK","THA.10_1","THA","Thailand","Chiang Mai","NA","จังหวัดเชียงใหม่","Changwat","Province","50","TH.CM","TH-50",99.2779611,18.6200891
"101","ChIJA7bsBYGB2TAREfKq4TqC2ZE","ร้านเฮือนฮ่อมดอย",4.4,48,"OK","THA.10_1","THA","Thailand","Chiang Mai","NA","จังหวัดเชียงใหม่","Changwat","Province","50","TH.CM","TH-50",99.2724235,18.6060348
"101","ChIJrfl7yyaD2TARSixWa2OYE8s","สุขเสมอ คาเฟ่&โฮมสเตย์ แม่ทา : Suksamer cafe&homestay Meatha",5,5,"OK","THA.10_1","THA","Thailand","Chiang Mai","NA","จังหวัดเชียงใหม่","Changwat","Province","50","TH.CM","TH-50",99.2723587,18.6057298
"101","ChIJGScfeLmB2TARk1kII5ZCx20","ร้านศรีแพรตำครกแตก",5,2,"OK","THA.10_1","THA","Thailand","Chiang Mai","NA","จังหวัดเชียงใหม่","Changwat","Province","50","TH.CM","TH-50",99.2721103,18.6034532
"102","ChIJg_WP-IUv2jARQ5w2bDADu94","ร้านฮักเน้ออินดี้",4.5,2,"OK","THA.10_1","THA","Thailand","Chiang Mai","NA","จังหวัดเชียงใหม่","Changwat","Province","50","TH.CM","TH-50",99.2761158,18.6151436
"103","ChIJK24p2pzj2jARoLCXh9oVWDQ","The Hill Tribe Coffee",4.1,29,"OK","THA.10_1","THA","Thailand","Chiang Mai","NA","จังหวัดเชียงใหม่","Changwat","Province","50","TH.CM","TH-50",98.26198079999999,18.7076371
"104","ChIJPaOAcUv92jARpqTY96R9Pd8","ภูตะวัน คาเฟ่",4.8,6,"OK","THA.10_1","THA","Thailand","Chiang Mai","NA","จังหวัดเชียงใหม่","Changwat","Province","50","TH.CM","TH-50",98.3188121,18.6923687
"104","ChIJM8jMWgD92jAR6ezyNd-KQXA","ครัวฮิมเหมือง@นาฮ่อง",5,1,"OK","THA.10_1","THA","Thailand","Chiang Mai","NA","จังหวัดเชียงใหม่","Changwat","Province","50","TH.CM","TH-50",98.3386079,18.6811729
"104","ChIJWQHEluX92jAR2BQIJCW8-Uk","ร้านลาบ ลุงไสวควายงาม",NA,NA,"OK","THA.10_1","THA","Thailand","Chiang Mai","NA","จังหวัดเชียงใหม่","Changwat","Province","50","TH.CM","TH-50",98.31875889999999,18.6918887
"104","ChIJ8Zo3sMr92jARnSUxpI1x9XM","ครัวปี้ออย&หล้าตั้น",5,4,"OK","THA.10_1","THA","Thailand","Chiang Mai","NA","จังหวัดเชียงใหม่","Changwat","Province","50","TH.CM","TH-50",98.3402317,18.6799259
"104","ChIJr5yQjq792jAR8yQdzwePedM","ร้านอาหารป้าแก้ว",4.5,4,"OK","THA.10_1","THA","Thailand","Chiang Mai","NA","จังหวัดเชียงใหม่","Changwat","Province","50","TH.CM","TH-50",98.31762429999999,18.6902335
"105","ChIJ-8wqPAD92jARtZI3LIHeYzE","เกอชาวา CAFÉ & BISTRO",4.9,33,"OK","THA.10_1","THA","Thailand","Chiang Mai","NA","จังหวัดเชียงใหม่","Changwat","Province","50","TH.CM","TH-50",98.3765548,18.6447488
"105","ChIJzTsa8TT82jAROqOOKCEsK64","Hot Coffee Guest House and Resort",4.4,236,"OK","THA.10_1","THA","Thailand","Chiang Mai","NA","จังหวัดเชียงใหม่","Changwat","Province","50","TH.CM","TH-50",98.37828820000001,18.6704784
"105","ChIJy89TUTf52jARSJbpzfwGJJU","กอดอุ่น คาเฟ่",4.6,12,"OK","THA.10_1","THA","Thailand","Chiang Mai","NA","จังหวัดเชียงใหม่","Changwat","Province","50","TH.CM","TH-50",98.37863469999999,18.6702781
"105","ChIJwbSSXkP92jAREkX7BK6diVA","เก๊ามะม่วงคาเฟ่",5,2,"OK","THA.10_1","THA","Thailand","Chiang Mai","NA","จังหวัดเชียงใหม่","Changwat","Province","50","TH.CM","TH-50",98.37580030000001,18.6863574
"105","ChIJa2W1LDv92jAR_tdDHE21_2M","ครัวหญิงอ้อ",5,1,"OK","THA.10_1","THA","Thailand","Chiang Mai","NA","จังหวัดเชียงใหม่","Changwat","Province","50","TH.CM","TH-50",98.3785406,18.6891803
"105","ChIJsTxO_0T92jARBUov_EVl7NI","Ran Ku Fin",4.7,38,"OK","THA.10_1","THA","Thailand","Chiang Mai","NA","จังหวัดเชียงใหม่","Changwat","Province","50","TH.CM","TH-50",98.37584090000001,18.6860054
"105","ChIJZVS8iV_92jARW2r9M5_iZL8","บ้านสวนริมน้ำ@แม่นาจร",3,1,"OK","THA.10_1","THA","Thailand","Chiang Mai","NA","จังหวัดเชียงใหม่","Changwat","Province","50","TH.CM","TH-50",98.3800321,18.6946248
"105","ChIJG-vv0fv92jARrPMkYRlqTVw","ลาบปื้นกะล่าง",4.9,34,"OK","THA.10_1","THA","Thailand","Chiang Mai","NA","จังหวัดเชียงใหม่","Changwat","Province","50","TH.CM","TH-50",98.37824440000001,18.6842893
"105","ChIJHQ-SAAH92jARaXHhIZpEnoE","ครัวริมน้ำอ๊อฟฟี่อิ้ง",NA,NA,"OK","THA.10_1","THA","Thailand","Chiang Mai","NA","จังหวัดเชียงใหม่","Changwat","Province","50","TH.CM","TH-50",98.3768942,18.643669
"105","ChIJL9KtwlD92jARf5OuwYhxK6k","ต้องเหมียว อาหารตามสั่ง",4.6,5,"OK","THA.10_1","THA","Thailand","Chiang Mai","NA","จังหวัดเชียงใหม่","Changwat","Province","50","TH.CM","TH-50",98.37571,18.6858606
"106","ChIJKfvrKkBU2jARY9nrOr56iyc","Lazy Man Coffee",4.8,53,"OK","THA.10_1","THA","Thailand","Chiang Mai","NA","จังหวัดเชียงใหม่","Changwat","Province","50","TH.CM","TH-50",98.5499643,18.6809412
"106","ChIJb5TK4gZV2jAR5O69mfKHv0A","Mae Win Road Restaurant",3.8,18,"OK","THA.10_1","THA","Thailand","Chiang Mai","NA","จังหวัดเชียงใหม่","Changwat","Province","50","TH.CM","TH-50",98.5510267,18.6699386
"106","ChIJm2WXdyJV2jARLY-XN1inoqg","Restaurant Huay Kiang ร้านอาหาร ห้วยเกี๋ยง",4.7,26,"OK","THA.10_1","THA","Thailand","Chiang Mai","NA","จังหวัดเชียงใหม่","Changwat","Province","50","TH.CM","TH-50",98.56637409999999,18.6901974
"106","ChIJJ-AX0z9V2jARTxqgVEZxWQA","แป้งก๋วยเตี๋ยวอาหารตามสั่ง",4.9,11,"OK","THA.10_1","THA","Thailand","Chiang Mai","NA","จังหวัดเชียงใหม่","Changwat","Province","50","TH.CM","TH-50",98.56539699999999,18.6936583
"106","ChIJtzObe1hV2jARmAQ8-TSvW0I","View Doi",5,5,"OK","THA.10_1","THA","Thailand","Chiang Mai","NA","จังหวัดเชียงใหม่","Changwat","Province","50","TH.CM","TH-50",98.550382,18.6687502
"106","ChIJ3Z-_WMRV2jARtUDUg_SrUHg","Pin Restaurant (EFV Meeting Point)",4.5,4,"OK","THA.10_1","THA","Thailand","Chiang Mai","NA","จังหวัดเชียงใหม่","Changwat","Province","50","TH.CM","TH-50",98.5519595,18.6714277
"107","ChIJPRSqPl9S2jAR8zwS5ncJ-4A","Chai Lai Orchid Eco Lodge and Cafe",4.7,1985,"OK","THA.10_1","THA","Thailand","Chiang Mai","NA","จังหวัดเชียงใหม่","Changwat","Province","50","TH.CM","TH-50",98.63375289999999,18.6582697
"107","ChIJzRQbHHtS2jARmZaV7oCxDx8","วังญ่าอู คาเฟ่ Wang Ya Woo Cafe'",4.2,11,"OK","THA.10_1","THA","Thailand","Chiang Mai","NA","จังหวัดเชียงใหม่","Changwat","Province","50","TH.CM","TH-50",98.650804,18.664076
"107","ChIJy4zuVG5S2jARpO99ptfqFN4","The Maewin Coffee",4.6,155,"OK","THA.10_1","THA","Thailand","Chiang Mai","NA","จังหวัดเชียงใหม่","Changwat","Province","50","TH.CM","TH-50",98.6464103,18.6705794
"107","ChIJAX5UxT5T2jARwStcMICZh9s","De Ba No Mee Bar & Restaurant",4.9,26,"OK","THA.10_1","THA","Thailand","Chiang Mai","NA","จังหวัดเชียงใหม่","Changwat","Province","50","TH.CM","TH-50",98.6349381,18.6676751
"107","ChIJZdPNDbRT2jARIhInsBKbv-o","ก๋วยเตี๋ยวแม่ตุ๋ย",4.6,25,"OK","THA.10_1","THA","Thailand","Chiang Mai","NA","จังหวัดเชียงใหม่","Changwat","Province","50","TH.CM","TH-50",98.64413809999999,18.669765
"107","ChIJbQYAZwBT2jAR738aWjCYY2s","Coffee With Elephants",4,4,"OK","THA.10_1","THA","Thailand","Chiang Mai","NA","จังหวัดเชียงใหม่","Changwat","Province","50","TH.CM","TH-50",98.63606999999999,18.6670028
"108","ChIJYfESg25T2jARECR-Nk-p-_M","Maewang elephant cafe @ River",4.9,84,"OK","THA.10_1","THA","Thailand","Chiang Mai","NA","จังหวัดเชียงใหม่","Changwat","Province","50","TH.CM","TH-50",98.68537500000001,18.6560709
"108","ChIJ3dj0YwRN2jARoIZD6GqzVTo","Huan Hom Rada",4.4,180,"OK","THA.10_1","THA","Thailand","Chiang Mai","NA","จังหวัดเชียงใหม่","Changwat","Province","50","TH.CM","TH-50",98.6975544,18.644891
"108","ChIJI54I_G5N2jARS7W-STft6u8","มา เมืองวิน",4.9,47,"OK","THA.10_1","THA","Thailand","Chiang Mai","NA","จังหวัดเชียงใหม่","Changwat","Province","50","TH.CM","TH-50",98.6612676,18.6615267
"108","ChIJy4jTxgNN2jARJW_feHqne4w","มีดี MEEDEE Restaurant & Cafe",5,2,"OK","THA.10_1","THA","Thailand","Chiang Mai","NA","จังหวัดเชียงใหม่","Changwat","Province","50","TH.CM","TH-50",98.6780059,18.6559067
"108","ChIJUf744AVN2jARL8ZVgLHlI2I","Goodwin River View",4.1,19,"OK","THA.10_1","THA","Thailand","Chiang Mai","NA","จังหวัดเชียงใหม่","Changwat","Province","50","TH.CM","TH-50",98.6944169,18.6475268
"108","ChIJL53_L9ZN2jARB_qHMQk-FDs","Jasmine garden",4.7,18,"OK","THA.10_1","THA","Thailand","Chiang Mai","NA","จังหวัดเชียงใหม่","Changwat","Province","50","TH.CM","TH-50",98.69771019999999,18.6448901
"108","ChIJxwkZRQRN2jAR9fjNtKX8RQ0","Farm Sook Homemade Kitchen",4.9,14,"OK","THA.10_1","THA","Thailand","Chiang Mai","NA","จังหวัดเชียงใหม่","Changwat","Province","50","TH.CM","TH-50",98.6966477,18.6454984
"108","ChIJhTTwampN2jARbnywzgKuZ6Y","กาดแม่วิน Kadmaewin",5,1,"OK","THA.10_1","THA","Thailand","Chiang Mai","NA","จังหวัดเชียงใหม่","Changwat","Province","50","TH.CM","TH-50",98.6823404,18.6561453
"108","ChIJB2Bjwq9N2jARBT0INAsejPw","ซุ้ม กำนันพร",5,3,"OK","THA.10_1","THA","Thailand","Chiang Mai","NA","จังหวัดเชียงใหม่","Changwat","Province","50","TH.CM","TH-50",98.71437,18.626563
