"match_status","place_id","osm_id","dist_m","name","lat","lon","rating","user_ratings_total","any_url","opening_hours"
"matched","ChIJO-HUcQAB2zARJmstqXq4FR8","262581744",10.3920660842046,"coffee process",18.552878,98.4801852,4,9,"https://geodata.ucdavis.edu/gadm/gadm4.1/shp/gadm41_THA_shp.zip",NA
"matched","ChIJ-SkVRd-d0DARTbyMb6ijx-c","868590987",2.0716349149248736,"Hug Ner Coffee",19.3786205,98.7216325,4.6,109,"https://geodata.ucdavis.edu/gadm/gadm4.1/shp/gadm41_THA_shp.zip",NA
"matched","ChIJD7jyUnmn0DARJ-p_-7CAUIQ","1012161651",2.985832795903265,"Café Amazon",19.353153,98.9639651,3.9,21,"https://geodata.ucdavis.edu/gadm/gadm4.1/shp/gadm41_THA_shp.zip","Mo-Su 07:00-19:00"
"matched","ChIJU6pxxtYt2jARXPFF1iaUji0","1017739602",1.1881078116896286,"Café Amazon",18.6786874,99.0494064,4.3,240,"https://geodata.ucdavis.edu/gadm/gadm4.1/shp/gadm41_THA_shp.zip","Mo-Su 06:30-19:00"
"matched","ChIJZwRL7JUv2jAR_XloGK5LQC4","1029578473",4.12833125310136,"Café Amazon",18.7217171,99.0380523,4.2,170,"https://geodata.ucdavis.edu/gadm/gadm4.1/shp/gadm41_THA_shp.zip",NA
"matched","ChIJ8WzeXg002jARYYNNaex1eOQ","1058639339",5.116805523749523,"Big C Hang Dong #2",18.6684192,98.9136551,4.1,48,"https://geodata.ucdavis.edu/gadm/gadm4.1/shp/gadm41_THA_shp.zip",NA
"matched","ChIJDbyA6Vwv2jAR47CBqZ9zQ5s","1093720093",0.8119750139401513,"Love is coffee time",18.7662186,99.083002,4.9,45,"https://geodata.ucdavis.edu/gadm/gadm4.1/shp/gadm41_THA_shp.zip",NA
"matched","ChIJw7JZ8qc62jARrSmQF4ONEoo","1101287698",6.258142520621114,"Cafe de L'Amour",18.781063,99.00074,4.6,429,"https://m.facebook.com/lamour.chiangmai","08:30-21:00"
"matched","ChIJH2JmRKQ62jARSAPBJj8iAjg","1101288715",4.128308537855208,"Starbucks",18.7837905,99.0001525,4.3,619,"https://www.starbucks.com/","Mo-Fr 06:30-23:00; Sa,Su 06:30-22:00"
"matched","ChIJ397BKGM62jARjFC4ar4naQ0","1127593959",12.465507662079476,"Starbucks Nimmanhemin Soi 9",18.79752569999999,98.9668167,4.4,971,"https://www.starbucks.com/",NA
"matched","ChIJZ6u0HwA52jARB_bCfxEGOHg","1169723115",17.83709210729718,"ร้าน สถานีวิจัยกาแฟ",18.8386966,98.8963676,NA,NA,"https://geodata.ucdavis.edu/gadm/gadm4.1/shp/gadm41_THA_shp.zip",NA
"matched","ChIJdzMnejBV1zARROLhga_heI4","1248118434",0.801940199048758,"Café Amazon ปตท.พร้าว",19.3688295,99.2004166,4.4,36,"https://geodata.ucdavis.edu/gadm/gadm4.1/shp/gadm41_THA_shp.zip",NA
"matched","ChIJY4wbJ17L0DARBAtFf5MdEBw","1348997661",4.884080863459251,"Baan Siri Coffee&Food",19.80501509999999,99.1679064,4.2,29,"https://geodata.ucdavis.edu/gadm/gadm4.1/shp/gadm41_THA_shp.zip","Mo-Su 07:30-18:30"
"matched","ChIJA2PGXjAu2jARfBEAxliQvvE","1377321248",2.03945059050318,"Baan Yam Roll Cafe",18.7220458,99.0264582,4.6,427,"https://geodata.ucdavis.edu/gadm/gadm4.1/shp/gadm41_THA_shp.zip",NA
"matched","ChIJ7agfwidw2jAR2tpAGWl__3M","1379206267",5.165510609677641,"Mee Jirakul orange garden & Mee Cafe",19.1214593,98.7046875,4.7,90,"https://geodata.ucdavis.edu/gadm/gadm4.1/shp/gadm41_THA_shp.zip",NA
"matched","ChIJJUG3Z2Qv2jARLsbtkgwsKzs","1381345475",5.438789680849359,"Café Amazon",18.7698306,99.0715678,4.3,85,"https://geodata.ucdavis.edu/gadm/gadm4.1/shp/gadm41_THA_shp.zip",NA
"matched","ChIJabACWOop2jARnIKbVPbrMQs","1388675491",6.723386180893656,"SAWDUST CAFÉ - ซอดัสท์คาเฟ่",18.7250562,99.1035364,4.5,169,"https://geodata.ucdavis.edu/gadm/gadm4.1/shp/gadm41_THA_shp.zip",NA
"matched","ChIJ_zzQ05I72jARwUfdjmZvmOI","1460917962",1.327399404708203,"Tara Cafe' Coffee and bakery",18.8746104,98.9695091,4.6,78,"https://geodata.ucdavis.edu/gadm/gadm4.1/shp/gadm41_THA_shp.zip","Mo-Su 08:00-14:00"
"matched","ChIJCbg2SYkw2jARR1XARZpWlHw","1474872898",35.017397998676614,"Black Canyon ท่าอากาศยานเชียงใหม่ (Domestic Outside)",18.7701872,98.9680138,3.4,150,"https://geodata.ucdavis.edu/gadm/gadm4.1/shp/gadm41_THA_shp.zip","PH,Mo-Su 06:00-23:00"
"matched","ChIJPWFm_v4L2jARJUwuC24pfnk","1526074376",18.537516522133252,"Raming Tea Estate",19.26485449999999,98.9212156,4.5,144,"https://geodata.ucdavis.edu/gadm/gadm4.1/shp/gadm41_THA_shp.zip",NA
"matched","ChIJ5XWWiAw72jARn_YWoFpgNIo","1618868154",8.301354818419101,"GORD CHIANGMAI HOTEL",18.7834763,98.9852867,4.5,373,"https://geodata.ucdavis.edu/gadm/gadm4.1/shp/gadm41_THA_shp.zip",NA
"matched","ChIJzTsa8TT82jAROqOOKCEsK64","1761734569",5.332119169076615,"Hot Coffee Guest House and Resort",18.6704784,98.3782882,4.4,236,"https://geodata.ucdavis.edu/gadm/gadm4.1/shp/gadm41_THA_shp.zip",NA
"matched","ChIJt1erMX1w2jAR_j9Q6BfLpcs","1819858250",15.343086448718093,"Coffee Witch's House",19.2181948,98.6705737,4.3,896,"https://geodata.ucdavis.edu/gadm/gadm4.1/shp/gadm41_THA_shp.zip",NA
"matched","ChIJoRuCWjfL0DARksP1dcC4ujA","1985325612",34.79005799395955,"Maple Coffee",19.8050944,99.1686494,4.5,67,"https://geodata.ucdavis.edu/gadm/gadm4.1/shp/gadm41_THA_shp.zip",NA
"matched","ChIJOWUj8zc32jARxfHJqcWe6fk","2005925281",17.897043363384235,"Baan Suan Café",18.7595844,98.91374890000002,4.4,1747,"https://geodata.ucdavis.edu/gadm/gadm4.1/shp/gadm41_THA_shp.zip","Mo-Su 08:00-17:00"
"matched","ChIJFVbt5NMw2jARkOp_qFM6_OU","2005925282",32.244374655952605,"Praw & Plean Green House Cafe",18.7602255,98.9048877,4.6,140,"https://geodata.ucdavis.edu/gadm/gadm4.1/shp/gadm41_THA_shp.zip",NA
"matched","ChIJXZbjxu0p1zARkMYXma3pe8M","2074584720",34.22141345280564,"Café Amazon",20.0271216,99.2851052,2.8,10,"https://geodata.ucdavis.edu/gadm/gadm4.1/shp/gadm41_THA_shp.zip",NA
"matched","ChIJgSb-m08O2jARi4wmrqbpVb4","2183806667",15.707578066771628,"Hom Nual cafe",19.1919814,98.95876,4.4,67,"https://geodata.ucdavis.edu/gadm/gadm4.1/shp/gadm41_THA_shp.zip",NA
"matched","ChIJe3oKRzKk0DAR8fbE1cURugg","2195684384",9.596396145528214,"DoiMek Café | ร้านกาแฟดอยเมฆ",19.4556889,98.9646979,4.3,82,"https://geodata.ucdavis.edu/gadm/gadm4.1/shp/gadm41_THA_shp.zip",NA
"matched","ChIJyf_9M8En2jARwK5BAAk2K0Q","2417600317",2.8453990346717433,"Coffee House",18.856599,99.0998838,4.4,108,"https://geodata.ucdavis.edu/gadm/gadm4.1/shp/gadm41_THA_shp.zip",NA
"matched","ChIJBwpB_KQ62jARNmufGmPWDnA","2434791784",25.192530324114735,"กาแฟออร์แกนิค Black Wanila Organic Coffee",18.802128,98.9502997,4.3,28,"https://geodata.ucdavis.edu/gadm/gadm4.1/shp/gadm41_THA_shp.zip",NA
"matched","ChIJLTXt7k6k0DART7N7bSbAbFM","2521984652",12.389168929244324,"Chiang Dao in Love",19.473164,98.96169,4.1,152,"https://geodata.ucdavis.edu/gadm/gadm4.1/shp/gadm41_THA_shp.zip",NA
"matched","ChIJ7Rl9RNk82jARHmN08xWvpV8","2582060112",35.74498067889947,"Larn-Ya Coffee And Restaurant",18.9171053,98.9973481,4.3,6,"https://geodata.ucdavis.edu/gadm/gadm4.1/shp/gadm41_THA_shp.zip",NA
"matched","ChIJDQQqiKGD3DARpIfCcf9vOuk","2617030206",33.54603429543042,"Omkoi Bean",17.7999149,98.3581416,4.3,12,"https://geodata.ucdavis.edu/gadm/gadm4.1/shp/gadm41_THA_shp.zip",NA
"matched","ChIJkWzGdRSb3DARK6nlniLZlLw","2618521973",48.735988999371486,"Mae Naree Coffee ผาแดง",17.6980641,98.2418463,NA,NA,"https://geodata.ucdavis.edu/gadm/gadm4.1/shp/gadm41_THA_shp.zip",NA
"matched","ChIJPdoAdPGI2TARwewZv50r-sA","2631763471",5.672710354261039,"U-noka",18.7990384,99.2422169,4.5,51,"https://geodata.ucdavis.edu/gadm/gadm4.1/shp/gadm41_THA_shp.zip",NA
"matched","ChIJyWASNZQg2jARp3meg5HtHU0","2641942618",6.739153729556565,"Coffee terminal",18.8925991,99.1724624,4.5,255,"https://geodata.ucdavis.edu/gadm/gadm4.1/shp/gadm41_THA_shp.zip","Mo-Su 07:30-17:00"
"matched","ChIJWUi5_-SN2TARgfCLtwBieg0","2642156470",4.1685891150980385,"Kampong Coffee",18.8657494,99.3535463,4.4,30,"https://geodata.ucdavis.edu/gadm/gadm4.1/shp/gadm41_THA_shp.zip",NA
"matched","ChIJj13gLaQ62jARVVf_alEiaHY","2655153486",14.985592177309346,"Doi Chaang Coffee",18.78683149999999,98.9987306,4.5,89,"https://geodata.ucdavis.edu/gadm/gadm4.1/shp/gadm41_THA_shp.zip",NA
"matched","ChIJC0fnzjLL2zAR4L6898jbSy0","2684247512",8.767832214755973,"Intanon Coffee",18.5836705,98.8852594,4.5,129,"https://geodata.ucdavis.edu/gadm/gadm4.1/shp/gadm41_THA_shp.zip",NA
"matched","ChIJmxlakOw92jARe8U0VYVFoW8","2773248344",22.648103617577718,"อาหารอิสลาม และบ้านพัก ทับอุสา",18.9622737,98.9139384,4.6,14,"https://geodata.ucdavis.edu/gadm/gadm4.1/shp/gadm41_THA_shp.zip",NA
"matched","ChIJwSmqy4c52jARqJOU8KwguEI","3046913649",8.316580224937827,"SONG SEAN COFFEE",18.8119654,98.8846745,4.7,110,"https://geodata.ucdavis.edu/gadm/gadm4.1/shp/gadm41_THA_shp.zip",NA
"matched","ChIJ2U2NdUmr2zARF3rgY3Sj350","3081257253",9.378473218294776,"BAAN KAFÉ at Doi Inthanon",18.5879764,98.4862224,4.8,41,"https://geodata.ucdavis.edu/gadm/gadm4.1/shp/gadm41_THA_shp.zip",NA
"matched","ChIJD3kZVgAR2jARvIvshzxa2QQ","3107256389",17.74566474542965,"Dunkin Tea",19.0827163,98.9367424,5,4,"https://geodata.ucdavis.edu/gadm/gadm4.1/shp/gadm41_THA_shp.zip",NA
"matched","ChIJe46QMjQl2jARFdaSdpnH_iM","3116053111",41.415730642206434,"Café Amazon",18.80612,99.0176736,4.1,247,"https://www.starbucks.com/",NA
"matched","ChIJjfcq9zY02jARNZZA6-MN0S8","3121493939",8.445484204922282,"Café Amazon",18.6713211,98.8878131,4.2,281,"https://geodata.ucdavis.edu/gadm/gadm4.1/shp/gadm41_THA_shp.zip",NA
"matched","ChIJCYdW2Xk12jARhV0DOQMu3es","3121493974",6.218832925040415,"Cafe 1971",18.642391,98.84696900000002,4.5,17,"https://geodata.ucdavis.edu/gadm/gadm4.1/shp/gadm41_THA_shp.zip",NA
"matched","ChIJqcVD5d8z2jAR2FHZhrRrP08","3174251462",6.720004281712441,"ร้านเฮือนโบราณ",18.687905,98.9471982,4.2,15,"https://geodata.ucdavis.edu/gadm/gadm4.1/shp/gadm41_THA_shp.zip",NA
"matched","ChIJ1zIrPcE62jARLmFY_rZZmDk","3195504333",12.373460845389921,"The Baristro at Jingjai Market",18.8078742,98.9950529,4.7,447,"https://geodata.ucdavis.edu/gadm/gadm4.1/shp/gadm41_THA_shp.zip",NA
"matched","ChIJKYxjPl462jARiqAyRG_R3jQ","3221309062",23.609432560089125,"Maajoy cafe",18.8065128,98.9645953,4.8,25,"https://geodata.ucdavis.edu/gadm/gadm4.1/shp/gadm41_THA_shp.zip",NA
"matched","ChIJH32YEIyx2zARHA2gxpXnvmc","3235711895",6.659041473541876,"Maple Coffee",18.4919155,98.6720787,4.4,30,"https://geodata.ucdavis.edu/gadm/gadm4.1/shp/gadm41_THA_shp.zip",NA
"matched","ChIJwziLL4Q62jARzPUlyEAkB34","3242156461",14.924053290276836,"Black Canyon @ SuanDok Hospital",18.7894562,98.9705463,3.9,71,"https://geodata.ucdavis.edu/gadm/gadm4.1/shp/gadm41_THA_shp.zip","Mo-Su 07:00-20:00"
"matched","ChIJy8X8b0wl2jARx4OZOpCGXTc","3242156462",36.50281662789237,"StarWork Chiangmai",18.7963759,99.0164451,4.8,130,"https://geodata.ucdavis.edu/gadm/gadm4.1/shp/gadm41_THA_shp.zip",NA
"matched","ChIJ88iVvW5B2jAR0XTLbS00WSU","3247403107",13.35789721480838,"Merle brew",18.9565537,98.8050555,5,13,"https://geodata.ucdavis.edu/gadm/gadm4.1/shp/gadm41_THA_shp.zip",NA
"matched","ChIJu94bZvdE2jAR9E703rOoWMc","3247431556",20.14010747114966,"Oui Kaew Coffee อุ้ยแก้วกาแฟ",18.8523299,98.7328733,4.6,179,"https://geodata.ucdavis.edu/gadm/gadm4.1/shp/gadm41_THA_shp.zip",NA
"matched","ChIJ0TTiNwQ72jARo_nDuUpgr5o","3322713453",6.19993050161941,"Roastniyom Coffee - Esso Chang Phueak",18.8367546,98.9754093,4.3,102,"https://geodata.ucdavis.edu/gadm/gadm4.1/shp/gadm41_THA_shp.zip",NA
"matched","ChIJhdKwjac62jARWD-k6KzmOR4","3326560622",22.795816586452496,"Café Woodhouse at S*Trips",18.7809405,99.0002244,3,2,"https://geodata.ucdavis.edu/gadm/gadm4.1/shp/gadm41_THA_shp.zip",NA
"matched","ChIJXQqU7huN2TARzVgmO6vnXzM","3329625277",23.591911191068696,"ปางไฮคอฟฟี่ช็อป Panghai coffee shop",18.921977,99.3294062,4.4,364,"https://geodata.ucdavis.edu/gadm/gadm4.1/shp/gadm41_THA_shp.zip",NA
"matched","ChIJtzAhwWs72jARkN3s2XtZT7E","3340956813",16.029510858696803,"My Secret Cafe",18.8562225,98.9869203,4.4,32,"https://geodata.ucdavis.edu/gadm/gadm4.1/shp/gadm41_THA_shp.zip","Tu-Su 10:30-17:00"
"matched","ChIJRSTdDFUj2jARXvQsb5p29wM","3340982844",7.63975612518899,"Café Amazon",18.8755508,99.0147355,4.6,116,"https://geodata.ucdavis.edu/gadm/gadm4.1/shp/gadm41_THA_shp.zip",NA
"matched","ChIJXcGThDo82jAR6dUakFPqjKg","3341012238",9.15399048624377,"Chill Chill Cup",18.9124254,98.9377168,4.6,8,"https://geodata.ucdavis.edu/gadm/gadm4.1/shp/gadm41_THA_shp.zip",NA
"matched","ChIJJ__HuGQw2jAREu9d7xaiCBQ","3347631779",12.223095203697568,"Coffee World - Central Chiangmai (Common Area)",18.7694951,98.9754133,4.1,61,"https://geodata.ucdavis.edu/gadm/gadm4.1/shp/gadm41_THA_shp.zip","Mo-Fr 11:00-2:00; Sa,Su 10:00-21:00"
"matched","ChIJM80_8F4w2jARgnfpHDFEfig","3347633205",3.2664575078500766,"Starbucks",18.7697824,98.975176,4.3,416,"www.starbuckscard.in.th","Mo-Fr 11:00-21:00; Sa,Su 10:00-21:00"
"matched","ChIJDWiJaCE_2jARBR-6DyupiHI","3355620168",4.020171092714545,"Wawee Coffee",18.8998343,98.8756032,4.2,13,"https://geodata.ucdavis.edu/gadm/gadm4.1/shp/gadm41_THA_shp.zip",NA
"matched","ChIJJ3futa462jARRveEt-Gqpm4","3395080851",1.1272818343733657,"Khagee",18.7861733,99.0052306,4.5,931,"https://geodata.ucdavis.edu/gadm/gadm4.1/shp/gadm41_THA_shp.zip",NA
"matched","ChIJ_bLQnd-T2jARsDNJaKDH3w0","3397737973",31.374001002534815,"Porwa Pizza & drip coffee",19.0715391,98.3033964,4.9,71,"https://geodata.ucdavis.edu/gadm/gadm4.1/shp/gadm41_THA_shp.zip",NA
"matched","ChIJ4Vkg_mI62jARt2iooxOh7XE","3400287976",19.46459935590201,"Subway - Sandwich Restaurants Burger ร้านอาหาร นิมมาน",18.7963814,98.9659491,4.3,423,"https://geodata.ucdavis.edu/gadm/gadm4.1/shp/gadm41_THA_shp.zip",NA
"matched","ChIJdT6-8How2jARbv0nRcoZQ2Q","3401322096",8.554132454150468,"The Volcano II",18.772353,98.9782543,4.3,345,"https://geodata.ucdavis.edu/gadm/gadm4.1/shp/gadm41_THA_shp.zip",NA
"matched","ChIJIV2eFSEw2jARAffUmlJm8x0","3412153328",17.428592638133594,"สภากาแฟ89",18.7521719,99.0090675,4.4,96,"https://geodata.ucdavis.edu/gadm/gadm4.1/shp/gadm41_THA_shp.zip",NA
"matched","ChIJ_86vA94v2jARRAB8VAGeXKY","3412153330",11.847837408817213,"Hug Coffee Shop",18.7555804,99.0180908,4.4,32,"https://geodata.ucdavis.edu/gadm/gadm4.1/shp/gadm41_THA_shp.zip",NA
"matched","ChIJkw4Ca4g62jAR7ag3ow6NtqY","3421207456",25.814086411197472,"Cafe17",18.7948881,98.9703231,3,1,"https://geodata.ucdavis.edu/gadm/gadm4.1/shp/gadm41_THA_shp.zip",NA
"matched","ChIJ-cbsW4g62jARMRjlbu4QH1I","3421254993",23.900582458509543,"Mingmitr Coffee",18.7939558,98.9706782,4.4,319,"https://geodata.ucdavis.edu/gadm/gadm4.1/shp/gadm41_THA_shp.zip",NA
"matched","ChIJN-OJfmI62jARqY4XvAKSYo8","3421308392",22.698725616754082,"RK Cafe x Looper&Co.",18.7967851,98.9683367,4.3,19,"https://geodata.ucdavis.edu/gadm/gadm4.1/shp/gadm41_THA_shp.zip",NA
"matched","ChIJYTQSCGI62jARvTTnbHS2sX0","3426400071",7.066270276840254,"Manifreshto Cafe & Restaurant",18.798603,98.9686445,4.5,1167,"https://geodata.ucdavis.edu/gadm/gadm4.1/shp/gadm41_THA_shp.zip",NA
"matched","ChIJey3kv2E62jAR3VrFAB7vPhg","3426430299",13.018392411593004,"PLAYWORKS SHOP&CAFE",18.8013159,98.96725750000002,4.3,382,"https://geodata.ucdavis.edu/gadm/gadm4.1/shp/gadm41_THA_shp.zip",NA
"matched","ChIJcc6TUEYu2jARE39E1od2hN4","3426798762",5.205574031144464,"บ้านกาแฟ",18.7172091,99.0383842,4.3,45,"https://geodata.ucdavis.edu/gadm/gadm4.1/shp/gadm41_THA_shp.zip",NA
"matched","ChIJgxiku_2Z2zARvUZJax7PCjQ","3442281015",35.357102005892656,"ซุ้ม​กาแฟ​ฮอด​ฮิต",18.1973607,98.6120056,NA,NA,"https://geodata.ucdavis.edu/gadm/gadm4.1/shp/gadm41_THA_shp.zip",NA
"matched","ChIJNe4bWAAj2jARaXgMrYTlWrs","3453468996",13.762062747385073,"นัดพบ เพลย์",18.9147325,99.0830282,5,2,"https://geodata.ucdavis.edu/gadm/gadm4.1/shp/gadm41_THA_shp.zip",NA
"matched","ChIJ_____-852jAROT66xa178ys","3456825435",27.042225866650867,"Eurana Cafe & Restaurant",18.7920411,98.9922688,4.6,197,"https://geodata.ucdavis.edu/gadm/gadm4.1/shp/gadm41_THA_shp.zip",NA
"matched","ChIJ3XLCGXIl2jARK3vBDz4Ji9k","3461566102",7.415669307995494,"Chiang Mai Rice Life",18.7961743,99.0475538,4.5,426,"https://geodata.ucdavis.edu/gadm/gadm4.1/shp/gadm41_THA_shp.zip",NA
"matched","ChIJPQZzNXg62jAR08hG4UicLWQ","3498459991",1.948289960781401,"Café Amazon",18.7846357,98.959198,4.3,75,"https://geodata.ucdavis.edu/gadm/gadm4.1/shp/gadm41_THA_shp.zip",NA
"matched","ChIJHSWjwWwt1zARpj0HyRDeYk8","3509493642",12.653785448830009,"Ninecool Coffee & Cake",19.9173436,99.2107348,4.5,181,"https://geodata.ucdavis.edu/gadm/gadm4.1/shp/gadm41_THA_shp.zip","Mo-Su 08:00-18:00"
"matched","ChIJs29YAAUx2jAR6Fp68kOddx8","3650359131",6.19434448603326,"Inthada restaurant and cafe by coffee de candle",18.7261046,98.9601826,4.2,345,"https://geodata.ucdavis.edu/gadm/gadm4.1/shp/gadm41_THA_shp.zip",NA
"matched","ChIJp6ali_Ev2jARPWN1COy61jY","3699353873",3.3412545844425536,"Café Amazon",18.7694002,99.0298038,4,226,"https://geodata.ucdavis.edu/gadm/gadm4.1/shp/gadm41_THA_shp.zip",NA
"matched","ChIJv5hvEOwv2jAR3oiOGSDcd9Y","3699435615",6.343812978897366,"Ramino Coffee Club, ร้านกาแฟ รามิโน่คอฟฟี่คลับ",18.7620918,99.0301825,4.5,142,"https://geodata.ucdavis.edu/gadm/gadm4.1/shp/gadm41_THA_shp.zip",NA
"matched","ChIJZfwVSQBV1zARdim5L4mq6gY","3701046289",19.929942820404197,"Hop Chafe สาขาหน้าโรงเรียนพร้าว",19.3399124,99.1949527,NA,NA,"https://geodata.ucdavis.edu/gadm/gadm4.1/shp/gadm41_THA_shp.zip",NA
"matched","ChIJ-2BytzYN2jARJnUV_dtRqc0","3790932533",6.499184228497816,"Maetang River view cafe and wine bar",19.1980335,98.8852846,4,2,"https://geodata.ucdavis.edu/gadm/gadm4.1/shp/gadm41_THA_shp.zip",NA
"matched","ChIJUwm0tBi32zARms7zyAFzXRs","3801722889",24.57848124490783,"De Aerng Boutique Hotel",18.4581873,98.7748452,4.3,143,"https://geodata.ucdavis.edu/gadm/gadm4.1/shp/gadm41_THA_shp.zip",NA
"matched","ChIJ27-JvPg12jARdgK1uaxYU_s","3832005201",29.74893995301482,"ร้านแกะดำฉำฉา",18.6550392,98.8650832,4.3,109,"https://geodata.ucdavis.edu/gadm/gadm4.1/shp/gadm41_THA_shp.zip",NA
"matched","ChIJE09bMuXx2TAROyTwmZ60XFg","3835193169",1.3039322870023662,"Bon Doi Coffee View",19.05736959999999,99.3581334,4.4,214,"https://geodata.ucdavis.edu/gadm/gadm4.1/shp/gadm41_THA_shp.zip",NA
"matched","ChIJS07NqTUh2jARjztbJCEY3yo","3851468855",24.390618023453406,"Baan Chiangroong",18.87140969999999,99.1257938,4.5,351,"https://geodata.ucdavis.edu/gadm/gadm4.1/shp/gadm41_THA_shp.zip",NA
"matched","ChIJ9735g9y10DARUd9i09RVLJU","3854066930",1.134063013398861,"Café Amazon",19.6879014,99.1485925,3.7,83,"https://geodata.ucdavis.edu/gadm/gadm4.1/shp/gadm41_THA_shp.zip",NA
"matched","ChIJSal2OP6Z2zARnva8xquPNYg","3880114766",12.718798804974691,"Café Amazon",18.193639,98.6071604,3.5,15,"https://geodata.ucdavis.edu/gadm/gadm4.1/shp/gadm41_THA_shp.zip",NA
"matched","ChIJUcG3FGm22zARMr8ykXHb1sg","3880114855",17.460250699758063,"Tatonyon Coffee&Cafe'",18.4876046,98.8073874,4.4,384,"https://geodata.ucdavis.edu/gadm/gadm4.1/shp/gadm41_THA_shp.zip",NA
"matched","ChIJu7JbB0eC3DAReZOKXcvlvi4","3883288647",32.93687517896324,"กาแฟอมก๋อย",17.8356875,98.3721875,4.4,131,"https://geodata.ucdavis.edu/gadm/gadm4.1/shp/gadm41_THA_shp.zip",NA
"matched","ChIJ3wuFTIs62jARtDslNjMQ2as","3897763600",33.28677910933311,"Huangfulong",18.8050715,98.9729118,4.6,32,"https://geodata.ucdavis.edu/gadm/gadm4.1/shp/gadm41_THA_shp.zip",NA
"matched","ChIJRwD875lA2jARWZa-DzoQLEw","3912487220",17.090978807264175,"Pong Yeang Berry-Windyhill",18.9116358,98.8259911,4.5,312,"https://geodata.ucdavis.edu/gadm/gadm4.1/shp/gadm41_THA_shp.zip",NA
"matched","ChIJW3stTok62jARRbNgG4vLarI","3927203453",17.020767662691885,"Samudlanna",18.7980862,98.9736185,4.6,1000,"https://geodata.ucdavis.edu/gadm/gadm4.1/shp/gadm41_THA_shp.zip","Mo-Su 07:00-17:00"
"matched","ChIJGemYEK8N2jARs5GwiQxwxVc","3930110086",21.32465956562868,"Ying yui cafe",19.2002005,98.8878034,4.7,15,"https://geodata.ucdavis.edu/gadm/gadm4.1/shp/gadm41_THA_shp.zip",NA
"matched","ChIJKZiBBUgw2jARV0yEd9bwn_8","4049924460",37.76540532649951,"Kaffeine coffee คาเฟอีน",18.7448606,98.9902301,4.4,20,"https://geodata.ucdavis.edu/gadm/gadm4.1/shp/gadm41_THA_shp.zip",NA
"matched","ChIJkzFIFwAx2jARtDKnKZiK6TM","4052303895",18.80931031563631,"วังตาลคาเฟ่ (Wangtan Cafe)",18.732797,98.974372,4.8,46,"https://www.facebook.com/profile.php?id=61555823392603","Mo-Su 8:30-20:00"
"matched","ChIJy4zuVG5S2jARpO99ptfqFN4","4081186033",7.754124348397188,"The Maewin Coffee",18.67057939999999,98.6464103,4.6,155,"https://geodata.ucdavis.edu/gadm/gadm4.1/shp/gadm41_THA_shp.zip",NA
"matched","ChIJi-WS-Wqs2zARWKPuS5v29wA","4099934306",41.962167933813674,"สตรอเบอร์รี่ สวนชาวดินอินทนนท์ กม.21",18.5431443,98.5919275,4.1,33,"https://geodata.ucdavis.edu/gadm/gadm4.1/shp/gadm41_THA_shp.zip",NA
"matched","ChIJsRi0t9ul0DARwREChQx5FOo","4203872790",3.162809945102447,"Ban Por Piang Chiang Dao",19.4484926,98.9830831,4.6,193,"https://geodata.ucdavis.edu/gadm/gadm4.1/shp/gadm41_THA_shp.zip",NA
"matched","ChIJmaBSEywp1zARSO4_7FstU5M","4206129189",8.362629072994975,"95 Coffee",20.0600676,99.3612018,4.5,31,"https://geodata.ucdavis.edu/gadm/gadm4.1/shp/gadm41_THA_shp.zip","Mo-Su 08:00-17:00"
"matched","ChIJ898yEWA62jARgaE_MHll7sA","4265515989",3.7672974397952115,"Cottontree",18.8042646,98.9678921,4.6,453,"https://geodata.ucdavis.edu/gadm/gadm4.1/shp/gadm41_THA_shp.zip","We-Mo 08:00-16:00"
"matched","ChIJD1IUsWE62jARq75oRHCnEq8","4333425791",1.3610628689624786,"Tiger Ted Cafe",18.802287,98.9664678,4.6,304,"https://geodata.ucdavis.edu/gadm/gadm4.1/shp/gadm41_THA_shp.zip",NA
"matched","ChIJl2NXwDkX2jARIEyOJ5b014M","4362261291",10.195415733429424,"Mint cafe",19.0638902,98.9393276,5,1,"https://geodata.ucdavis.edu/gadm/gadm4.1/shp/gadm41_THA_shp.zip","Mo-Su 06:00-20:00"
"matched","ChIJ58u6p-Uv2jAROXC_WsrwwAg","4427268751",11.926631392625522,"Blue Cafe and Apartment service",18.7989249,99.0245161,4.2,250,"https://m.facebook.com/Blue-Cafe-Chiang-mai-933362510162726/","Mo-Fr 08:00-20:00; Sa-Su 08:00-18:00"
"matched","ChIJAzODB2I62jARfrOZvzaVTwM","4438545289",7.695290352875669,"Roast8ry Coffee Lab",18.7988945,98.9686558,4.4,2630,"https://www.roast8ry.com/",NA
"matched","ChIJVQiXHGM62jAROg5x8rR-oWg","4476976180",18.377356524067057,"Cafe Kantary, Chiang Mai",18.795897,98.9656126,4.3,209,"https://geodata.ucdavis.edu/gadm/gadm4.1/shp/gadm41_THA_shp.zip",NA
"matched","ChIJf1HR0ZmL2TARZUNC1srU8rA","4488066283",9.291074259990676,"Bee & Rose Cafe",18.8978061,99.25975900000002,4.4,284,"https://geodata.ucdavis.edu/gadm/gadm4.1/shp/gadm41_THA_shp.zip","Sa-Su ; weekday off"
"matched","ChIJ_wo6LgU62jARwu0xzeh-Ri4","4496869589",18.094117488054074,"Hug Him Doi Thai Coffee",18.7948315,98.9334438,4.4,67,"https://geodata.ucdavis.edu/gadm/gadm4.1/shp/gadm41_THA_shp.zip",NA
"matched","ChIJ8WK-jK062jAR_BfMU6-YWdE","4504644390",48.19250467715008,"mosaic coffee",18.7957605,99.0082091,4.4,83,"https://geodata.ucdavis.edu/gadm/gadm4.1/shp/gadm41_THA_shp.zip","Mo-Sa 07:00-19:00; Su 08:00-19:00"
"matched","ChIJm7OcVVEw2jARh9XC5Z0dMsY","4506585926",16.009124385889915,"Good Vibes Cafe",18.740443,98.974414,4.6,450,"https://geodata.ucdavis.edu/gadm/gadm4.1/shp/gadm41_THA_shp.zip",NA
"matched","ChIJ-WX7MXy62zARdq99rixeprM","4513838300",32.59174171486073,"Inthanin Coffee and Restaurant",18.431068,98.6838358,5,1,"https://geodata.ucdavis.edu/gadm/gadm4.1/shp/gadm41_THA_shp.zip",NA
"matched","ChIJh0AT0dRv2zARVK2j8yZ2Hk0","4513838582",4.2046211021958735,"ใจกลางดอย",18.1510025,98.2451246,4.9,16,"https://geodata.ucdavis.edu/gadm/gadm4.1/shp/gadm41_THA_shp.zip",NA
"matched","ChIJSfGI-Y862jARyOLnaqsqD4c","4514610993",8.324915978355492,"Mix Kaffee",18.7909113,98.9785009,4.8,227,"https://geodata.ucdavis.edu/gadm/gadm4.1/shp/gadm41_THA_shp.zip","Mo-Su 10:00-15:00"
"matched","ChIJV8ZWcwA72jARarXlaMMgQkk","4522532754",9.598432655839758,"Gedhawa coffee สาขา ร.พ.นครพิงค์",18.8522297,98.9670673,NA,NA,"https://geodata.ucdavis.edu/gadm/gadm4.1/shp/gadm41_THA_shp.zip",NA
"matched","ChIJZ0Jd3Jc62jAR9JBSq2IHRss","4552503190",23.047430858084528,"Cup of Hobby by เพลินจิต",18.7943477,98.9902935,4.4,5,"https://geodata.ucdavis.edu/gadm/gadm4.1/shp/gadm41_THA_shp.zip",NA
"matched","ChIJJbOZpA4F2jARmEQRkeDT3vM","4553735161",31.406578598088167,"Mind Coffee",19.1738833,99.0300909,4.5,2,"https://geodata.ucdavis.edu/gadm/gadm4.1/shp/gadm41_THA_shp.zip",NA
"matched","ChIJN9kSX5Ew2jAR9mn7yVwVPo0","4555359051",4.443066436517543,"Asama Coffee & Roastery",18.7650239,98.9531644,4.5,867,"https://geodata.ucdavis.edu/gadm/gadm4.1/shp/gadm41_THA_shp.zip","Mo-Su 08:00-17:00"
"matched","ChIJN713HDMp2jAR8K4ikDOGCLg","4579341189",10.935987355871825,"บ้านจ๊างกาแฟ Elephants coffee house",18.7223974,99.1164422,4.7,18,"https://geodata.ucdavis.edu/gadm/gadm4.1/shp/gadm41_THA_shp.zip",NA
"matched","ChIJk9VMJ-SZ0DARIjPuRopLNBQ","4582334489",21.7896020454359,"Tiger Hill Coffee",19.5177704,98.7569878,4.8,6,"https://geodata.ucdavis.edu/gadm/gadm4.1/shp/gadm41_THA_shp.zip",NA
"matched","ChIJ83kMZcKx2zARVSysdmSbJ7w","4591854136",18.992615029990755,"ร้านกาแฟ มาลองคอฟฟี่",18.4514964,98.7202634,5,2,"https://geodata.ucdavis.edu/gadm/gadm4.1/shp/gadm41_THA_shp.zip",NA
"matched","ChIJhZLPLWI62jARkfYqJJsDaFA","4596223590",43.60763008383237,"The Larder Cafe & Bar",18.79906799999999,98.966128,3.2,1366,"https://geodata.ucdavis.edu/gadm/gadm4.1/shp/gadm41_THA_shp.zip","Mo-Su 09:00-21:00"
"matched","ChIJrdwL2Qw52jARkSK_xd9r2r8","4628433289",16.11053617640123,"Seng Coffee & Beverage",18.8407739,98.9016354,4.9,22,"https://geodata.ucdavis.edu/gadm/gadm4.1/shp/gadm41_THA_shp.zip",NA
"matched","ChIJ054rIhMw2jARk9CMb3c2YU4","4691707613",12.067463116404173,"GreenCup by Boonsom Farm",18.7656177,98.991966,4.5,42,"https://geodata.ucdavis.edu/gadm/gadm4.1/shp/gadm41_THA_shp.zip",NA
"matched","ChIJLZCLKRua2zAR_HNfwpVCBiI","4694513489",21.198288247492737,"กึดเติงกาแฟ (Kud-Teing Kafe’)",18.1293246,98.6485827,4.6,16,"https://geodata.ucdavis.edu/gadm/gadm4.1/shp/gadm41_THA_shp.zip",NA
"matched","ChIJiwTJD8Uo2jARCNQzozQXHCs","4694698200",7.378904573558777,"More Fresh Coffee & Salads",18.730006,99.1095554,4.3,55,"https://geodata.ucdavis.edu/gadm/gadm4.1/shp/gadm41_THA_shp.zip",NA
"matched","ChIJQ4s_SjFE2jARg1LbfRrAGXE","4719575095",19.03819272485582,"บ้านกาแฟสะเมิง",18.8474943,98.7318574,4.5,13,"https://geodata.ucdavis.edu/gadm/gadm4.1/shp/gadm41_THA_shp.zip",NA
"matched","ChIJudRwVwAF2zARtlgWWpZl4WE","4753990622",4.970082745582682,"Payak Coffee",18.49437709999999,98.3748627,4.9,13,"https://geodata.ucdavis.edu/gadm/gadm4.1/shp/gadm41_THA_shp.zip","Mo-Su 09:00-17:00"
"matched","ChIJZU7Jv3AR2jARJ5mRKwv5NOI","4786026322",2.758319106884993,"Moca Coffee",19.1057116,98.9367905,4.4,208,"https://geodata.ucdavis.edu/gadm/gadm4.1/shp/gadm41_THA_shp.zip","Mo-Su 08:00-18:00"
"matched","ChIJiZGZkC1V1zARypAA_WNkeTE","4851164530",9.31115581176111,"ดอยม่อนล้าน AKHA Coffee",19.3682951,99.2094961,4.8,39,"https://geodata.ucdavis.edu/gadm/gadm4.1/shp/gadm41_THA_shp.zip","Mo-Su 07:00-21:00"
"matched","ChIJ3dj0YwRN2jARoIZD6GqzVTo","4867436723",19.55696018407758,"Huan Hom Rada",18.644891,98.6975544,4.4,180,"https://geodata.ucdavis.edu/gadm/gadm4.1/shp/gadm41_THA_shp.zip","Mo-Su 08:00-19:00"
"matched","ChIJQ2skFksn2jAR7uG2NUx7pTo","4871575721",8.15434224683023,"8 o'clock coffee",18.864652800000002,99.171451,4.4,139,"https://geodata.ucdavis.edu/gadm/gadm4.1/shp/gadm41_THA_shp.zip","Mo-Su 08:00-18:00"
"matched","ChIJ5W5cjqU62jARX0f1R_keQf4","4875218548",3.6440464712038234,"De Nawarat Chiangmai Boutique Apartment",18.7880707,99.0014079,3.9,38,"https://geodata.ucdavis.edu/gadm/gadm4.1/shp/gadm41_THA_shp.zip",NA
"matched","ChIJSdm-tX062jARTAqXQHQObHI","4915032523",12.861175203303233,"RabBrits Café",18.7894247,98.9662142,4,1,"https://geodata.ucdavis.edu/gadm/gadm4.1/shp/gadm41_THA_shp.zip","Su-Tu, Th-Fr 12:00-17:00"
"matched","ChIJg-5hXbYx2jAR7yvNil_Yzoo","4963189664",18.06217231987412,"Eightpercentloading",18.7338303,98.9570598,4.2,5,"https://bonbon.cafe","Mo-Sa 08:30-18:00"
"matched","ChIJ2czzHrc62jAR1c3x8aQBSzk","5023530126",1.0796482221531223,"Natwat Home Café",18.7995,99.0042994,4.6,520,"https://geodata.ucdavis.edu/gadm/gadm4.1/shp/gadm41_THA_shp.zip","Tu-Su 08:00-17:00"
"matched","ChIJr7pTzvtz2jARfcPE4Wipe5g","5187642722",33.76680420238526,"อ้อมกอดเขา แคมป์ปิ้ง",19.2254063,98.8151548,4.5,2,"https://geodata.ucdavis.edu/gadm/gadm4.1/shp/gadm41_THA_shp.zip",NA
"matched","ChIJUTG_o2Q62jARhwAExQdn8S4","5202076922",1.520000972514268,"Taste Cafe",18.7951532,98.9630932,4.5,652,"https://geodata.ucdavis.edu/gadm/gadm4.1/shp/gadm41_THA_shp.zip","Mo-Su 08:00-18:00"
"matched","ChIJYaq_1VAm2jARDigg7R0gxEI","5203405621",18.089591141487347,"Painter Art Coffee",18.8145032,99.1371213,4.4,39,"https://geodata.ucdavis.edu/gadm/gadm4.1/shp/gadm41_THA_shp.zip",NA
"matched","ChIJvcOQUuEv2jARY4XHQZRhccQ","5207438911",25.37652667812766,"ฮิลล์คอฟฟ์ Hillkoff Learning Space",18.7609645,99.0181168,4.8,280,"https://geodata.ucdavis.edu/gadm/gadm4.1/shp/gadm41_THA_shp.zip","Mo-Su 08:00-17:30"
"matched","ChIJyZDYmygj2jARC_Q0x6Tee5I","5245145221",23.031114193591076,"ฟาร์มฮัก แม่โจ้ เชียงใหม่",18.9162056,99.0233006,4,39,"https://geodata.ucdavis.edu/gadm/gadm4.1/shp/gadm41_THA_shp.zip",NA
"matched","ChIJgVdXZWot1zARvoq40CE8e_g","5269068736",4.043241993379326,"Gafre Café",19.9209032,99.2127676,4.5,443,"https://geodata.ucdavis.edu/gadm/gadm4.1/shp/gadm41_THA_shp.zip",NA
"matched","ChIJ5RLXaPdE2jARs7gj9YuEs6o","5272840682",3.72355098360429,"Cafe De Mountain",18.85438,98.700275,4.6,114,"https://geodata.ucdavis.edu/gadm/gadm4.1/shp/gadm41_THA_shp.zip",NA
"matched","ChIJ4XmeC9am0DAREZeULG-BHRA","5273131423",13.786636288880048,"Chai cafe",19.3976078,98.9302215,4.8,295,"https://geodata.ucdavis.edu/gadm/gadm4.1/shp/gadm41_THA_shp.zip",NA
"matched","ChIJxyKjeQwv2jAR6xLcigbwS0A","5277373426",4.052406435149133,"Cocoa and steakhouse",18.7204807,99.0415259,5,1,"https://geodata.ucdavis.edu/gadm/gadm4.1/shp/gadm41_THA_shp.zip",NA
"matched","ChIJ15iAt9su2jARjbA1FKuH7A8","5307634590",41.07248697542679,"Smile House Coffee",18.7215067,99.0867502,4.9,7,"https://geodata.ucdavis.edu/gadm/gadm4.1/shp/gadm41_THA_shp.zip",NA
"matched","ChIJ40I3AdIp2jAR6Q9cjH6UYJU","5314598744",10.555441630393876,"Need Café",18.7189747,99.1789867,4.4,572,"https://geodata.ucdavis.edu/gadm/gadm4.1/shp/gadm41_THA_shp.zip",NA
"matched","ChIJSeFEkVk72jARXC_zVDtCi68","5327328688",2.311049619134996,"DOPE​ CAFE​'IN",18.9108413,98.9216124,4.8,25,"https://geodata.ucdavis.edu/gadm/gadm4.1/shp/gadm41_THA_shp.zip",NA
"matched","ChIJ8byAB0Ak2jARX2CeFdJ4QzQ","5338188740",2.106439913593745,"Café Amazon",18.8462221,99.0792199,4.3,28,"https://geodata.ucdavis.edu/gadm/gadm4.1/shp/gadm41_THA_shp.zip",NA
"matched","ChIJnwIN3ce70DAR2ApNw7Pc8oM","5362750627",17.77640163001907,"AQUILA COFFEE",19.6094789,98.9573718,4.3,10,"https://geodata.ucdavis.edu/gadm/gadm4.1/shp/gadm41_THA_shp.zip",NA
"matched","ChIJP08z7zlL2jARo0NkSBC1_QQ","5372322922",25.34751367007464,"Maiyom coffee",18.6648,98.835748,4.6,9,"https://geodata.ucdavis.edu/gadm/gadm4.1/shp/gadm41_THA_shp.zip",NA
"matched","ChIJHVbTaAAJ2jARbPdq5VP2zr8","5385230108",13.567175605822202,"ร้านสภากาแฟ",19.3414772,98.9600319,5,1,"https://geodata.ucdavis.edu/gadm/gadm4.1/shp/gadm41_THA_shp.zip","08:00-17:00"
"matched","ChIJUZpXolol2jAR7KUNa0bWwbg","5405123023",20.843385987458763,"Black Canyon รพ.กรุงเทพ เชียงใหม่",18.7891522,99.025565,4.3,129,"https://geodata.ucdavis.edu/gadm/gadm4.1/shp/gadm41_THA_shp.zip",NA
"matched","ChIJ21WXx_w12jARxmq5XfdaydU","5430635021",17.74390823783498,"บ้านนก Coffee",18.6343342,98.854722,4.5,29,"https://geodata.ucdavis.edu/gadm/gadm4.1/shp/gadm41_THA_shp.zip",NA
"matched","ChIJPQzUu0I62jARLM_EUxxisnQ","5436937744",21.749130333815298,"T-TEN Cafe & Restaurant",18.80712189999999,98.9567459,4.5,162,"https://geodata.ucdavis.edu/gadm/gadm4.1/shp/gadm41_THA_shp.zip",NA
"matched","ChIJISORcLIp2jARHIA9nH6IXBs","5444250499",13.664981553534966,"Rock and Loft Cafe & Resort",18.7203676,99.1533072,4.1,323,"https://geodata.ucdavis.edu/gadm/gadm4.1/shp/gadm41_THA_shp.zip","08:00-22:00"
"matched","ChIJ-asoW1vK2zARk7dyC3dW6f4","5456990122",7.43140485429056,"TRUCK COFFEE",18.5384798,98.8643863,4.4,90,"https://geodata.ucdavis.edu/gadm/gadm4.1/shp/gadm41_THA_shp.zip",NA
"matched","ChIJuS0qhWEl2jARnUTAvKa86DY","5561163722",0.22853466950804727,"Lamdee Coffee",18.7808262,99.0394669,4.4,90,"https://www.facebook.com/coffeelamdeecm","Mo-Su 08:00-17:30"
"matched","ChIJK-SgPAQ32jAR22jqOKk6euY","5583840796",13.100746297196334,"The Horse Barn Cafe",18.7465981,98.8863666,4.4,34,"https://geodata.ucdavis.edu/gadm/gadm4.1/shp/gadm41_THA_shp.zip",NA
"matched","ChIJhV2hNNAh2jARGpKYYwDN6hw","5603454796",11.295977017266665,"กาแฟสะพานแขวน @เขื่อนแม่กวง",18.9513678,99.1372435,4,81,"https://geodata.ucdavis.edu/gadm/gadm4.1/shp/gadm41_THA_shp.zip",NA
"matched","ChIJa7sAg6t12zARtk_zY7OenyU","5824770353",20.02396344291278,"Chertam Coffee (กาแฟสดออบหลวง)",18.2225575,98.4820191,4.6,5,"https://geodata.ucdavis.edu/gadm/gadm4.1/shp/gadm41_THA_shp.zip",NA
"matched","ChIJO3cH6zWk0DARoVB6UvLBEbk","5867147588",12.110100544909614,"เชียงดาวคอฟฟี่ แอนด์ ที (Chiang Dao Coffee&Tea)",19.4641314,98.9643618,4.5,114,"https://www.chaodoicoffee.com/",NA
"matched","ChIJZQsNzqG62zARZF7PCv-kKI4","5925629983",26.71060313943512,"Young Folk Bean & Brew",18.4151452,98.681412,4.6,313,"https://geodata.ucdavis.edu/gadm/gadm4.1/shp/gadm41_THA_shp.zip","Mo-Su 07:30-17:30"
"matched","ChIJdQvIxYk62jARrz-yRMao2h4","5933370530",4.759255101320939,"The Barisotel by The Baristro",18.7976753,98.9679288,4.7,676,"https://geodata.ucdavis.edu/gadm/gadm4.1/shp/gadm41_THA_shp.zip",NA
"matched","ChIJS7T7jHs62jARuTi3aStwuII","5933370532",34.46903425864821,"Mainichi",18.7896926,98.9627033,4.6,92,"https://geodata.ucdavis.edu/gadm/gadm4.1/shp/gadm41_THA_shp.zip",NA
"matched","ChIJDREvr6462jARu_3XwhiObgs","5950919672",21.85584593091232,"Johoney Ice Cream",18.7891743,99.0108678,4.7,422,"https://geodata.ucdavis.edu/gadm/gadm4.1/shp/gadm41_THA_shp.zip",NA
"matched","ChIJAbd7UOSB2TARmbgM2KrTC4Q","6021255324",4.038372671826258,"Maetha Organic Cafe",18.5873564,99.2641512,4.5,93,"https://geodata.ucdavis.edu/gadm/gadm4.1/shp/gadm41_THA_shp.zip","Mo-Su 10:00-17:00"
"matched","ChIJyTQ2-oOT2jARm-FvguI6zQk","6038344685",7.23899819167051,"Chan Coffee",19.0728338,98.3037113,5,41,"https://geodata.ucdavis.edu/gadm/gadm4.1/shp/gadm41_THA_shp.zip",NA
"matched","ChIJKbxekPVE2jARnY9S7FOzArc","6038521585",32.63021889589943,"Issara coffee samoeng",18.8613215,98.7033092,4.3,105,"https://geodata.ucdavis.edu/gadm/gadm4.1/shp/gadm41_THA_shp.zip",NA
"matched","ChIJ5YGrwZQ-2jARd0G9gvuVftg","6062515601",3.12634322773201,"Between Cafe. บีทวีนคาเฟ่",18.9074375,98.9038125,4.5,188,"https://geodata.ucdavis.edu/gadm/gadm4.1/shp/gadm41_THA_shp.zip",NA
"matched","ChIJvVE8GyA_2jARB8kuQKR-G3c","6062541948",41.36241402817104,"VAN'S COFFEE",18.9194213,98.9144437,4.6,37,"https://geodata.ucdavis.edu/gadm/gadm4.1/shp/gadm41_THA_shp.zip",NA
"matched","ChIJrccjlKg62jARzD3bSWaGM3U","6163744786",9.88127876631732,"Iron32 Hotel Bar and Bistro",18.7843524,99.0029055,4.5,79,"https://geodata.ucdavis.edu/gadm/gadm4.1/shp/gadm41_THA_shp.zip",NA
"matched","ChIJvVHmsbAL2jARXix_x0TkA7c","6183630217",5.524422001494025,"Nasheh coffee barn",19.2585856,98.9227474,5,2,"https://geodata.ucdavis.edu/gadm/gadm4.1/shp/gadm41_THA_shp.zip",NA
"matched","ChIJI54I_G5N2jARS7W-STft6u8","6194386786",29.889409126510618,"มา เมืองวิน",18.6615267,98.6612676,4.9,47,"https://geodata.ucdavis.edu/gadm/gadm4.1/shp/gadm41_THA_shp.zip",NA
"matched","ChIJkx0_6pgT2jAR8KhU3Sa4v5w","6197390785",3.059961934758752,"แชมป์กาแฟ น้ำค้าง",19.0902375,98.8873697,4.5,11,"https://geodata.ucdavis.edu/gadm/gadm4.1/shp/gadm41_THA_shp.zip",NA
"matched","ChIJM1LSw7M52jARrIDFBy_KcUU","6198545886",4.430025233405978,"Cafe Leng Doi Pui",18.817005,98.884931,4.8,109,"https://geodata.ucdavis.edu/gadm/gadm4.1/shp/gadm41_THA_shp.zip",NA
"matched","ChIJCSlYb3Y62jARDZxYBCdjZLo","6203233287",26.364583539334788,"รื่นอารมย์ Ruen-A-Rom",18.7848421,98.9531884,4.7,34,"https://m.facebook.com/RuenARomchiangmai?ref=br_rs","Tu-Su 09:30-17:00"
"matched","ChIJcUywx0KN2jARTwAZV1lqfWs","6207335685",0.730401110398825,"ซุ้มกาแฟริมจันทร์",19.0794149,98.3349931,5,4,"https://geodata.ucdavis.edu/gadm/gadm4.1/shp/gadm41_THA_shp.zip","Mo-Su 09:00-18:00"
"matched","ChIJwV8-zs0t2jARlCv8B4S0HiE","6213176284",4.259490413301291,"Café Amazon คาเฟ่ อเมซอน ปตท.พรีเมี่ยมสารภี",18.6691788,99.0523635,3.9,47,"https://geodata.ucdavis.edu/gadm/gadm4.1/shp/gadm41_THA_shp.zip",NA
"matched","ChIJK24p2pzj2jARoLCXh9oVWDQ","6231644386",21.22874265076677,"The Hill Tribe Coffee",18.7076324,98.2619887,4.1,29,"https://geodata.ucdavis.edu/gadm/gadm4.1/shp/gadm41_THA_shp.zip",NA
"matched","ChIJ_____-852jAR_45KSONU5Bo","6265198592",19.70825089950742,"C.U. CORNER Bar and Cafe",18.7830365,98.9915995,4.6,88,"https://geodata.ucdavis.edu/gadm/gadm4.1/shp/gadm41_THA_shp.zip",NA
"matched","ChIJ_aU2osEF2zARVNjc5clzVAI","6284137785",9.673152687687775,"บ้านร้านเค้ก by นมแจ่มคาเฟ่",18.5115195,98.3587781,5,5,"https://geodata.ucdavis.edu/gadm/gadm4.1/shp/gadm41_THA_shp.zip",NA
"matched","ChIJeYiQJmbN2zAR7xgNQCjzoHc","6290385385",26.568823382941083,"กาแฟหน้าวัด est.2018",18.5804839,98.95317,4.3,52,"https://geodata.ucdavis.edu/gadm/gadm4.1/shp/gadm41_THA_shp.zip",NA
"matched","ChIJBSjdl_ly2jARUjNJCaF6PaE","6312527153",11.860570681551016,"Doi Taeng Coffee",19.200855,98.7984362,4.6,165,"https://geodata.ucdavis.edu/gadm/gadm4.1/shp/gadm41_THA_shp.zip",NA
"matched","ChIJcdqP89Qx2jAR2pMlPcFUsHM","6326963011",37.39039276062377,"Doi Khom Cafe - กาแฟดอยกอม",18.7602722,98.9139268,5,29,"https://geodata.ucdavis.edu/gadm/gadm4.1/shp/gadm41_THA_shp.zip","9:30-19:30"
"matched","ChIJH9zXVg222zARfn7a0xRCZy8","6330472004",13.302065636812372,"พุทธรักษา แกลอรี คอฟฟี",18.4952617,98.8147417,4.7,53,"https://geodata.ucdavis.edu/gadm/gadm4.1/shp/gadm41_THA_shp.zip",NA
"matched","ChIJ7zJpywKx2zARi5sJXvs1riE","6330472006",13.200088527209848,"Senses Cafe & restaurant",18.4869332,98.6722032,4.5,46,"https://geodata.ucdavis.edu/gadm/gadm4.1/shp/gadm41_THA_shp.zip",NA
"matched","ChIJTw6ReZAM2zAR2DluacYqTCs","6330520461",47.584840343901014,"กาแฟสด @ริมแจ่ม",18.2768664,98.3849006,3.9,29,"https://geodata.ucdavis.edu/gadm/gadm4.1/shp/gadm41_THA_shp.zip",NA
"matched","ChIJfUpo_hmN2TARRk3qERzemvA","6371396585",15.93890039676819,"SHADE GROW COFFEE",18.9230541,99.3338959,4.8,24,"https://geodata.ucdavis.edu/gadm/gadm4.1/shp/gadm41_THA_shp.zip","24/7"
"matched","ChIJYXnaG0E12jAR51QoP9HdibQ","6379770685",5.502185740114108,"Khim's Kitchen",18.6345767,98.8561435,4.9,36,"https://geodata.ucdavis.edu/gadm/gadm4.1/shp/gadm41_THA_shp.zip",NA
"matched","ChIJF47cowY12jARTfnZ_yzN094","6379770785",7.539285214515197,"Thong Na Coffee",18.6462401,98.8791367,4.7,70,"https://geodata.ucdavis.edu/gadm/gadm4.1/shp/gadm41_THA_shp.zip","Tu, Th-Su 09:00-17:00; We 09:00-15:00"
"matched","ChIJF7-siGIp2jARXL6O46cCL8o","6388546807",5.953915924159578,"Green Moon Cafe & Bistro",18.7276554,99.1814117,4.8,300,"https://geodata.ucdavis.edu/gadm/gadm4.1/shp/gadm41_THA_shp.zip","Tu-Su 10:00-19:00"
"matched","ChIJv04GtUI62jARd-GvhC0Zp_Y","6388713888",19.147390826966554,"จวน กิ๋น จา : chuankincha",18.8073115,98.9575847,5,1,"https://geodata.ucdavis.edu/gadm/gadm4.1/shp/gadm41_THA_shp.zip",NA
"matched","ChIJ6bkCp8Gr2zAR15AjblMhCB4","6615843787",20.748514454663244,"Coffee hut",18.5385331,98.5474956,4.6,318,"https://geodata.ucdavis.edu/gadm/gadm4.1/shp/gadm41_THA_shp.zip",NA
"matched","ChIJlVHUa2qr2zARppTzxq7YoPA","6615843890",24.45633338521202,"Rimthan Coffee อนุรักษ์พันธุ์ปลา",18.541052,98.5465493,4.6,12,"https://geodata.ucdavis.edu/gadm/gadm4.1/shp/gadm41_THA_shp.zip",NA
"matched","ChIJIXJpFAAF2zARmAP0aMf66R0","6616699485",21.380615129219564,"Maechaem White house",18.5003772,98.3624481,5,1,"https://geodata.ucdavis.edu/gadm/gadm4.1/shp/gadm41_THA_shp.zip",NA
"matched","ChIJP4wjc6Lm2jARFzNk_5C8Udc","6618613102",22.028293857914367,"Tn coffee club",18.7453773,98.2143969,4.8,6,"https://geodata.ucdavis.edu/gadm/gadm4.1/shp/gadm41_THA_shp.zip",NA
"matched","ChIJS8M6BwAF2zARdPZb6NCmcu0","6618614597",27.204639879447782,"พยัคฆ์คอฟฟี่สาขาบ้านช่างเคิ่งบน",18.500966,98.361636,NA,NA,"https://geodata.ucdavis.edu/gadm/gadm4.1/shp/gadm41_THA_shp.zip",NA
"matched","ChIJzaxVQHSn0DARAWM5fVPxdPs","6647609510",7.835936592764234,"Makhampom Art Space Chiang Dao",19.3660007,98.9764898,4.6,111,"https://geodata.ucdavis.edu/gadm/gadm4.1/shp/gadm41_THA_shp.zip",NA
"matched","ChIJ06MuDOgw2jARz28Ffcf_Mu4","6787899013",3.1230183372239098,"Cafe de Kemrex",18.7479701,98.9476445,4.2,118,"https://geodata.ucdavis.edu/gadm/gadm4.1/shp/gadm41_THA_shp.zip",NA
"matched","ChIJU2aso2I62jARBtNgMlnRtKM","6788691585",12.537790568256703,"Charin Pie",18.7949181,98.9682072,4.5,1362,"https://geodata.ucdavis.edu/gadm/gadm4.1/shp/gadm41_THA_shp.zip","Mo off; Tu-Su 08:00-16:00"
"matched","ChIJoxwu5Sir2zARPcRfGfwa2uA","6796226397",11.788877421519866,"Pati non โรงคั่วกาแฟบ้านแม่กลางหลวง",18.5381409,98.5468446,4.6,168,"https://geodata.ucdavis.edu/gadm/gadm4.1/shp/gadm41_THA_shp.zip",NA
"matched","ChIJi3ffTQCn0DARIO3cCuMjnoU","6859889323",11.758582432748995,"Villa de View Cafe",19.406431,98.9253486,4.8,12,"https://geodata.ucdavis.edu/gadm/gadm4.1/shp/gadm41_THA_shp.zip",NA
"matched","ChIJ9Uxd2IKn0DARzJk7YhGqmyM","6862640196",15.683875287358445,"Chomdoi Coffee",19.441284,98.9662103,4,1,"https://geodata.ucdavis.edu/gadm/gadm4.1/shp/gadm41_THA_shp.zip",NA
"matched","ChIJZ-rQ0hKn0DARZ98WttE09x8","6875120271",17.648187282573716,"The Place with No Name",19.3667053,98.929181,5,19,"https://geodata.ucdavis.edu/gadm/gadm4.1/shp/gadm41_THA_shp.zip",NA
"matched","ChIJbw3CeMix2zARBhZr-OS-vu8","6881655355",12.736252570579584,"Pearly​ Tea​",18.4358685,98.68757920000002,5,4,"https://geodata.ucdavis.edu/gadm/gadm4.1/shp/gadm41_THA_shp.zip",NA
"matched","ChIJK-aki5fL2zARSUSN1HdcSuA","6881872755",3.669975483811053,"Café Amazon",18.5540991,98.848622,4.4,115,"https://geodata.ucdavis.edu/gadm/gadm4.1/shp/gadm41_THA_shp.zip",NA
"matched","ChIJ96hzhfan0DARd1sJAhnjSZo","6907787585",24.06629806091038,"Black Bears Cafe Chiangdao",19.3946984,98.9578116,4.1,251,"https://geodata.ucdavis.edu/gadm/gadm4.1/shp/gadm41_THA_shp.zip",NA
"matched","ChIJd1IAc4xu2jARGRK1wXtw1VA","6950957217",10.467763058509583,"Coffee In The Garden",19.1167359,98.7299794,4.5,90,"https://geodata.ucdavis.edu/gadm/gadm4.1/shp/gadm41_THA_shp.zip",NA
"matched","ChIJxfbAovkt1zARbmcVQjeriRg","7023601394",5.852900084915664,"Yippi Cha Kadnad Inter (Inter flea market)|ยิปปี้ ชา กาดนัดอินเตอร์",19.9218926,99.2190207,5,1,"https://geodata.ucdavis.edu/gadm/gadm4.1/shp/gadm41_THA_shp.zip",NA
"matched","ChIJuyZqhqgT2jARZj9N2LpZTv4","7103957585",7.009724758400861,"ฮักโฮม คาเฟ่ - Hug Home Cafe'",19.0923966,98.858259,4.9,163,"https://geodata.ucdavis.edu/gadm/gadm4.1/shp/gadm41_THA_shp.zip",NA
"matched","ChIJy3C7ZFEN2jARAxOVZejKu7c","7107398583",28.3318078366293,"Jungle De Cafe กื๊ดช้าง",19.219749,98.8464812,4.3,442,"https://geodata.ucdavis.edu/gadm/gadm4.1/shp/gadm41_THA_shp.zip","Mo-Su 08:30-17:30"
"matched","ChIJQSIoWuMU2jARujVMVjuksOs","7108411315",3.1206579497169686,"The Govinda Farm",19.027842,98.8691222,4.6,40,"https://geodata.ucdavis.edu/gadm/gadm4.1/shp/gadm41_THA_shp.zip",NA
"matched","ChIJD9e3c3E62jARoHHyKP045o8","7131241185",29.870209133679506,"Slope motion studio&cafe",18.7911763,98.9531191,4.6,77,"https://geodata.ucdavis.edu/gadm/gadm4.1/shp/gadm41_THA_shp.zip",NA
"matched","ChIJT9Mk2sUt2jARYVYM5u7ksKA","7142705125",13.65722306338172,"Midrak coffee * มิตรรัก คอฟฟี่*",18.6808152,99.0424802,5,6,"https://geodata.ucdavis.edu/gadm/gadm4.1/shp/gadm41_THA_shp.zip",NA
"matched","ChIJs3qyDQCr2zAR_tO4nTq0IGI","7157162914",26.76300976405678,"อบอุ่น Coffee อินทนนท์",18.54012389999999,98.5491148,NA,NA,"https://geodata.ucdavis.edu/gadm/gadm4.1/shp/gadm41_THA_shp.zip",NA
"matched","ChIJaWy1VcGr2zAR37iyBvcFur4","7157162916",32.007352734035244,"Mae Klang Luang Coffee House",18.5393038,98.5475608,4.6,119,"https://geodata.ucdavis.edu/gadm/gadm4.1/shp/gadm41_THA_shp.zip",NA
"matched","ChIJn-RsgQer2zARcovRzqnio2w","7157162918",46.964881348809435,"ร้านกาแฟ พาตินนท์ บ้านแม่กลางหลวง ดอยอินทนนท์",18.5400226,98.5472097,4.5,123,"https://geodata.ucdavis.edu/gadm/gadm4.1/shp/gadm41_THA_shp.zip",NA
"matched","ChIJrUiJTXbJ0DARMuZ2XgOsFKc","7170845485",4.237874579699396,"咖啡店",19.7243598,99.0996579,5,6,"https://geodata.ucdavis.edu/gadm/gadm4.1/shp/gadm41_THA_shp.zip",NA
"matched","ChIJRyGwPsYT2jARtqm5zwkvYB8","7171992285",15.709861047981587,"Care coffee",19.0876193,98.9015152,4.5,61,"https://geodata.ucdavis.edu/gadm/gadm4.1/shp/gadm41_THA_shp.zip",NA
"matched","ChIJZaNwP9k92jARP_NJPD-PlW8","7183624485",3.4324934612945284,"ตถตา คาเฟ่ - TaTaTa café",18.9415287,98.9286279,4.8,164,"https://geodata.ucdavis.edu/gadm/gadm4.1/shp/gadm41_THA_shp.zip","Fr-We 09:00-17:00"
"matched","ChIJaa03XU4x2jARyJ-dyqiziO0","7189617385",29.745762730884667,"Maison de la fleur",18.77244589999999,98.8620979,5,14,"https://geodata.ucdavis.edu/gadm/gadm4.1/shp/gadm41_THA_shp.zip",NA
"matched","ChIJhTKWD_yN2TARGrZuYhwQGC4","7221644985",7.298801505119867,"Rabiang View Maekampong",18.8656033,99.3555487,4.6,1396,"https://www.facebook.com/ระเบียงวิวแม่กำปอง-329392457823396/","Mo-Su 08:00-17:00"
"matched","ChIJq3B-riFp2zAR3FCRMuJOlo0","7249039589",16.7934827492426,"กาแฟสวนสน coffee&rest",18.1554182,98.3860351,4.6,65,"https://geodata.ucdavis.edu/gadm/gadm4.1/shp/gadm41_THA_shp.zip",NA
"matched","ChIJT9nv4epz2zARPKB1_P-IST4","7249086185",6.077939158028281,"ฮิมสน คาเฟ่",18.1555203,98.3861477,4.3,4,"https://geodata.ucdavis.edu/gadm/gadm4.1/shp/gadm41_THA_shp.zip","Mo-Su 07:00-17:00"
"matched","ChIJr8e27Ua10DARrzfn0aXN_R0","7273867615",28.36440495718323,"Hinoki Coffee",19.6559199,99.1497254,4.5,30,"https://geodata.ucdavis.edu/gadm/gadm4.1/shp/gadm41_THA_shp.zip",NA
"matched","ChIJnR2lBADL0DARlC2rezV7Edw","7274163627",48.02232089513648,"ชาล้านถัง ชาแฟริมทาง",19.7232254,99.1409828,NA,NA,"https://geodata.ucdavis.edu/gadm/gadm4.1/shp/gadm41_THA_shp.zip",NA
"matched","ChIJa5tQs9GN2TARpP6PRsKCWF8","7282613488",42.1068471940155,"Nasama's garden",18.8680886,99.3312003,4.2,15,"https://geodata.ucdavis.edu/gadm/gadm4.1/shp/gadm41_THA_shp.zip",NA
"matched","ChIJr-9Do6C62zARHIaArvEBBgA","7284389586",6.088641911187573,"Inthanon Coffee Road",18.4182375,98.6776546,4.7,43,"https://geodata.ucdavis.edu/gadm/gadm4.1/shp/gadm41_THA_shp.zip",NA
"matched","ChIJYcEzZx8N2zAR5QX-YWssl_Q","7294301985",34.655990038666765,"Riverside อมขูด กาแฟสด",18.2773154,98.3834423,4.4,18,"https://geodata.ucdavis.edu/gadm/gadm4.1/shp/gadm41_THA_shp.zip",NA
"matched","ChIJqTM8ORrP0DARzSJeIV0edc8","7393925563",4.972988413665338,"Banlek coffee",19.8631038,99.0516682,5,3,"https://geodata.ucdavis.edu/gadm/gadm4.1/shp/gadm41_THA_shp.zip",NA
"matched","ChIJ8aYfFMw31zARe_pnCEs1cvk","7553078591",9.185941970205148,"Ban Lung Ma Coffee & Cafe",19.7509174,99.3624353,4.6,233,"https://geodata.ucdavis.edu/gadm/gadm4.1/shp/gadm41_THA_shp.zip",NA
"matched","ChIJA8fi_RV62jARHyfWNlSM_us","7726168885",4.225699641844121,"กาแฟสดรักจัง",19.251223800000002,98.6384095,4.2,95,"https://geodata.ucdavis.edu/gadm/gadm4.1/shp/gadm41_THA_shp.zip",NA
"matched","ChIJwROrXJA62jARJJ4OWg_g_04","7794425963",5.067214132476981,"Rom-D Brunch & Coffee",18.7949243,98.9818564,4.9,46,"https://geodata.ucdavis.edu/gadm/gadm4.1/shp/gadm41_THA_shp.zip","Mo-Sa 07:00-19:00; Su 07:00-17:00"
"matched","ChIJRzhL6PCw2zARyTt7hCXhDbY","7889643385",24.5896822921257,"Papa's Home & Rabbit Cafe'",18.4506796,98.7110471,4.4,220,"https://geodata.ucdavis.edu/gadm/gadm4.1/shp/gadm41_THA_shp.zip","Mo-Su 07:00-20:00"
"matched","ChIJbzhoqwPJ0DARGWrkCmm-uPU","7921952451",14.707636493940418,"異域孤軍故事屋/雲之南咖啡",19.7223961,99.0966807,4.9,19,"https://geodata.ucdavis.edu/gadm/gadm4.1/shp/gadm41_THA_shp.zip",NA
"matched","ChIJBQ0AKQ052jARW3vgNgM2hY8","7933208877",5.07702315856722,"View Suai Coffee",18.8412263,98.901993,4.6,276,"https://geodata.ucdavis.edu/gadm/gadm4.1/shp/gadm41_THA_shp.zip",NA
"matched","ChIJabK3ZAAj2jAR30R5kaDhetA","7967799894",41.376098001505085,"หนองสามขา",18.9059836,99.036152,5,2,"https://geodata.ucdavis.edu/gadm/gadm4.1/shp/gadm41_THA_shp.zip",NA
"matched","ChIJmfWLfnC32zAR1vZlxvM_aWE","8039665341",46.34423955401201,"Inthanin @ปั๊มน้ำมันบางจาก ดอยหล่อ เชียงใหม่",18.4516031,98.7521912,4.3,13,"https://geodata.ucdavis.edu/gadm/gadm4.1/shp/gadm41_THA_shp.zip",NA
"matched","ChIJo15oWUSr2zARx8y5L_MA4Oc","8169236778",10.05431136602579,"Coffee A Cup",18.5419133,98.523105,4,7,"https://geodata.ucdavis.edu/gadm/gadm4.1/shp/gadm41_THA_shp.zip",NA
"matched","ChIJPRZDmfCr2zARrb3q7Sn-S1w","8169808436",11.409892506387916,"อินท์ไหล่เขา",18.5460227,98.5216977,4.6,321,"https://geodata.ucdavis.edu/gadm/gadm4.1/shp/gadm41_THA_shp.zip",NA
"matched","ChIJBwkaa4Yt1zARZAnsVnh9ayM","8209596894",40.970438168849114,"บุหลัน Bu - Lhaan cafe' and Thai Dessert",19.9243016,99.2187527,4.5,38,"https://geodata.ucdavis.edu/gadm/gadm4.1/shp/gadm41_THA_shp.zip",NA
"matched","ChIJp6sKOPzN2zAR05Oylzn4rjs","8253470417",0.5169670184145478,"กาแฟหน้าวัด est.2019 สาขาหน้าวัดสบปะ",18.5878571,98.9565131,4.4,203,"https://geodata.ucdavis.edu/gadm/gadm4.1/shp/gadm41_THA_shp.zip",NA
"matched","ChIJoc38Tt8J2jAR3gEa1bZlwrg","8375535046",38.21085132135785,"บ้านเหนือเมฆ Pizza&coffee ทางขึ้นรีสอร์ท",19.2837712,98.9681301,4.7,56,"https://geodata.ucdavis.edu/gadm/gadm4.1/shp/gadm41_THA_shp.zip",NA
"matched","ChIJ1c_oRlOd0DARQ3Atts_zm6Q","8568750910",16.69187684366942,"ฮักเมืองคอง คาเฟ่ (Hugmueangkhong Café)",19.378996,98.721223,4.5,50,"https://geodata.ucdavis.edu/gadm/gadm4.1/shp/gadm41_THA_shp.zip","Mo-Su 08:00-17:00"
"matched","ChIJLYBAK4SH2TARKlfGArxArdQ","8631974048",31.788768708900562,"ทุ่งนากาแฟ at เชียงใหม่",18.7324623,99.1957067,4.2,138,"https://geodata.ucdavis.edu/gadm/gadm4.1/shp/gadm41_THA_shp.zip",NA
"matched","ChIJ5-Mgib6H2TARz8PNHxlLNGc","8649726664",34.851315359286716,"Naive Cafe",18.7419796,99.2153589,4.6,39,"https://geodata.ucdavis.edu/gadm/gadm4.1/shp/gadm41_THA_shp.zip",NA
"matched","ChIJM4cz07Q62jARfVEKXSBE42o","8712823742",5.1437486090495685,"Mingmitr Coffee",18.7998565,99.0128804,4.5,483,"https://geodata.ucdavis.edu/gadm/gadm4.1/shp/gadm41_THA_shp.zip",NA
"matched","ChIJ35MC27E62jARhFKsJ0G99SU","8805729717",26.856426895948058,"Forest Bake",18.7922558,99.0048844,4.2,976,"https://geodata.ucdavis.edu/gadm/gadm4.1/shp/gadm41_THA_shp.zip","Mo-Su 08:00-17:00"
"matched","ChIJMz9Fi8gn2jARZEmhlHB71jY","8845953280",6.850010772824936,"Innocent Cafe",18.84669,99.1469432,4.7,44,"https://geodata.ucdavis.edu/gadm/gadm4.1/shp/gadm41_THA_shp.zip","Mo-Su 08:00-17:00"
"matched","ChIJI618DQA52jAR3xANF5dT8Ds","8863648117",36.33568594773592,"Srinehru Schoo",18.8411233,98.905582,4.9,7,"https://geodata.ucdavis.edu/gadm/gadm4.1/shp/gadm41_THA_shp.zip",NA
"matched","ChIJWbZUKEtH2jARb9c435ppcsk","8892200306",29.586078095583524,"หมูน้อย Coffee & Bar @กิ่วดอย 7 พับ",18.8055955,98.8101293,4.6,31,"https://geodata.ucdavis.edu/gadm/gadm4.1/shp/gadm41_THA_shp.zip","Mo,Tu,Th,Fr 07:00-20:00; Sa-Su 06:30-20:00"
"matched","ChIJy_bXO0Ib2jARrlWQb5vuCtg","8903781758",30.524102433672894,"eu.ca coffee slowbar",19.1320031,99.0248303,5,7,"https://geodata.ucdavis.edu/gadm/gadm4.1/shp/gadm41_THA_shp.zip",NA
"matched","ChIJU-fLyxkb2jARK5x3iMWBtH8","8903781761",3.406430460252528,"Kramfeine",19.131923,99.024443,4.9,329,"https://geodata.ucdavis.edu/gadm/gadm4.1/shp/gadm41_THA_shp.zip",NA
"matched","ChIJS0UkrPSP0DARHiQ3YedoDGQ","8930931800",4.281134616734679,"Wiang Haeng Coffee",19.55754109999999,98.6383754,4.3,95,"https://geodata.ucdavis.edu/gadm/gadm4.1/shp/gadm41_THA_shp.zip",NA
"matched","ChIJFRieAScx2jARB_VxQRN46Xc","8972417444",7.531664080518337,"Lee Cafe' Chiangmai",18.733255,98.9388698,4.6,466,"https://geodata.ucdavis.edu/gadm/gadm4.1/shp/gadm41_THA_shp.zip","Mo-Su 07:30-17:30"
"matched","ChIJKZzYKW-N2TARBNz1tsjWsQc","8987752967",5.359924334703855,"Baan Ing Dao Coffee",18.8657723,99.3555896,4.7,339,"https://www.facebook.com/ingdaomkp","Mo-Su 08:00-17:30"
"matched","ChIJ_xZlOxiJ2TARMCe-s5Bkil4","9052831610",4.579368698031009,"เฮือนแม่หลวง คอฟฟี่",18.8517127,99.2711738,4.6,28,"https://geodata.ucdavis.edu/gadm/gadm4.1/shp/gadm41_THA_shp.zip",NA
"matched","ChIJi-nFX8gX2jARW8Re27mH2Jo","9266719212",32.01211766278018,"Wake Cup",18.990858,98.9784164,4.3,33,"https://geodata.ucdavis.edu/gadm/gadm4.1/shp/gadm41_THA_shp.zip",NA
"matched","ChIJ-_UZxwkf2jARwDecTeCBoOg","9266726231",16.73296729947728,"112 Cafe at Home",18.9883038,99.1271549,NA,NA,"https://geodata.ucdavis.edu/gadm/gadm4.1/shp/gadm41_THA_shp.zip",NA
"matched","ChIJ38ZEVWmw2zARy__Cp2G8FXY","9290564623",1.4479256571766403,"Café Amazon",18.4358921,98.6877593,4.2,96,"https://geodata.ucdavis.edu/gadm/gadm4.1/shp/gadm41_THA_shp.zip",NA
"matched","ChIJAZalt2kF2zARiLKzktWTr2Y","9290602348",1.2482390090172641,"Café Amazon",18.4996657,98.3639597,4.3,45,"https://geodata.ucdavis.edu/gadm/gadm4.1/shp/gadm41_THA_shp.zip",NA
"matched","ChIJdTfAdwBB2jARqecdwBFgfWs","9314302717",8.643953965157301,"เจ้าดอยกาแฟ ม่อนแจ่ม Jao Doi coffee",18.9361984,98.8185963,NA,NA,"https://m.facebook.com/MON-ING-DAO-CAF%C3%89-101605994642660/","Mo-Su 08:30-18:00"
"matched","ChIJTz6tSAo72jARDg9apXuIuFA","9316918017",11.763917001328752,"Café Amazon",18.8483554,98.970809,3.9,32,"https://geodata.ucdavis.edu/gadm/gadm4.1/shp/gadm41_THA_shp.zip","Mo-Su 06:00-18:00"
"matched","ChIJsSKdWV4_2jARAj_I5tJHh-w","9336345917",13.602118310637598,"Hi cafe & bistro (ไฮ คาเฟ่ แอนด์ บิสโทร)​",18.8985652,98.8539163,4.9,273,"https://geodata.ucdavis.edu/gadm/gadm4.1/shp/gadm41_THA_shp.zip",NA
"matched","ChIJO5MKmVqN2TARAQLY9AEnh9w","9348298817",4.345364899308533,"Palore Coffee & Tea House",18.9286615,99.3422705,4.5,328,"https://geodata.ucdavis.edu/gadm/gadm4.1/shp/gadm41_THA_shp.zip",NA
"matched","ChIJ6Q0IiIiN2TARL_3D7uV0vTk","9366649140",21.081172516841157,"สมศรี มีกาแฟ Somsee mee kafe",18.9228044,99.3183608,4.4,218,"https://geodata.ucdavis.edu/gadm/gadm4.1/shp/gadm41_THA_shp.zip",NA
"matched","ChIJL83_txx52jARFQAs0AfZigs","9379309271",16.756190073114432,"กาแฟสด ห้วยน้ำดัง",19.3133253,98.6043971,4.4,7,"https://geodata.ucdavis.edu/gadm/gadm4.1/shp/gadm41_THA_shp.zip",NA
"matched","ChIJjXqJ-7Q52jARhS3JEgHF26I","9404324017",10.444804451718655,"Formula Hmong Coffee",18.8421018,98.9057428,4.6,31,"https://www.facebook.com/Narong137.coffee/","Mo-Su 06:00-17:00"
"matched","ChIJIZhvF7j12jAReYUhqBnVBtc","9422147918",21.50973010928922,"ใจ่ว่าง ม้งคอฟฟี่ hmong coffee",18.9536204,98.438908,4.9,17,"https://geodata.ucdavis.edu/gadm/gadm4.1/shp/gadm41_THA_shp.zip",NA
"matched","ChIJBwoR_UfT0DARcfrDfc0T7G0","9438531917",14.568668802008677,"ร้านทรัพย์ปัน",19.9657842,99.155978,4.7,20,"https://geodata.ucdavis.edu/gadm/gadm4.1/shp/gadm41_THA_shp.zip","Mo-Su 08:30-16:00"
"matched","ChIJCylXLwDT0DARkJAFKe08BI8","9438702819",8.345449178114901,"M.Kafee",19.9665126,99.1552715,NA,NA,"https://geodata.ucdavis.edu/gadm/gadm4.1/shp/gadm41_THA_shp.zip",NA
"matched","ChIJQVd9s2TP0DARzYW54QNbIT8","9441812217",12.58815454599043,"Royal Project cafe & souvenir store",19.9020769,99.0398735,3.7,3,"https://geodata.ucdavis.edu/gadm/gadm4.1/shp/gadm41_THA_shp.zip","Mo-Su 08:00-17:00"
"matched","ChIJB3CmzKi70DARdgiWblWUehE","9443760620",14.955454686622378,"Irin cafe'",19.5916364,98.9607272,5,2,"https://geodata.ucdavis.edu/gadm/gadm4.1/shp/gadm41_THA_shp.zip","Mo-Su 10:00-22:00"
"matched","ChIJ8ZotDbTL2zARjqDQZmR9kng","9459523417",10.844260927812849,"TIGER MOTHER CAFE",18.52502,98.853297,4.4,181,"https://geodata.ucdavis.edu/gadm/gadm4.1/shp/gadm41_THA_shp.zip","Mo-Su 08:00-17:00"
"matched","ChIJNYmfkqUz2jAROAeQIevem3k","9488787350",0.3903819405375283,"Jungle De Cafe in Baan Tawai",18.68046559999999,98.9599858,4.4,1860,"https://geodata.ucdavis.edu/gadm/gadm4.1/shp/gadm41_THA_shp.zip",NA
"matched","ChIJb7LVJ-on2jARaCJw3mj77Ms","9500735168",40.18915532586789,"Matane Café",18.8530701,99.0911902,4.8,44,"https://geodata.ucdavis.edu/gadm/gadm4.1/shp/gadm41_THA_shp.zip",NA
"matched","ChIJtalF83M-2jARvs1kVRVBw8s","9531353917",19.364063866323367,"Akha Ama Living Factory",18.9444075,98.9185954,4.6,564,"https://geodata.ucdavis.edu/gadm/gadm4.1/shp/gadm41_THA_shp.zip",NA
"matched","ChIJf4gmaIrx2TAR0-N5Do-swTw","9585662055",17.357964669898795,"ต้นกล้าคอฟฟี่ ไร่ต้นกล้ากาแฟ",19.0601081,99.3644638,4.6,78,"https://geodata.ucdavis.edu/gadm/gadm4.1/shp/gadm41_THA_shp.zip",NA
"matched","ChIJCzBWHT_L0DARyttly93WCSE","9620703037",12.878287889390776,"นิยมดื่ม กาแฟเมืองฝาง",19.7929849,99.167381,5,3,"https://geodata.ucdavis.edu/gadm/gadm4.1/shp/gadm41_THA_shp.zip",NA
"matched","ChIJo8ThhY8t1zARYHyWHb5cZYE","9620703043",5.115052568494184,"หนุน Farm & Cafe'",19.9126139,99.1914083,4.7,36,"https://geodata.ucdavis.edu/gadm/gadm4.1/shp/gadm41_THA_shp.zip",NA
"matched","ChIJ_cxcNRUv2jAR1f4Jh3sNC24","9626362481",36.322586785943024,"Hop Chafe แยกกองทราย",18.7270686,99.0240668,4.9,7,"https://geodata.ucdavis.edu/gadm/gadm4.1/shp/gadm41_THA_shp.zip",NA
"matched","ChIJN3D7wHsz2jARPpRGYibV12I","9626387824",2.3041086058274054,"Rabaing Coffee",18.6743808,98.9812263,4.3,22,"https://geodata.ucdavis.edu/gadm/gadm4.1/shp/gadm41_THA_shp.zip",NA
"matched","ChIJI_0qdIBv2jAR7U0lSxOXux4","9694258389",4.876071878049441,"Nermu Coffee",19.1148996,98.710451,4.9,111,"https://geodata.ucdavis.edu/gadm/gadm4.1/shp/gadm41_THA_shp.zip",NA
"matched","ChIJnfIF8bM52jARFSP102z590k","9716938717",40.06386167495526,"Hmong Doi Pui Family Coffee",18.8157579,98.8848673,4.7,226,"https://geodata.ucdavis.edu/gadm/gadm4.1/shp/gadm41_THA_shp.zip",NA
"matched","ChIJ2VqeYYch2jARwip_2Ya7Flg","9737537217",23.89780813080136,"Honey Box",18.8692092,99.1273759,4.8,127,"https://geodata.ucdavis.edu/gadm/gadm4.1/shp/gadm41_THA_shp.zip",NA
"matched","ChIJ275EJRGN2TARg2bDsddm1HI","9823048889",2.9512956949533935,"Pink Doi Cafe",18.9194655,99.3586916,4.6,105,"https://geodata.ucdavis.edu/gadm/gadm4.1/shp/gadm41_THA_shp.zip",NA
"matched","ChIJwykSVQCH2TARVDW905QimFw","9824686417",15.98731592825557,"Black Cat Cafe",18.7402667,99.2175892,NA,NA,"https://geodata.ucdavis.edu/gadm/gadm4.1/shp/gadm41_THA_shp.zip",NA
"matched","ChIJKfvrKkBU2jARY9nrOr56iyc","9830593917",7.494190798573025,"Lazy Man Coffee",18.6809536,98.5500161,4.8,53,"https://geodata.ucdavis.edu/gadm/gadm4.1/shp/gadm41_THA_shp.zip",NA
"matched","ChIJZ9DTClmL2TARlCEFyU7uG0I","9864949284",6.883780591286124,"Brick Box Pool Villa & Café",18.9070752,99.23937610000002,4.4,181,"https://geodata.ucdavis.edu/gadm/gadm4.1/shp/gadm41_THA_shp.zip",NA
"matched","ChIJW4xOg3o62jAR2fDc9l-SS8Q","9872146918",6.7769465492738465,"D Milk ไมโลดิบ เจ้าต้นตำหรับ",18.8029921,98.9811451,4.4,5,"https://geodata.ucdavis.edu/gadm/gadm4.1/shp/gadm41_THA_shp.zip","10:00-21:30"
"matched","ChIJLa0TsNY92jARPsshgQxB72c","9872648917",9.787383160413892,"The Chiang Mai Cream Tea House",18.9317086,98.9294327,4.7,58,"https://geodata.ucdavis.edu/gadm/gadm4.1/shp/gadm41_THA_shp.zip",NA
"matched","ChIJC3_uDQA92jARwB98wAXei_w","9873593517",1.183351010438285,"Rab-a-bit",18.9442909,98.9279754,4.8,340,"https://geodata.ucdavis.edu/gadm/gadm4.1/shp/gadm41_THA_shp.zip",NA
"matched","ChIJT7vQNPSx2zARFfqMrQpv2ws","9929174717",21.982259058693888,"Espresso Martini CNX",18.4283754,98.6813849,4.7,183,"https://geodata.ucdavis.edu/gadm/gadm4.1/shp/gadm41_THA_shp.zip",NA
"matched","ChIJ6flBOQw52jARH5lP1EVq-7Q","9988555849",8.214955312523875,"กาแฟเกษตร มช.",18.8386809,98.8966496,4.4,5,"https://geodata.ucdavis.edu/gadm/gadm4.1/shp/gadm41_THA_shp.zip",NA
"matched","ChIJjRzjqw452jARw4wXuyswWJM","9988555850",7.202869333902967,"Small Cafe",18.8386649,98.8966486,4.8,215,"https://geodata.ucdavis.edu/gadm/gadm4.1/shp/gadm41_THA_shp.zip",NA
"matched","ChIJcSu6BoYp2jARvx70Tevxbps","10095031626",15.796049845751863,"Forte Coffee",18.721895,99.1098544,4.4,121,"https://geodata.ucdavis.edu/gadm/gadm4.1/shp/gadm41_THA_shp.zip",NA
"matched","ChIJ3RsjecCL2TARX8ZxbKTdMr0","10125386638",14.80229466869891,"THE​ STOVE",18.886025,99.2646001,4.7,125,"https://geodata.ucdavis.edu/gadm/gadm4.1/shp/gadm41_THA_shp.zip",NA
"matched","ChIJKY9U2bpH2jARj321DKKXkjI","10127777105",10.500980102605048,"Elefin Farm & Cafe",18.8038339,98.8196672,4.4,1433,"https://m.facebook.com/elefinfarmandcafe",NA
"matched","ChIJQ85nbgA72jAR6ZMZbrRS7mg","10206671832",31.318183800737838,"Boba Coffee shop ร้านกาแฟโบบา",18.8520481,98.9677576,4.5,2,"https://geodata.ucdavis.edu/gadm/gadm4.1/shp/gadm41_THA_shp.zip",NA
"matched","ChIJ9yjPsniH2TARZUbeSLC44mE","10237513509",36.11596264225416,"Little Blue House Chiangmai",18.7424003,99.2204937,4.8,13,"https://geodata.ucdavis.edu/gadm/gadm4.1/shp/gadm41_THA_shp.zip",NA
"matched","ChIJg_gUKWuH2TARtjVuauNhYqE","10237513609",48.01274894847554,"The Cocoa Tree Garden",18.7395394,99.2229228,4.9,66,"https://geodata.ucdavis.edu/gadm/gadm4.1/shp/gadm41_THA_shp.zip","Mo-Su 09:00-16:00"
"matched","ChIJdddEMUOn2zARh2q7cj7MCss","10245741610",41.16270692880152,"Khun Pho Coffee and House",18.3788456,98.5321136,4.8,48,"https://geodata.ucdavis.edu/gadm/gadm4.1/shp/gadm41_THA_shp.zip",NA
"matched","ChIJE0x5yPOr2zAR4t20Th51lhw","10281519290",11.372127408336201,"Aiyana Café",18.5401586,98.5432551,4.9,11,"https://www.facebook.com/aiyanacafedoiinthanon","Mo-Su 09:00-17:30"
"matched","ChIJnTtZ3Pax2zARq614wsTj5nw","10307857609",18.7782334156059,"The Garden Inthanon Cafe'",18.5431544,98.52286,5,63,"https://geodata.ucdavis.edu/gadm/gadm4.1/shp/gadm41_THA_shp.zip","Mo-Su 08:00-18:00"
"matched","ChIJ6eC0ApeP0DARbz9ZKdG-Cek","10312581420",41.42615624533789,"ร้านฅนเมืองแหง",19.5804534,98.6147839,4.6,37,"https://geodata.ucdavis.edu/gadm/gadm4.1/shp/gadm41_THA_shp.zip",NA
"matched","ChIJm6spnsEt1zARTPExeeP-uaM","10569706509",9.03339315602161,"COMPLEMENT",19.9255034,99.196504,4.6,174,"https://geodata.ucdavis.edu/gadm/gadm4.1/shp/gadm41_THA_shp.zip",NA
"matched","ChIJMWTK0i072jAR09-EfkgqPFI","10620278581",20.68205350672186,"THE VOLCANO หลัง มช.",18.7922199,98.9560485,4.4,555,"https://geodata.ucdavis.edu/gadm/gadm4.1/shp/gadm41_THA_shp.zip","Mo-Su 12:00-22:00"
"matched","ChIJ7cQhjPux2zARt1iMUaGcn2c","10715951005",6.536288719533917,"NICE COFFEE SELECTION",18.4331794,98.6780623,4.7,65,"https://geodata.ucdavis.edu/gadm/gadm4.1/shp/gadm41_THA_shp.zip","Mo-Sa 07:30-16:00"
"matched","ChIJZ7c3-g2P2zARuZbFKoUI5r8","10767528380",6.377795580345972,"TwinsCoffee Doitao",17.9837038,98.6868687,4.3,23,"https://geodata.ucdavis.edu/gadm/gadm4.1/shp/gadm41_THA_shp.zip",NA
"matched","ChIJOZJM9vyN2TARTN1-UIwx9f0","10774485522",29.218972299590643,"Kacha & Creme",18.863514,99.2994473,4.3,6,"https://geodata.ucdavis.edu/gadm/gadm4.1/shp/gadm41_THA_shp.zip",NA
"matched","ChIJcfzCi1062jARLtfChfkqHPY","10836941005",24.899693083895055,"bays coffee co.",18.8061342,98.9613899,4.6,121,"https://www.facebook.com/Food4ThoughtCM",NA
"matched","ChIJVUT10vI62jAReGQdxrsGUR0","10865484490",20.94007606659092,"ปังกลมๆ กะ นมเน้นๆ",18.8051265,98.9775959,5,2,"https://geodata.ucdavis.edu/gadm/gadm4.1/shp/gadm41_THA_shp.zip",NA
"matched","ChIJNcf4718x2jARqob-phUJ9eU","11032795792",24.47124678317014,"Ni-cha food&drink",18.6898646,98.9456981,4.6,17,"https://geodata.ucdavis.edu/gadm/gadm4.1/shp/gadm41_THA_shp.zip","Mo-Su 08:30-17:00"
"matched","ChIJlde_50TV1jAReIzCFV6VNVc","11116250807",11.144722493723103,"Chae-Ger Coffee",20.0763965,99.2689016,4.4,23,"https://geodata.ucdavis.edu/gadm/gadm4.1/shp/gadm41_THA_shp.zip",NA
"matched","ChIJ6dCuG9WH2TARB7u5B5394hs","11228514395",19.46850456531547,"ขุนดง ลอดจ์ คอฟฟี่ แอนด์ บิสโทร",18.7315579,99.2007178,4.6,11,"https://geodata.ucdavis.edu/gadm/gadm4.1/shp/gadm41_THA_shp.zip","Mo-Su 09:00-21:00"
"matched","ChIJMx3e2VeH2TARXH3ZyuaBRac","11228592765",9.875343057754936,"Ba-Ra-Me Cafe",18.7326478,99.1998517,4.8,37,"https://geodata.ucdavis.edu/gadm/gadm4.1/shp/gadm41_THA_shp.zip",NA
"matched","ChIJrbIjEzcP2jAR9AtEx8w87IE","11244900888",8.717029907980702,"Long time farm stay (Slow bar &​ Organic farm)​ ร้านกาแฟแม่แตง",19.1665866,99.0043623,4.8,180,"https://geodata.ucdavis.edu/gadm/gadm4.1/shp/gadm41_THA_shp.zip",NA
"matched","ChIJNVokkvQ52jAR_Ji8OwWl_KY","11249892977",2.64677816723087,"BA RUNG บาหรั่ง",18.841957,98.9053622,4.9,46,"https://geodata.ucdavis.edu/gadm/gadm4.1/shp/gadm41_THA_shp.zip",NA
"matched","ChIJ7eUHDwAB2zARbd9r4tS1Xww","11273509969",21.074375559102066,"Po Mue Nor Cafe",18.5402926,98.4396015,NA,NA,"https://geodata.ucdavis.edu/gadm/gadm4.1/shp/gadm41_THA_shp.zip",NA
"matched","ChIJC0glIgBP2jARP145qYFAiBs","11410071072",9.682602442930165,"ขุนวินคอฟฟี่",18.7425256,98.6933623,4.7,3,"https://geodata.ucdavis.edu/gadm/gadm4.1/shp/gadm41_THA_shp.zip",NA
"matched","ChIJ6YMVOOqn0DARavKCoUbvWjQ","11413834853",0.283093280015619,"BBHQ Café",19.4363983,98.9473335,5,36,"https://geodata.ucdavis.edu/gadm/gadm4.1/shp/gadm41_THA_shp.zip","Mo-Su 10:00-18:00"
"matched","ChIJIegL8iw_2jAR9ppcGkIqW04","11477703412",16.61772223292967,"สวนนกยูงลุงพงศ์ - UNCLE PONG PEACOCK FARM",18.9224209,98.9233064,4.5,64,"https://geodata.ucdavis.edu/gadm/gadm4.1/shp/gadm41_THA_shp.zip",NA
"matched","ChIJZ0A7TwA_2jARmD8nSfs2cAM","11477703415",25.084433236481775,"Uncle Pong Mini Zoo and Cafe - สวนลุงพงศ์มินิซูแอนด์คาเฟ่",18.922755,98.9231844,4.6,107,"https://geodata.ucdavis.edu/gadm/gadm4.1/shp/gadm41_THA_shp.zip",NA
"matched","ChIJX5z3BX832jARt0ggNjWDeSQ","11508095574",18.782967241367363,"𝟭𝟮𝗙𝗘𝗕 𝗛𝗼𝗺𝗲𝘆 𝗖𝗮𝗳𝗲",18.731644,98.9174,4.8,329,"https://geodata.ucdavis.edu/gadm/gadm4.1/shp/gadm41_THA_shp.zip",NA
"matched","ChIJdedtfLXz2TARFmefD405xs0","11555438605",30.902591400190307,"ARK Coffee",19.0258982,99.3170051,4.7,163,"https://geodata.ucdavis.edu/gadm/gadm4.1/shp/gadm41_THA_shp.zip",NA
"matched","ChIJR45zObkz2jAReiCpmAoM9Bs","11676292677",2.208391683283686,"ร้านกาแฟสดระเบียงไม้",18.6261979,98.9557142,4.7,14,"https://geodata.ucdavis.edu/gadm/gadm4.1/shp/gadm41_THA_shp.zip",NA
"matched","ChIJDQqiB6k32jAR_fKrZBAOq4k","11726764476",24.320881978054242,"The Extraction พืชสวนโลก",18.729112400000002,98.9114822,4.7,103,"https://geodata.ucdavis.edu/gadm/gadm4.1/shp/gadm41_THA_shp.zip","Mo-Su 07:00-17:00"
"matched","ChIJi-gHykCs2zARRuXn-bmkhUc","11729468222",9.258015200127364,"Coffee Hut",18.541705,98.5993191,3.7,34,"https://geodata.ucdavis.edu/gadm/gadm4.1/shp/gadm41_THA_shp.zip",NA
"matched","ChIJFYPGDrA62jARg-UlBxBSXi4","11806453091",28.554101042297262,"Tanita Coffee House",18.7930208,99.0019605,4.7,220,"https://geodata.ucdavis.edu/gadm/gadm4.1/shp/gadm41_THA_shp.zip","08:30-17:00"
"matched","ChIJgZxXJwAJ2jARYJUR7z9udWE","12111894384",32.346430277287375,"Lhong Chiang Dao glamping (หลงเชียงดาว แกล้มปิง)",19.3263823,98.9336028,4.7,33,"https://geodata.ucdavis.edu/gadm/gadm4.1/shp/gadm41_THA_shp.zip",NA
"matched","ChIJp_IqOAA72jAR77BLh__jbK0","12222135666",4.823121870526602,"ชาไข่มุกดอทคอม (สาขาดอนแก้ว)",18.8702853,98.9669198,5,2,"https://geodata.ucdavis.edu/gadm/gadm4.1/shp/gadm41_THA_shp.zip",NA
"matched","ChIJu2s43y4h2jARoBs6-xp2-sI","12345599501",7.324868472713869,"Inthanin สาขาปั้มบางจาก ดอยสะเก็ด",18.8759307,99.1390686,3.9,17,"https://geodata.ucdavis.edu/gadm/gadm4.1/shp/gadm41_THA_shp.zip","Mo-Su 07:00-17:30"
"matched","ChIJv8QiK9M02jAR45arTU6cJng","12350709001",3.8388488530253273,"Café Amazon",18.5973844,98.8879194,4.4,108,"https://geodata.ucdavis.edu/gadm/gadm4.1/shp/gadm41_THA_shp.zip",NA
"matched","ChIJz6d3vNXJ2zAR141C6z749QA","12350716263",4.193000696576702,"Shade of Brown Coffee Roaster",18.4721228,98.8203873,4.9,60,"https://geodata.ucdavis.edu/gadm/gadm4.1/shp/gadm41_THA_shp.zip","Mo-Su 07:30-17:30"
"matched","ChIJnwVjDaov2jARqHvCGaGocbE","12389781831",1.3023798746298814,"JP Carwash Coffee & Restaurant",18.7404967,99.0450346,4.9,11,"https://www.instagram.com/hopefullycafe/","7:30 - 16:30"
"matched","ChIJC-DC9JAD2jARQvjVqTge25I","12444046765",6.50516858875601,"Thawaan Coffee",19.2238143,99.1852144,NA,NA,"https://geodata.ucdavis.edu/gadm/gadm4.1/shp/gadm41_THA_shp.zip",NA
"matched","ChIJ7Wm0GTQ_2jARfWRvM82iZak","12503865623",9.021468840317715,"QSBG Coffee",18.8863831,98.8626883,4.8,4,"https://geodata.ucdavis.edu/gadm/gadm4.1/shp/gadm41_THA_shp.zip",NA
"matched","ChIJ_9xZNRNL2jARoQD_yEhupa8","12528710125",15.452086523931506,"Cafe Amazon PTT Maewang คาเฟ่อเมซอน ปตท.แม่วาง (บ้านกาด)",18.6042126,98.8294884,5,1,"https://geodata.ucdavis.edu/gadm/gadm4.1/shp/gadm41_THA_shp.zip",NA
"matched","ChIJSzAiTzwd2jAR9HtV-duuQp0","12543258781",10.250432639560648,"เรือนฝ้าย ด้ายงาม",19.1235276,99.1774915,5,4,"https://geodata.ucdavis.edu/gadm/gadm4.1/shp/gadm41_THA_shp.zip",NA
"matched","ChIJ3cptBQAB2jARBgWr36y167c","12550162068",44.82845340816297,"Café Amazon ปตท.แม่ปั๋ง",19.2513878,99.1854052,5,2,"https://geodata.ucdavis.edu/gadm/gadm4.1/shp/gadm41_THA_shp.zip",NA
"matched","ChIJg-dg6YQh2jARjnzGzCa_oHc","12570756828",8.454403717509786,"หอศิลป์ อิงกา คาเฟ่",18.929622,99.1418789,5,2,"https://geodata.ucdavis.edu/gadm/gadm4.1/shp/gadm41_THA_shp.zip",NA
"matched","ChIJr2mouV4h2jAR_KIwkx6jzOA","12570756830",25.772059662794458,"☕Mae Kuang Cafe แม่กวง คาเฟ่",18.9300734,99.1421433,4.9,19,"https://geodata.ucdavis.edu/gadm/gadm4.1/shp/gadm41_THA_shp.zip",NA
"matched","ChIJwwL57ikt1zARZLq3Y1G1wWM","12704302176",3.7692812951510186,"เดอะ เอส คอฟฟี่",19.9830582,99.2477014,4.7,11,"https://geodata.ucdavis.edu/gadm/gadm4.1/shp/gadm41_THA_shp.zip",NA
"matched","ChIJrdzB0f9u2jARqpUjuc1Sf24","12771183608",36.505869609062884,"Coffee Secrets",19.1218462,98.7046919,4.5,13,"https://geodata.ucdavis.edu/gadm/gadm4.1/shp/gadm41_THA_shp.zip",NA
"matched","ChIJ-aSb-lIp2jARhy752TQfWxw","12854479436",40.474324831239926,"ผามกาแฟใจ๋ยอง ณ เฮือนใจ๋ยอง",18.7254624,99.1028968,4.5,6,"https://geodata.ucdavis.edu/gadm/gadm4.1/shp/gadm41_THA_shp.zip",NA
"matched","ChIJfXvXur4w2jARcld9AjrlENQ","12864717489",44.37492526520873,"Starbucks",18.8083378,99.018274,4.2,613,"https://geodata.ucdavis.edu/gadm/gadm4.1/shp/gadm41_THA_shp.zip","Mo-Su 09:00-22:00"
"matched","ChIJy_SKGQDL2zARR1O3PkfBUW0","12916877901",32.6025740987049,"Langbaan Cafe",18.5489841,98.8770691,4.9,13,"https://geodata.ucdavis.edu/gadm/gadm4.1/shp/gadm41_THA_shp.zip",NA
"matched","ChIJtaOPBgAj2jARf4FeA8EzA-8","13004478307",11.176485334485623,"ชาวเรา slowbar coffee",18.8780151,99.0389106,NA,NA,"https://geodata.ucdavis.edu/gadm/gadm4.1/shp/gadm41_THA_shp.zip","Tu-Sa 07:00-13:00"
"matched","ChIJqTSm1O4v2jARGsRgvwcdXMM","13051829585",11.270715675288157,"Tungjai​ Coffee​ ตั้งใจกาแฟสด",18.73502389999999,99.0256736,5,22,"https://geodata.ucdavis.edu/gadm/gadm4.1/shp/gadm41_THA_shp.zip",NA
"matched","ChIJdad_M-0P2jARgM9Muj-1HXE","13062546004",4.2102542411427955,"unh Cafe & Craft : ยุ่น คาเฟ่ แอนด์ คราฟท์",19.191985,98.9808331,5,3,"https://geodata.ucdavis.edu/gadm/gadm4.1/shp/gadm41_THA_shp.zip","Mo-Su 07:00-18:00"
"matched","ChIJAy1yJYSN2TARGjIfBLejTkM","13062872287",10.786567782763376,"ดงธารา เทพเสด็จ - Dong-Tara Thepsadet Chiangmai",18.9242045,99.3591212,5,2,"https://geodata.ucdavis.edu/gadm/gadm4.1/shp/gadm41_THA_shp.zip",NA
"matched","ChIJEV0HnyWN2TARFQTGSEBp5a0","13062989622",20.32319230419445,"Kamisama Coffee",18.9209872,99.3308822,4.9,8,"https://geodata.ucdavis.edu/gadm/gadm4.1/shp/gadm41_THA_shp.zip",NA
"matched","ChIJHTsCs_yN2TAR6bUOJKkkRH4","13062989822",14.80701827043694,"Fae Miang Café",18.9250866,99.3398268,4.6,267,"https://geodata.ucdavis.edu/gadm/gadm4.1/shp/gadm41_THA_shp.zip",NA
"matched","ChIJ98s0-aYl2jARVkVyWK8Z0pc","13092045056",4.624784469540255,"88 Rustic Jungle Café",18.8606537,99.0526521,4.6,158,"https://geodata.ucdavis.edu/gadm/gadm4.1/shp/gadm41_THA_shp.zip",NA
"matched","ChIJE7qOiJ9H2jAROWpOsr73D8s","13108414413",3.0583127786410964,"พาลอร์ - Palore@Pongyang",18.858886,98.832428,5,1,"https://geodata.ucdavis.edu/gadm/gadm4.1/shp/gadm41_THA_shp.zip",NA
"matched","ChIJh-7QCwDL0DARztFWh8GA_f8","13169192501",15.921121837400046,"TUNGNGRN COFFEE",19.7366168,99.1430051,NA,NA,"https://geodata.ucdavis.edu/gadm/gadm4.1/shp/gadm41_THA_shp.zip","Mo-Fr 07:00-17:00; Sa-Su 09:00-17:00"
"matched","ChIJi6rsG27H0DARJ9dvZYAkJhE","13192214401",39.83883205755333,"ภูผาแดงคอฟฟี่",19.7620395,99.0124156,NA,NA,"https://geodata.ucdavis.edu/gadm/gadm4.1/shp/gadm41_THA_shp.zip",NA
"matched","ChIJ6cjWDjEb2jARs9kldoFdzBs","13236510928",3.566460688238673,"Today's COFFEE club สภากาแฟป่าเลา",19.1131523,99.0749122,5,26,"https://scanfood.online/pickup/NfKgb0Fxtxg1J97pBlMq","07:00-22:00"
"matched","ChIJiXXolxk72jAR2uKCGUuxaHk","13245032755",7.99606762414054,"Huai Tueng Thao Coffee",18.8724499,98.9373437,4.2,12,"https://geodata.ucdavis.edu/gadm/gadm4.1/shp/gadm41_THA_shp.zip",NA
"matched","ChIJkwZ6zX2n0DARY8ZET3ntwfI","13253872602",9.120021391102377,"Hoklhong Cafe",19.3504375,98.9624375,4.7,586,"https://geodata.ucdavis.edu/gadm/gadm4.1/shp/gadm41_THA_shp.zip",NA
"matched","ChIJ5YLfLVrL0DARd9HnEb4_Rl0","13255562001",11.939854736743237,"LONG-CHONG COFFEE X ก๋วยเตี๋ยวเป็ดรสเด็ดปากทางอ่างขาง",19.8023768,99.1650437,5,10,"https://geodata.ucdavis.edu/gadm/gadm4.1/shp/gadm41_THA_shp.zip","Mo-Su 08:00-16:00"
"matched","ChIJ7253EwA32jAReZ21nZ1Wk_Y","13257143161",25.637812846707313,"Lanna Terra",18.7360946,98.9004275,4.1,23,"https://geodata.ucdavis.edu/gadm/gadm4.1/shp/gadm41_THA_shp.zip","Mo-Su 08:00-17:00"
"matched","ChIJiaMXyp452jARgUwN_LG58-w","13257248680",47.79886745049415,"Rachel Coffee And Community @Cypress Lanes",18.7907133,98.8404066,4.5,143,"https://geodata.ucdavis.edu/gadm/gadm4.1/shp/gadm41_THA_shp.zip","Mo-We, Fr-Su 10:00-17:00"
"matched","ChIJtchymZI62jARRht1e_ZZoEI","13293742701",2.3959153033383696,"Akha Ama Coffee ( The New Original )",18.794007,98.9925683,4.5,1844,"https://geodata.ucdavis.edu/gadm/gadm4.1/shp/gadm41_THA_shp.zip",NA
"matched","ChIJCx05IgCV0DARwxj-6FxjWiU","13293745101",0.14826091729859692,"Imim Cafe. ซินหมี่",19.676149,98.7858837,5,1,"https://geodata.ucdavis.edu/gadm/gadm4.1/shp/gadm41_THA_shp.zip","Mo-Su 08:00-17:00"
"matched","ChIJYa54SsCl0DARZqlkAmvE0Gg","13392100892",9.168752183630353,"winter",19.51436069999999,98.9602249,4.9,16,"https://geodata.ucdavis.edu/gadm/gadm4.1/shp/gadm41_THA_shp.zip",NA
"matched","ChIJsb8khfir2zARjIpllO3oIY8","13401663575",19.211496662976746,"KM.31 Cafe Inthanon",18.5294559,98.5231044,4.8,6,"https://geodata.ucdavis.edu/gadm/gadm4.1/shp/gadm41_THA_shp.zip",NA
"google_only","ChIJrQLWVHPx3DARnBk3AhgFURg",NA,NA,"Coffee master กาแฟคั่วมือ",17.315479,98.33291,NA,NA,NA,NA
"google_only","ChIJcTVqE9v73DARteCtS5wDvXQ",NA,NA,"Forest Coffee beans",17.2940687,98.3483562,5,1,NA,NA
"google_only","ChIJyWb9jzL73DARgR2LJlcBy00",NA,NA,"GooNoo Black Coffee",17.2909708,98.3539659,4.5,2,NA,NA
"google_only","ChIJfzwqpu333DARBtvQkp9HI9E",NA,NA,"มาดามคอฟฟี่ ณ.ทีวาโกล",17.376925,98.483606,5,4,NA,NA
"google_only","ChIJDWYN3Uf33DARSunxm6c1bTc",NA,NA,"โรงตาก กาแฟ",17.3664375,98.4821875,5,1,NA,NA
"google_only","ChIJEaBO54z33DAR3LMwgLZDBAw",NA,NA,"มิกะ คาเฟ่ mika.cafe",17.3911913,98.4626625,5,4,NA,NA
"google_only","ChIJd-nL-fD13DARKDFKApCHhWg",NA,NA,"Tuen Coffee",17.3975883,98.4608785,5,24,NA,NA
"google_only","ChIJ3SAy17f13DARJ_NqB6uU1cQ",NA,NA,"หลงยุค ๙๐ คาแฟ่",17.4002161,98.4668874,5,4,NA,NA
"google_only","ChIJD0DLpt713DARkMoj2CPWnCE",NA,NA,"Country Road 1099 Cafe'",17.40024949999999,98.4578362,3.5,2,NA,NA
"google_only","ChIJn1gIDdz13DARAUwXqws5rdM",NA,NA,"Nan nat bakery & coffee",17.401821,98.457377,4.1,22,NA,NA
"google_only","ChIJgRaRcUv13DARLk1AkgI1Yl0",NA,NA,"ม่อนอีลู&ชาคุมะบ้านใหม่",17.4023799,98.4561121,NA,NA,NA,NA
"google_only","ChIJ7X4DtXr13DARJMsVl6Omw3s",NA,NA,"ร้าน​กาแฟ​กะเจ่อ​ถิ(ตีน​ดอน)​",17.4026879,98.4555976,NA,NA,NA,NA
"google_only","ChIJrYxf2yH13DAR2Nm0dzxWUmk",NA,NA,"ร้าน Check in เมืองตื๋น",17.4103296,98.4550234,NA,NA,NA,NA
"google_only","ChIJPXqd-tX13DARS2UWGaeyu-g",NA,NA,"พอเพียงคาเฟ่",17.4141239,98.456706,4.5,4,NA,NA
"google_only","ChIJ6x2tBatf3DARGmAY6TmkL9E",NA,NA,"เก๊าบะขามคาเฟ่",17.4300834,98.5344118,NA,NA,NA,NA
"google_only","ChIJ87wGTUCL3DAR5e7kacZ-j5s",NA,NA,"เก่อชอวา คอฟฟี่",17.4997563,98.4838145,NA,NA,NA,NA
"google_only","ChIJ6RVvKzRf3DARQAnpYYGKfxQ",NA,NA,"หม่าวี่โจcoffee@homestay",17.4960638,98.4848861,5,7,NA,NA
"google_only","ChIJRfJEUwBh3DARxrECiHk7oJs",NA,NA,"ลูกเขยดอย coffee",17.572276,98.522539,5,2,NA,NA
"google_only","ChIJCbXHCZNh3DARHQnbpPchLKw",NA,NA,"Napee por coffee",17.569218,98.523619,NA,NA,NA,NA
"google_only","ChIJkWc0HgCD3DARMkd3LyeUxio",NA,NA,"คอฟฉะโฮมคาเฟ่",17.630099,98.440357,NA,NA,NA,NA
"google_only","ChIJ81GuvSuJ3DAR7n_83VMlSqU",NA,NA,"คอฟฉะโฮมคาเฟ่",17.6300994,98.4403573,NA,NA,NA,NA
"google_only","ChIJ8wyvLyyD3DAREYRckrc8lG0",NA,NA,"ร้าน พอใจกาแฟ",17.7980298,98.3570646,NA,NA,NA,NA
"google_only","ChIJOQCw1vwF2zARgc72X2VuJ4E",NA,NA,"ร้านฮักกั๋นกาแฟสด",17.7980291,98.357768,4.9,17,NA,NA
"google_only","ChIJSTg3O6uD3DARIPmW9Bpquy0",NA,NA,"ร้านกาแฟไก่ไข่ อมก๋อย",17.7989556,98.3571291,5,2,NA,NA
"google_only","ChIJp3q1dwCD3DAROxnLKN-9f9I",NA,NA,"หน้าบ้านกาแฟสด",17.7980116,98.3581566,NA,NA,NA,NA
"google_only","ChIJrVYFHCqD3DARaCHInVS-o6k",NA,NA,"บ้านนมชัยโชติ",17.79789539999999,98.3586672,NA,NA,NA,NA
"google_only","ChIJwS7i_F6D3DARoghgRCGlwUQ",NA,NA,"กาแฟทีคี บ้านหลวง",17.79199,98.3617986,NA,NA,NA,NA
"google_only","ChIJ52kkSaKD3DARx6m0lGe8MtU",NA,NA,"BabyBoom Cafeine",17.8004042,98.3597874,3.5,4,NA,NA
"google_only","ChIJc0OlWaKD3DARydgnZJ_8Kbw",NA,NA,"โฮงรถคาเฟ่",17.8000106,98.3606564,4.8,29,NA,NA
"google_only","ChIJq8l8dgB92zARSR9K_tfsiQs",NA,NA,"หน้าบ้านป้าลี",17.799811299999998,98.3608504,NA,NA,NA,NA
"google_only","ChIJ0YpE7KKD3DARzg-utieQzQc",NA,NA,"Coffee Cill",17.7996105,98.3617887,3.5,2,NA,NA
"google_only","ChIJ6SLgAKOD3DAR4GJ8aS32dzY",NA,NA,"ณ อมก๋อย",17.8010191,98.3610571,4.6,9,NA,NA
"google_only","ChIJXfjU_6KD3DARAQ8yjxDLKo8",NA,NA,"เฮือนข้าวแฟ",17.8006094,98.3613756,4.2,19,NA,NA
"google_only","ChIJSezUZQCD3DARbU7QdtjH9UU",NA,NA,"ร้านกาแฟอมก๋อยบีนส์ Omkoi beans",17.799066,98.3624121,5,2,NA,NA
"google_only","ChIJtTFodgCD3DARNW7EZHEH4F0",NA,NA,"บ้านยายคาเฟ่",17.7994663,98.3630751,5,1,NA,NA
"google_only","ChIJfZGKKUWD3DARJ-Ngths5AN0",NA,NA,"ร้านกาแฟฮิมดง",17.7984352,98.3656977,3.8,4,NA,NA
"google_only","ChIJk1dFr3qD3DARi9ghj06ASxg",NA,NA,"Good morning omkoi",17.8049515,98.3636814,4.7,70,NA,NA
"google_only","ChIJ6e_HIQCD3DARYesMYwmW12w",NA,NA,"คอฟฟี่คา",17.8219994,98.3214551,NA,NA,NA,NA
"google_only","ChIJTfTKLg2D3DAR7u9l0L3dfBE",NA,NA,"Sopa's Estate Plantation",17.8026739,98.3675259,5,1,NA,NA
"google_only","ChIJ3-INZgCD3DARo7szZQsWwOc",NA,NA,"มิตติ้งพอยต์คาเฟ่อมก๋อย Meeting point Cafe Omkoi",17.8078899,98.3640966,4.7,3,NA,NA
"google_only","ChIJ70FzJvOD3DARB9nW-As8IzE",NA,NA,"Yangpao cafe - ร้านกาแฟโรงเรียนบ้านยางเปา",17.8235562,98.3188457,NA,NA,NA,NA
"google_only","ChIJIUeFISaD3DAR1d4ln4booKk",NA,NA,"Dong Coffee De Omkoi",17.8054333,98.372846,4.9,12,NA,NA
"google_only","ChIJKV4zHLiD3DARrG0I3c71ofg",NA,NA,"Nermu Coffee Omkoi",17.8113889,98.365053,5,1,NA,NA
"google_only","ChIJNd0dcA9_3DARtGI7J1jJt08",NA,NA,"ร้านHugnaCoffee",17.776038,98.496876,5,2,NA,NA
"google_only","ChIJHSe-DF-d3DAR8f29zorLNd0",NA,NA,"วิวไร่คาเฟ่",17.8705597,98.3032062,NA,NA,NA,NA
"google_only","ChIJUdG6FQCJ2zARUA6FcoyWDew",NA,NA,"Palmmoy Coffee and tea 2",17.8520745,98.747732,5,3,NA,NA
"google_only","ChIJRRilMQCJ2zARjn7bBOd-E7Q",NA,NA,"ชารินคิณ Charinkin🧋",17.878812,98.7258851,NA,NA,NA,NA
"google_only","ChIJp4DmLACJ2zARulQMfwuRjZg",NA,NA,"1000Mai cafe",17.891302,98.742084,NA,NA,NA,NA
"google_only","ChIJ4WRoIwyH2zARv0RUtvIaIJQ",NA,NA,"1000 Mai Cafe",17.8913051,98.7420212,5,1,NA,NA
"google_only","ChIJ7RrAtLWJ2zART6TwPMNnDZo",NA,NA,"The Doitao Coffee Rider",17.8852456,98.7262161,4.8,4,NA,NA
"google_only","ChIJlfjSq0uJ2zARGok29B2je7M",NA,NA,"ปั่นมั่ว",17.8921314,98.7423562,4.3,4,NA,NA
"google_only","ChIJOXsZV0uJ2zARAIOnpTXXn7Y",NA,NA,"PANMOUR (ปั่นมั่ว)",17.8922235,98.7422913,NA,NA,NA,NA
"google_only","ChIJDWWvIg1_2zARtu4yiSpigUo",NA,NA,"เก๊าเกี๊ยะ Cafe",17.9055907,98.4104728,4.6,10,NA,NA
"google_only","ChIJIaLRWnB_2zARwbcPmOM4N-c",NA,NA,"กาแฟรักษ์ป่าอมก๋อย SOFT Coffee",17.90286859999999,98.4093009,5,22,NA,NA
"google_only","ChIJ73HzEwCJ2zARLm_2tZd2ZTQ",NA,NA,"กล้วยทอดกระทะยักษ์บ้านถิ่นสำราญ",17.9233939,98.7093269,NA,NA,NA,NA
"google_only","ChIJzRPgQzeJ2zAR9vJx1kLPr1A",NA,NA,"กาแฟครูเกจ",17.9228975,98.7105697,3,2,NA,NA
"google_only","ChIJMZrR_2qJ2zARhU_APpJZd8A",NA,NA,"ร้านเก๊าบะโจ้ก kaobajoke",17.9466292,98.6941896,5,1,NA,NA
"google_only","ChIJk3wbSwCP2zARsC1H7oH6EIw",NA,NA,"ร้านน้ำปั่นน้องต้นหนาว",17.9498647,98.681607,NA,NA,NA,NA
"google_only","ChIJATpeZNeP2zARro8ZUTk0wXY",NA,NA,"ระมิงค์ คอฟฟี่",17.94783709999999,98.6946497,4,2,NA,NA
"google_only","ChIJN5xEgNWP2zARHYXJw3hO0-k",NA,NA,"ฮ่อมหน้อย คาเฟ่ Hom Noi Cafe",17.949394,98.690311,4.7,7,NA,NA
"google_only","ChIJT8AWQDiJ2zARJU650PNi244",NA,NA,"Long Ma Jim ลองมาจิม",17.9409509,98.7067318,3,1,NA,NA
"google_only","ChIJWZemdZuH2zARAW3Q69uRwWE",NA,NA,"CHEEVA COFFEE",17.9409034,98.7068694,4.7,6,NA,NA
"google_only","ChIJPwMOn0uN2zARaajzlz7g0_A",NA,NA,"SURANUN Café",17.9495872,98.6901229,4.9,12,NA,NA
"google_only","ChIJ6wLRbQCP2zARcDYseEFZ1dg",NA,NA,"Coffee in Doitao By Khun Pui",17.9522861,98.6847151,NA,NA,NA,NA
"google_only","ChIJ2asKc66P2zARW6J-9HFHedA",NA,NA,"โคซี่ บราวน์ คาเฟ่ Cozy Brown Café",17.9523478,98.6847385,5,33,NA,NA
"google_only","ChIJGd7mVgCP2zARW797StHiDDk",NA,NA,"รสชาแฟ Coffee car",17.953359,98.6835222,NA,NA,NA,NA
"google_only","ChIJ5RDNfzGP2zARPjsy_XZSBv8",NA,NA,"Bandin in the Doi",17.9536163,98.6900665,4.8,26,NA,NA
"google_only","ChIJsUsCQ9mP2zARkPNUck5dpWQ",NA,NA,"เอื้องดอยคาเฟ่",17.953242500000002,98.6722962,4.1,7,NA,NA
"google_only","ChIJLQzZJQCJ2zARVFcWdyWmULg",NA,NA,"บ้านบ้านคาเฟ่ BannBannCafe",17.9244105,98.722154,4.8,13,NA,NA
"google_only","ChIJMZ138fqJ2zARdQcgbOejB0w",NA,NA,"Nature Cafe",17.9388146,98.7203189,4.5,30,NA,NA
"google_only","ChIJn9eDNGmJ2zARr39pEGZM3HY",NA,NA,"บ้านลมหายใจ",17.9276175,98.7279392,5,4,NA,NA
"google_only","ChIJO6nBwQR72zARqDad8hSvqdc",NA,NA,"ไร่คานาอันโฮมคาเฟ่",18.0035246,98.337495,4.9,19,NA,NA
"google_only","ChIJs7luInZ92zARM2LWH3lhRWw",NA,NA,"ร้านมะดอขายน้ำ",17.9586215,98.3545239,2,1,NA,NA
"google_only","ChIJY8IZEjV92zARnTsqIMdOyPo",NA,NA,"กาแฟรอเก้อออ",17.9578957,98.3596121,4.5,2,NA,NA
"google_only","ChIJVSvc91WD3DARiyeAwxNahFE",NA,NA,"หน้าบ้าน HnaBanCafe (ป้าลี)",17.9580174,98.36002510000002,NA,NA,NA,NA
"google_only","ChIJ097KGQCP2zARKSgWXgwcnNk",NA,NA,"ร้านฟองจันทร์",17.9877958,98.689246,NA,NA,NA,NA
"google_only","ChIJn0br3omP2zARBIrtQPCVquE",NA,NA,"Chubby coffee caké",18.0078893,98.6725059,NA,NA,NA,NA
"google_only","ChIJgXnvNwCP2zARtibiw_RZeu8",NA,NA,"Good luck cafe",18.007621,98.6710603,NA,NA,NA,NA
"google_only","ChIJRWRHA7-P2zARRCNCBczKjSA",NA,NA,"ร้านน้ำปั่นป้านุช",18.02634,98.673343,5,1,NA,NA
"google_only","ChIJ_c4aWQCP2zARg7nb8ihMOiQ",NA,NA,"Coffee station สถานีกาแฟ",18.026166,98.667991,NA,NA,NA,NA
"google_only","ChIJId1AIgBx2zARk-wcaxWN0fo",NA,NA,"สโลโม คาเฟ่",18.0705704,98.3382392,5,1,NA,NA
"google_only","ChIJu3TcDSpx2zARVapRAdm_ZGM",NA,NA,"CHA NHA BAN ชาหน้าบ้าน",18.0602088,98.3609302,NA,NA,NA,NA
"google_only","ChIJGQP4fQB72zAR8XEi8MYjEbs",NA,NA,"NF SHOP",18.0475921,98.3629161,NA,NA,NA,NA
"google_only","ChIJsbp5sPl72zARMFVF2ID31Is",NA,NA,"ร้านสังกะสีคอฟฟี่บาร์",18.046208,98.3631338,5,1,NA,NA
"google_only","ChIJRT254aN72zARQipgWAjxl8s",NA,NA,"Miracle coffe by โคนัน",18.0497405,98.3641573,NA,NA,NA,NA
"google_only","ChIJRfoaTAB72zAR3sZLE65eejA",NA,NA,"โตมา คาเฟ่ Toma cafe",18.0476947,98.3645851,5,2,NA,NA
"google_only","ChIJsbdMPA2D2zARAZOdguT7qJE",NA,NA,"ป่าไผ่คอฟฟี่",18.0514821,98.5589296,NA,NA,NA,NA
"google_only","ChIJl7GBOQCD2zARcybvVnc1NYY",NA,NA,"กาแฟสดดอยเรือ",18.06880019999999,98.5489823,NA,NA,NA,NA
"google_only","ChIJP1Bo9smb2zARjB4OYKc1Wtg",NA,NA,"Coffalica coffee slowbar",18.0583438,98.6357951,5,1,NA,NA
"google_only","ChIJRfQzGCyb2zARzvnDYlfEB4Q",NA,NA,"ร้านฟองนม กาแฟสด",18.0607848,98.6362881,4.8,6,NA,NA
"google_only","ChIJP0Kt6y6R2zARj3psFyEq5C8",NA,NA,"บาร์นม Milk bar Fresh coffee",18.0564732,98.7067568,4.5,2,NA,NA
"google_only","ChIJv86CSnSR2zARJNPGNenkvII",NA,NA,"ทุ่งนา โครงการเกษตรทฤษฎีใหม่",18.0558029,98.7074211,4,1,NA,NA
"google_only","ChIJvZs6aACR2zARR92rKqGBbTE",NA,NA,"บ้านสวนภัทร",18.083187,98.693898,NA,NA,NA,NA
"google_only","ChIJd2xR7uNp2zARQ897TNuzDvw",NA,NA,"โฮงเหล็กคอฟฟี่",18.1061706,98.2211808,4.7,40,NA,NA
"google_only","ChIJ9d3MF4tp2zARdlH7r0cYOHk",NA,NA,"ธีร์คาเฟ่",18.0956721,98.2063623,5,1,NA,NA
"google_only","ChIJc-S8lKdp2zARwPTvKeY4UU0",NA,NA,"Peko Coffee",18.09497169999999,98.20533,NA,NA,NA,NA
"google_only","ChIJ56uj6hlp2zARrLFb0kkAQNU",NA,NA,"Hom Doi Coffee",18.0939123,98.2043314,4,2,NA,NA
"google_only","ChIJu75-6sBv2zAR8PcczY7IgpA",NA,NA,"CORN CAFE",18.1039799,98.2241675,NA,NA,NA,NA
"google_only","ChIJqTSbPZ9u2zARlqQ6WFoh8bo",NA,NA,"ปั๊มน้ำมัน ประสงค์บริการ (Cosmo Oil)",18.1509987,98.2449281,4.3,9,NA,NA
"google_only","ChIJky_tKC1v2zARN0bMgAJ3wTM",NA,NA,"ร้านหัวขัวคาเฟ่",18.149284,98.2489683,4.9,9,NA,NA
"google_only","ChIJTSkZawBv2zARxef4GB1ZYxc",NA,NA,"กาแฟ&ลูกชิ้นทอด ผลไม้ตามฤดูกาล",18.1506678,98.246446,NA,NA,NA,NA
"google_only","ChIJBTptyDZx2zARVGKB4res0ps",NA,NA,"กาแฟสวนป่าดอยบ่อหลวง",18.1435604,98.3173711,3.5,4,NA,NA
"google_only","ChIJfyGMj2xx2zARng8BKqFgvP4",NA,NA,"เเอ่วเพ้ Coffee",18.1442992,98.3162619,4.5,4,NA,NA
"google_only","ChIJo-IpTqtx2zARCeBsKhgS-4Q",NA,NA,"ชา-ละว้า",18.1469983,98.3441334,NA,NA,NA,NA
"google_only","ChIJobYp_ZZx2zARS-c8enzZ_iY",NA,NA,"กาแฟคาร์แคร์",18.146624,98.3460982,4.9,10,NA,NA
"google_only","ChIJ3zYSghxx2zARD9dUFbi6iow",NA,NA,"คอฟฟี่ชิลด์ Coffee chill",18.14672,98.3516589,5,7,NA,NA
"google_only","ChIJbVcls4Bx2zAR8y7i9bGcXi0",NA,NA,"เตี๋ยว เตาถ่านบ้านบ่อหลวง",18.1504951,98.3513445,5,4,NA,NA
"google_only","ChIJN5g_1flx2zARCVt59NO-FM4",NA,NA,"กายสิทธิ์ คอฟฟี่,Guyyasit coffee",18.1064924,98.3719454,NA,NA,NA,NA
"google_only","ChIJLVueFrtx2zARD8lguRNYXzI",NA,NA,"Manmok cafe",18.1099318,98.3754307,4.5,32,NA,NA
"google_only","ChIJkR-hPQBx2zAR_3ltdIsP9Dw",NA,NA,"Coffee ชูใจ",18.1045711,98.3745852,NA,NA,NA,NA
"google_only","ChIJ78PF2Uxx2zARnyUd2k7Rstg",NA,NA,"Forget Me Not Cafe",18.1061711,98.3731646,NA,NA,NA,NA
"google_only","ChIJH3UG6Jdx2zAR5yWS0mQmpSc",NA,NA,"Pang-Pang",18.141094,98.3706368,NA,NA,NA,NA
"google_only","ChIJt5LIkp1x2zARXC43rlWylpo",NA,NA,"กิวลมกาแฟสด",18.141094,98.3706368,NA,NA,NA,NA
"google_only","ChIJk_OxwVVz2zARaxegQEH2oKE",NA,NA,"Tea hut",18.1568512,98.3884116,5,1,NA,NA
"google_only","ChIJY7k7DKab2zARoHzW0Cxxo7E",NA,NA,"ลานกาแฟแม่จ๊อม วิวดอย",18.1328767,98.6020301,3,2,NA,NA
"google_only","ChIJFeP3PDib2zAROQh8uJi3Qn0",NA,NA,"ร้านน่านั่ง'Hod Cafe",18.09975859999999,98.5915724,NA,NA,NA,NA
"google_only","ChIJnZI_kQ-a2zARIh8cLZM7aek",NA,NA,"Punpnom&Coffee",18.1248307,98.6409888,5,1,NA,NA
"google_only","ChIJFddzLLWZ2zARBnzc5Bvn0Yw",NA,NA,"จันทร์สมการค้า (อินทร์-แก้ว การ์เด้นท์)",18.150003,98.6024602,5,2,NA,NA
"google_only","ChIJE4N4ujmZ2zARhtVClqosHKQ",NA,NA,"น้ำปั่นป้าน้อยแม่ทัง",18.1557818,98.6045364,4.7,7,NA,NA
"google_only","ChIJKU3jzFyZ2zARz1bn5fIMfuA",NA,NA,"บ้าน อ.กาแฟ บ้านแม่ทัง",18.1575484,98.6053635,4.6,20,NA,NA
"google_only","ChIJZRslztFt2zAR0fHA8dZj9pU",NA,NA,"เก๊าไม้ Kaomai",18.1792804,98.2431747,NA,NA,NA,NA
"google_only","ChIJz5sA1pxt2zARg6HdXGoe_yk",NA,NA,"มาหา คาเฟ่",18.1792804,98.2431747,5,1,NA,NA
"google_only","ChIJRwC3bACf2zARbWXPvUZhVGk",NA,NA,"ออนเดอะเวย์ สาขาตลาดสดฮอด",18.1678057,98.5062007,NA,NA,NA,NA
"google_only","ChIJM2zpkBqZ2zARGtuGCDt9Zog",NA,NA,"100%CoffeeSlowbar",18.1888332,98.6122959,5,2,NA,NA
"google_only","ChIJM0ZOLACZ2zARpXHvvX4FIHc",NA,NA,"สมุทตี้ผลไม้ปั่น",18.1862966,98.6125644,NA,NA,NA,NA
"google_only","ChIJj14r6nGZ2zAR7dvXI1-pbFM",NA,NA,"มังกี้ชา สาขาฮอด",18.1862952,98.6129424,5,1,NA,NA
"google_only","ChIJ1ccmZYGZ2zARc-JSOXPuVj4",NA,NA,"ต ตีม Cafe",18.1862917,98.61295,NA,NA,NA,NA
"google_only","ChIJdT9elAqZ2zARMY8f8NiRqTY",NA,NA,"ชาบะเก๋า สาขาฮอด",18.1906914,98.6123733,5,1,NA,NA
"google_only","ChIJRaCTFyWZ2zAR240Cr_En6bM",NA,NA,"ร้านปะกั๋นกาแฟสด",18.1917046,98.6122364,NA,NA,NA,NA
"google_only","ChIJOSHzknyZ2zARBtKRzkYG3w4",NA,NA,"Fresh Coffee กาแฟสดริมทาง",18.1832844,98.6126617,5,1,NA,NA
"google_only","ChIJnaQW8fuY2zARHxw-4OQ5tlQ",NA,NA,"Cafe Sut Chai",18.1930461,98.6096535,NA,NA,NA,NA
"google_only","ChIJqUxu3w2Z2zARAaPm9PQUZeA",NA,NA,"BEARRYCOFFEE",18.1929679,98.6090323,4.8,4,NA,NA
"google_only","ChIJQ8J2MACZ2zARlxRZmW0NNk0",NA,NA,"ร้านน้ำปั่นน้องชินจัง",18.1829576,98.6127152,5,2,NA,NA
"google_only","ChIJmd-0mBiZ2zARif5goK0b1as",NA,NA,"MIZU 24",18.1936613,98.6112924,4.8,37,NA,NA
"google_only","ChIJ3aZt_JeZ2zARuB3naCL8NNo",NA,NA,"หอมกาแฟฮอด",18.1933946,98.608863,NA,NA,NA,NA
"google_only","ChIJxXbEkmiZ2zARsHPazpPyZMQ",NA,NA,"Good Morning Hod",18.1928433,98.6074038,4.6,91,NA,NA
"google_only","ChIJdc0-UACZ2zARLHJqkjZ5UJ4",NA,NA,"มิราเคิลตลาดสดฮอด",18.1942541,98.6118915,5,1,NA,NA
"google_only","ChIJzRc3EACZ2zARv4Gwz6GKYic",NA,NA,"ออนเดอะเวย์ สาขาฮอด",18.1945822,98.6117776,5,1,NA,NA
"google_only","ChIJ5x6WMACZ2zARf7N8inUly7c",NA,NA,"ร้านเหยิม น้ำชง รวมมิตร #TheTANA Market ฮอด",18.1946742,98.6124183,NA,NA,NA,NA
"google_only","ChIJlZf2lUqZ2zAR0JtHYjqkqi0",NA,NA,"Over1199cafe",18.1945881,98.6080348,4.8,16,NA,NA
"google_only","ChIJ7baX74KZ2zARR6eT9_kw-LQ",NA,NA,"ครัวป้าอี๊ด",18.1808997,98.6137611,4.5,8,NA,NA
"google_only","ChIJJWKi5eKZ2zARExq4K-wkwcY",NA,NA,"ร้านเอ๋กะอิ๋ง",18.1932773,98.6038735,4.3,3,NA,NA
"google_only","ChIJZ7YMCgCZ2zARBuv5Y0k_I3Y",NA,NA,"SMILE COFFEE",18.1810346,98.6204967,5,1,NA,NA
"google_only","ChIJ_02JN-SY2zARegkpFaaNrHg",NA,NA,"กาแฟสดบ้านสวน ฮอด",18.1951719,98.600781,3.9,49,NA,NA
"google_only","ChIJbY3X0dKZ2zAR9SFocNuDCHQ",NA,NA,"คิดฮอดcoffee",18.20000899999999,98.6134164,NA,NA,NA,NA
"google_only","ChIJe4_QaACZ2zARQi1WrghNaS0",NA,NA,"ญอ‘หญิงคาเฟ่",18.1819115,98.625103,NA,NA,NA,NA
"google_only","ChIJD5ZGc9qZ2zARB1TgUpJGEVI",NA,NA,"ร้าน ปั่นปั่นกาแฟสด",18.2072909,98.6154176,5,1,NA,NA
"google_only","ChIJXWa6BQCZ2zARPbU2WQQ7gbQ",NA,NA,"baan_sabyejai (บ้านสบายใจ)",18.2072636,98.6187514,5,42,NA,NA
"google_only","ChIJaQe8ZACZ2zARyN801J_GwRM",NA,NA,"บ้านสบายใจ",18.2072836,98.6187469,5,3,NA,NA
"google_only","ChIJyUCttwiZ2zARPQ-XqgVhkTo",NA,NA,"ร้านฮิมตาง",18.2031614,98.5961567,NA,NA,NA,NA
"google_only","ChIJM1khEe6Z2zAR1sMupppAwgg",NA,NA,"ร้านกาแฟสดมิราเคิลท่าข้าม-ฮอด",18.2090746,98.6161012,4.9,7,NA,NA
"google_only","ChIJQbDnQLSZ2zARJT9IqEBVCtE",NA,NA,"ริตา ชาเฟ่",18.165749,98.6092037,NA,NA,NA,NA
"google_only","ChIJlzw4AjGZ2zAR0mZ3aqZaIGE",NA,NA,"No.309 cafe'",18.2109483,98.6131276,NA,NA,NA,NA
"google_only","ChIJcahuBm-Z2zAR9t0kysTqSKE",NA,NA,"Coffee​ CONS.",18.2106815,98.615937,4.5,41,NA,NA
"google_only","ChIJQVpSQgCZ2zARMtA7LumC_bk",NA,NA,"ร้านกาแฟสด",18.2108317,98.62011,NA,NA,NA,NA
"google_only","ChIJvf-_AACZ2zARFWGOtWmBwTQ",NA,NA,"Café Amazon คาเฟ่ อเมซอน ปตท.บ้านแปะ",18.2166005,98.6161804,4.8,4,NA,NA
"google_only","ChIJvSY6zomY2zARThhxLQcwuaU",NA,NA,"A’sey A’sey coffee",18.2172062,98.6156027,4.4,7,NA,NA
"google_only","ChIJgThe54mY2zARw4b8no-Ftvo",NA,NA,"ไร่เอกเขนก",18.2172411,98.6156066,4.8,56,NA,NA
"google_only","ChIJJVIT33aZ2zARMBRnVu_1leU",NA,NA,"Kenya Coffee & Bistro",18.21836,98.6203772,4.8,6,NA,NA
"google_only","ChIJ7UxiDwCZ2zARU6jjlMzXFt8",NA,NA,"U.BAAN CAFE",18.224649,98.623173,5,3,NA,NA
"google_only","ChIJadqAV8hr2zARyAdBhsYanr8",NA,NA,"Grandma Fong",18.24995599999999,98.193151,4.6,16,NA,NA
"google_only","ChIJ8-74agAV2zAR9YL3wkfXV6g",NA,NA,"พักกาย ลิตเติ้ลคาเฟ่",18.2519298,98.2004742,NA,NA,NA,NA
"google_only","ChIJEXriRVpt2zARGavhQaM6mfw",NA,NA,"ร้านชำ กอฮาย แมโถ",18.2519266,98.2005685,4.8,5,NA,NA
"google_only","ChIJAbIzAw8N2zARkD3FfoOdADU",NA,NA,"ภูเสือคาเฟ่",18.2745984,98.3878074,NA,NA,NA,NA
"google_only","ChIJEw-gWAAN2zARThqNklhjJFU",NA,NA,"ชื่นใจคาเฟ่ แม่แจ่ม",18.2773634,98.3820255,NA,NA,NA,NA
"google_only","ChIJbWekEu2j2zARym5ZBLzXOMQ",NA,NA,"กาแฟโบราณ สาขาถ้ำตอง",18.2422618,98.60407250000002,4.4,14,NA,NA
"google_only","ChIJM4SggBmj2zARulq0SpU3ZT0",NA,NA,"ร้านฮิมตาง By Pack Yam",18.251643,98.5951904,4.5,2,NA,NA
"google_only","ChIJySlyC_ij2zARF_N2rDEFFMw",NA,NA,"Klai Chan Cafe",18.2422589,98.6007865,4.7,42,NA,NA
"google_only","ChIJBY_qWa-j2zART7TRwEUyv-g",NA,NA,"ช่อลดา",18.2393153,98.6060507,5,1,NA,NA
"google_only","ChIJyxX9T6Wj2zARZTU2tFkVzu8",NA,NA,"White love cafe",18.2382107,98.6071165,4.9,11,NA,NA
"google_only","ChIJPYcP-Hii2zARS-TLA7-vDFs",NA,NA,"SMILE CAFE",18.2360892,98.6078557,5,1,NA,NA
"google_only","ChIJe0EdEoKY2zARRt9074GHecM",NA,NA,"กาแฟสดห้วยทราย",18.2329759,98.6095355,3.4,7,NA,NA
"google_only","ChIJGQSmyUKj2zAR-GeP_pzyvQI",NA,NA,"ฮิลใจ 2",18.2897499,98.6400299,NA,NA,NA,NA
"google_only","ChIJVdr7W5ij2zARAC7Va6BEf5M",NA,NA,"Kick off Cafe'",18.2895248,98.6408126,NA,NA,NA,NA
"google_only","ChIJw3IHPbuj2zARUkE2aPHoBe4",NA,NA,"N & Y Love Cafe",18.28965,98.6414646,5,3,NA,NA
"google_only","ChIJoR3-x-m92zARJkulYE_AnqM",NA,NA,"NACK MOKAPOT Coffee รอนานการกาแฟ",18.2788941,98.6616176,5,5,NA,NA
"google_only","ChIJj7e9v4Kj2zARO51jM_aU4Xk",NA,NA,"ฮิมปิง คาเฟ่",18.2811063,98.6542422,4.4,10,NA,NA
"google_only","ChIJc3v2yPSj2zARvLDeOzA8Xa0",NA,NA,"Dlim Coffee",18.2908036,98.6532582,5,5,NA,NA
"google_only","ChIJ3SABlpsN2zARRc55ZiPa6zs",NA,NA,"Khunya coffee",18.3284921,98.3619689,4.8,48,NA,NA
"google_only","ChIJQ11dj8cL2zARL_fizwIZrTo",NA,NA,"Khunpae Corner",18.3224309,98.4773739,5,1,NA,NA
"google_only","ChIJcR8psOwL2zARAvMX6Wayydw",NA,NA,"ร้าน คีรีคอฟฟี่เฮ้าส์ Kiri Coffee House",18.3136251,98.4797664,NA,NA,NA,NA
"google_only","ChIJOw1ehocL2zARFfX635J7CWg",NA,NA,"กาแฟสดร้านนายเอส",18.3093682,98.4720583,5,1,NA,NA
"google_only","ChIJu7DQ1eYL2zAR4cJKZJN7boI",NA,NA,"Khunpae Coffee กาแฟขุนแปะ",18.3082639,98.4764215,4.9,21,NA,NA
"google_only","ChIJNXNhafan2zAR2774d-rA33E",NA,NA,"Zovsiab coffee (ซอเซี๊ยะ คอฟฟี่)",18.3441272,98.5720803,5,3,NA,NA
"google_only","ChIJs11nzPin2zARIOyt4uD_zA8",NA,NA,"ร้าน ล้านเล่าคาเฟ่",18.3471367,98.5711433,4,2,NA,NA
"google_only","ChIJ896UYR6l2zARkDa7bOmm4VA",NA,NA,"ดูเมืองคาเฟ่",18.3476011,98.5721355,5,1,NA,NA
"google_only","ChIJr0Ou5T6j2zARoh0NFiTdg08",NA,NA,"ร้านฮิมตาง กาแฟสด",18.2973707,98.6424027,4,2,NA,NA
"google_only","ChIJ29aCfgCl2zARj5_ijhin23g",NA,NA,"เพียงเธอ coffee",18.3388417,98.6270628,NA,NA,NA,NA
"google_only","ChIJ4cc2eJSj2zAR1ijB4s3_MbI",NA,NA,"Chayanan Slow bar Coffee",18.298121,98.6400857,NA,NA,NA,NA
"google_only","ChIJf-LVO42j2zARcKxWzdaqMrw",NA,NA,"Thee house cafe",18.2933567,98.6372524,4.9,8,NA,NA
"google_only","ChIJGawJHKOj2zAROr-ncvwlW6U",NA,NA,"APA Coffee",18.2948294,98.6428007,4.5,6,NA,NA
"google_only","ChIJI6hVmyaj2zARXL1mW439jJY",NA,NA,"Cornetto Cafe' & Bistro",18.29337169999999,98.6423316,4.2,10,NA,NA
"google_only","ChIJEXnlpTmj2zARypkgo5eiTgg",NA,NA,"ร้านชุมพรคาเฟ่ Chumphon cafe จอมทอง เชียงใหม่",18.2931031,98.6430393,5,9,NA,NA
"google_only","ChIJHXElF9432jARjlAmLPsUwGA",NA,NA,"ร้าน มาย์ มิ้นท์ ขนมจีน 3️⃣น้ำ",18.3349225,98.6758183,NA,NA,NA,NA
"google_only","ChIJYVBwDwC72zARMzca7-8TieU",NA,NA,"ใกล้ฉันคาเฟ่",18.3349029,98.6758885,NA,NA,NA,NA
"google_only","ChIJw2UrVbm72zARb_p4bLFdhPk",NA,NA,"ANAN Cafe'",18.3394641,98.6774571,NA,NA,NA,NA
"google_only","ChIJQ8iHJwC72zARQC8sUBxYrb0",NA,NA,"กาแฟมาดาม",18.3388974,98.6817694,4,1,NA,NA
"google_only","ChIJnbuKT3yj2zARAKdpuP2S2yo",NA,NA,"Cafe’s Bar",18.3130995,98.6575243,5,1,NA,NA
"google_only","ChIJ7cPnMQC72zARiC1lAjGWIzQ",NA,NA,"ชา-เวล Coffee",18.3469243,98.6802246,5,2,NA,NA
"google_only","ChIJ0eR6NNC72zARCxozXhEeX04",NA,NA,"แฟกัน คอฟฟี่ & ส้มตำ",18.3477842,98.6859906,NA,NA,NA,NA
"google_only","ChIJyf6tegC72zAR6fqjcBvkTws",NA,NA,"Z’zela Cha",18.352059,98.6792009,NA,NA,NA,NA
"google_only","ChIJXXaGRgC72zARb1NUc3V8jMg",NA,NA,"พะโส coffee",18.348053,98.686784,NA,NA,NA,NA
"google_only","ChIJB_xHfz272zARQqdRRA_37k8",NA,NA,"ชาบ้านน้อย Cha Ban Noi",18.3466235,98.6901384,NA,NA,NA,NA
"google_only","ChIJHf9H3wi72zARABO77Ce4c_g",NA,NA,"Somboonsub coffee",18.3471392,98.6914021,5,5,NA,NA
"google_only","ChIJTxjl8my72zARFbwFnhT32KY",NA,NA,"At Here Cafe'",18.3597871,98.6771306,4.8,25,NA,NA
"google_only","ChIJsZJIfwC72zARFbDbNmZcbr8",NA,NA,"ร้านชา-เวล",18.3460963,98.6969442,NA,NA,NA,NA
"google_only","ChIJeW3xTQAP2zARzncC3GNgO0A",NA,NA,"BANDOI CAFE (บ้านดอย คาเฟ่)",18.4273632,98.3850006,5,6,NA,NA
"google_only","ChIJ4YkLIgAJ2zARbdKwIMI5bRE",NA,NA,"เฮือนกาแฟ@โม่งหลวง",18.36261889999999,98.4308679,NA,NA,NA,NA
"google_only","ChIJJ1gfHACn2zARVgzQxN50rqI",NA,NA,"Doi Matters coffee",18.3956775,98.5008762,NA,NA,NA,NA
"google_only","ChIJQZQJeVan2zARa-5i88aIkvQ",NA,NA,"Khuntae Arabica",18.3940893,98.5027095,4.4,8,NA,NA
"google_only","ChIJq5ZS3HGn2zAR-tDUfVTZGVQ",NA,NA,"ร้านกาแฟดอยขุนแตะ",18.39008,98.5073655,4.6,8,NA,NA
"google_only","ChIJgfN_Cv2m2zARUFeWNSjJ8_Q",NA,NA,"เฮือนกาแฟby ห้วยส้มป่อย",18.3697049,98.5297103,3.7,3,NA,NA
"google_only","ChIJJf3JIVyn2zARRHUzoXjJN6U",NA,NA,"Zer the cafe",18.3655683,98.519481,5,8,NA,NA
"google_only","ChIJmf-PBgCl2zARIK9ix_LQr5o",NA,NA,"บ้านสานฝันปันสุข Life Coffee & Cacao",18.402101,98.6448473,5,1,NA,NA
"google_only","ChIJKyf2g4-l2zARmc4cGIumPKs",NA,NA,"หลงกาแฟ คาเฟ่ (แม่เตี๊ยะ)",18.4069018,98.6488838,5,2,NA,NA
"google_only","ChIJU73rGZ6l2zARDFyZs2bde_g",NA,NA,"หลองข้าวคอฟฟี่ By คุณตา",18.40579439999999,98.6497247,5,1,NA,NA
"google_only","ChIJpSHiYQCl2zARwiXa1DUnK1E",NA,NA,"กาแฟริมทาง",18.404027,98.6511581,NA,NA,NA,NA
"google_only","ChIJHwjuefql2zARRb9Sj4bdoLw",NA,NA,"กาแฟ เก๊าไม้ สัก Kao Mia Sak Coffee",18.4074258,98.6526675,5,1,NA,NA
"google_only","ChIJt9EUeaa62zARBDvQgOswFsA",NA,NA,"Cafe De Doikaeo คาเฟ่ เดอ ดอยแก้ว",18.4141707,98.6727885,4.4,22,NA,NA
"google_only","ChIJhQgxEAqw2zARS_W8ChCKMmk",NA,NA,"NGEGGEE เง็กกี",18.4203961,98.6769998,4.5,769,NA,NA
"google_only","ChIJQUWFa3Sw2zARStaK6n-k4lQ",NA,NA,"Darint coffee house ดารินทร์คอฟฟี่เฮาส์ ร้านกาแฟจอมทอง",18.4231785,98.6857814,4.5,26,NA,NA
"google_only","ChIJo9vMGBSw2zAR4K0D8WWSrUI",NA,NA,"Kobkit Loft Coffee and Dessert",18.437932,98.6769093,5,4,NA,NA
"google_only","ChIJ_R8QoF272zARgEv-ZgYScCo",NA,NA,"05'Coffee",18.4008314,98.6750108,5,1,NA,NA
"google_only","ChIJQQ7zob-62zARORooIBW8tno",NA,NA,"กาแฟสดภูสะเรียงจอมทอง",18.396831,98.6796279,5,1,NA,NA
"google_only","ChIJBa_A_b272zARRRwn6tQ53uc",NA,NA,"ชามะเก๋า@จอมทอง",18.398927,98.678729,4.8,4,NA,NA
"google_only","ChIJa9qQ-aK72zARCZk9UryL80Q",NA,NA,"CHA LUM DEE ชาลำดี by ตัว น. พอใจ",18.3885931,98.6788976,NA,NA,NA,NA
"google_only","ChIJg2xAijm72zARwbD59s_Qbwg",NA,NA,"Monniicoffee",18.3885625,98.6793125,NA,NA,NA,NA
"google_only","ChIJbzUpRQC72zAR-o44983uuTI",NA,NA,"กาแฟ M8 Coffee Road สาขา2",18.4032278,98.6762254,4.5,2,NA,NA
"google_only","ChIJm22Jcyq72zARZhWrTN4KgcI",NA,NA,"314 Cafe CNX",18.4041865,98.6756797,4.7,3,NA,NA
"google_only","ChIJX_nQUQC72zARJTTBixyawEQ",NA,NA,"Glam cafe and bistro",18.405,98.675326,NA,NA,NA,NA
"google_only","ChIJNcVoVLy72zAR01MCn5r6DuU",NA,NA,"ชาฮิมตาง 108",18.4052832,98.6756,NA,NA,NA,NA
"google_only","ChIJ74uhyeC72zARIEj4sUg9hsM",NA,NA,"คอฟฟี่วิธเลิฟ",18.4055696,98.6748568,NA,NA,NA,NA
"google_only","ChIJR0cKkjm72zARzV7pxgUrYwA",NA,NA,"กาแฟพันธุ์ไทย สาขาโรงพยาบาลจอมทอง",18.4066035,98.6740378,5,2,NA,NA
"google_only","ChIJo70ju7G72zAREs2F5cdJzTk",NA,NA,"ฮิมเหมือง กาแฟ",18.405471,98.6795868,4.9,15,NA,NA
"google_only","ChIJS0Owe0ul2zART31clFvipfU",NA,NA,"House of learning and visibility",18.401646,98.657773,4.7,7,NA,NA
"google_only","ChIJ0RpDK_i72zARYhxPGtvH6gw",NA,NA,"70 พาณิชย์",18.4111353,98.6741749,4.8,5,NA,NA
"google_only","ChIJC4l6W9y72zARvI0QE8fkOTc",NA,NA,"Must try coffee",18.41288699999999,98.6745878,4.8,12,NA,NA
"google_only","ChIJB58gdQC72zARs1C7j7atcWM",NA,NA,"ขุนแตะ อาราบิก้า",18.4133171,98.6736525,NA,NA,NA,NA
"google_only","ChIJs6dpQOe72zARK01fhCJyWB8",NA,NA,"Vienna Coffee",18.4148679,98.6667324,NA,NA,NA,NA
"google_only","ChIJ3ZSHXwC72zARr-DchPzEzcY",NA,NA,"Coff River",18.4157926,98.6696003,5,2,NA,NA
"google_only","ChIJW4DODwC72zARgcjxsBvaisM",NA,NA,"พันธุ์ไทย ดอยแก้ว",18.4155125,98.6758281,4.7,3,NA,NA
"google_only","ChIJSUFRhU272zARK2cNA0UBdsM",NA,NA,"Café Amazon สาขาข้างไปรษณีย์จอมทอง",18.4158736,98.6760933,3.7,10,NA,NA
"google_only","ChIJ1f77Qbi72zARpsM6AkPp8x0",NA,NA,"coffee-1993",18.3784283,98.6882759,NA,NA,NA,NA
"google_only","ChIJXwC66rS72zARbr5_I8yO8iw",NA,NA,"กาแฟข้างบ้าน Next Door Cafe",18.417341,98.6734551,4.3,4,NA,NA
"google_only","ChIJI4hkdAC72zARSjxYCa2ov50",NA,NA,"ชาเย็นอย่างเดียว",18.4167021,98.6784773,5,1,NA,NA
"google_only","ChIJTXCFMgCx2zARUg_WWEmKjXU",NA,NA,"Erawan cannabis",18.4175815,98.6775012,NA,NA,NA,NA
"google_only","ChIJZSby-HO72zARInV-p_CHxG8",NA,NA,"ต้าโป่ง Cafe'",18.4184492,98.673625,4,8,NA,NA
"google_only","ChIJoW3oMQC72zARyypjkHIA3-U",NA,NA,"บ้านซอ คาเฟ่",18.4188507,98.6747562,5,2,NA,NA
"google_only","ChIJDQ6s8l-72zARYJRhMFCuKeo",NA,NA,"M.4 Coffee Slowbar",18.3972735,98.6979415,NA,NA,NA,NA
"google_only","ChIJucQzhAqw2zARf3B8-lnnfYs",NA,NA,"Coffee Garden Chom Thong",18.4193345,98.6799579,4.3,74,NA,NA
"google_only","ChIJm2z5FQCx2zARGTOUpMAs-4k",NA,NA,"NIRIN Coffee ขนมปังปิ้ง",18.4204175,98.6781192,NA,NA,NA,NA
"google_only","ChIJUaylP2Ox2zARsD35OgD-itY",NA,NA,"BANANA.STORY.CAFE",18.4210406,98.6768623,4.4,5,NA,NA
"google_only","ChIJYxFtRgqw2zARQp5C2SCTreg",NA,NA,"กาแฟโบราณต๋าดำ",18.4209759,98.6782294,5,1,NA,NA
"google_only","ChIJuSpQDACx2zARwuVA8kiPEbk",NA,NA,"ตรอก คาเฟ่",18.421591,98.677837,5,1,NA,NA
"google_only","ChIJB--SAaSx2zARNKbokAu3qww",NA,NA,"nornnuea @ inthanon Hotel Hostel & Cafe",18.4214863,98.6782822,4.7,55,NA,NA
"google_only","ChIJj--mO7Kx2zARjacRMTrwSQ0",NA,NA,"Nornnuea cafe",18.4215025,98.6782913,4.5,16,NA,NA
"google_only","ChIJe_DltdCx2zAR4tsUzBZq3rs",NA,NA,"Viva Cafe",18.42266,98.6764487,NA,NA,NA,NA
